[{"brewery":"Kamenitza AD","city":"Plovdiv","lat":42.15,"long":24.75,"best_beer":"Kamenitza Dark Beer","best_beer_score":3.158,"most_popular_beer":"Kamenitza","popularity":48.0,"n_beers":18.0,"avg_abv":3.8472222222,"max_abv":5.6},{"brewery":"White Stork Beer Company","city":"Sofia","lat":42.69751,"long":23.32415,"best_beer":"Original","best_beer_score":3.465,"most_popular_beer":"Original","popularity":6.0,"n_beers":12.0,"avg_abv":6.325,"max_abv":9.1},{"brewery":"Glarus Craft Brewing Co.","city":"Varna","lat":43.21667,"long":27.91667,"best_beer":"Special English Ale","best_beer_score":3.2625,"most_popular_beer":"Special English Ale","popularity":6.0,"n_beers":8.0,"avg_abv":5.275,"max_abv":6.5},{"brewery":"Pirinsko Pivo","city":"Blagoevgrad","lat":42.01667,"long":23.1,"best_beer":"Pirinsko Svetlo","best_beer_score":2.8833333333,"most_popular_beer":"Pirinsko Svetlo","popularity":16.0,"n_beers":3.0,"avg_abv":3.5666666667,"max_abv":4.4},{"brewery":"Zagorka Brewery \/ Pivovaren Zavod Zagorka","city":"Stara Zagora","lat":42.43278,"long":25.64194,"best_beer":"Stolichno Bock","best_beer_score":3.6273684211,"most_popular_beer":"Zagorka Special","popularity":89.0,"n_beers":14.0,"avg_abv":4.9,"max_abv":7.1},{"brewery":"Pivovarna 359","city":"Sofia","lat":42.69751,"long":23.32415,"best_beer":"Divo Pivo HD Limited","best_beer_score":3.35,"most_popular_beer":"Divo Pivo HD Limited","popularity":4.0,"n_beers":5.0,"avg_abv":4.72,"max_abv":5.6},{"brewery":"Pivovaren Zavod Varensko Pivo","city":"Varna","lat":43.21667,"long":27.91667,"best_beer":"MM Pils","best_beer_score":2.67,"most_popular_beer":"MM Pils","popularity":1.0,"n_beers":3.0,"avg_abv":4.4666666667,"max_abv":4.6},{"brewery":"AstikA (Interbrew)","city":"Haskovo","lat":41.93415,"long":25.55557,"best_beer":"Astika Lux Premium","best_beer_score":3.1883333333,"most_popular_beer":"Burgasko Svetlo","popularity":11.0,"n_beers":2.0,"avg_abv":4.65,"max_abv":4.9},{"brewery":"Lomsko Pivo","city":"Lom","lat":43.82106,"long":23.23677,"best_beer":"Lomska Dark Lager","best_beer_score":2.97375,"most_popular_beer":"Lomska Dark Lager","popularity":6.0,"n_beers":8.0,"avg_abv":4.9375,"max_abv":5.5},{"brewery":"Boliarka-VT","city":"Veliko Tarnovo","lat":43.08124,"long":25.62904,"best_beer":"Schweik Czech Lager","best_beer_score":2.72,"most_popular_beer":"Balkansko Svetlo","popularity":5.0,"n_beers":8.0,"avg_abv":4.2,"max_abv":5.4},{"brewery":"Pivovaren Zavod Ledenika","city":"Mezdra","lat":43.15,"long":23.7,"best_beer":"Ledenika Tumno","best_beer_score":2.8766666667,"most_popular_beer":"Ledenika Special","popularity":6.0,"n_beers":5.0,"avg_abv":4.54,"max_abv":5.5},{"brewery":"Pri Kmeta - The Mayor Brewpub","city":"Sofia","lat":42.69751,"long":23.32415,"best_beer":"Kmetsko Black","best_beer_score":3.075,"most_popular_beer":"Kmetsko Black","popularity":2.0,"n_beers":2.0,"avg_abv":4.7,"max_abv":5.2},{"brewery":"Rhombus Craft Brewery","city":"Pazardzhik","lat":42.2,"long":24.33333,"best_beer":"Mint Nights","best_beer_score":2.9566666667,"most_popular_beer":"Mint Nights","popularity":1.0,"n_beers":2.0,"avg_abv":6.1,"max_abv":6.4},{"brewery":"Trima i Dvama (\u0422\u0440\u0438\u043c\u0430 \u0438 \u0414\u0432\u0430\u043c\u0430)","city":"Sliven","lat":42.68583,"long":26.32917,"best_beer":"Black Head Stout","best_beer_score":3.16,"most_popular_beer":"Ginger Sucker","popularity":1.0,"n_beers":2.0,"avg_abv":6.0,"max_abv":7.0},{"brewery":"Ariana Brewery","city":"Sofia","lat":42.69751,"long":23.32415,"best_beer":"Ariana Tumno (Dark)","best_beer_score":3.2128571429,"most_popular_beer":"Ariana","popularity":8.0,"n_beers":2.0,"avg_abv":5.0,"max_abv":5.5},{"brewery":"AH! Brew Works","city":"Sofia","lat":42.69751,"long":23.32415,"best_beer":"\u21163 Bulgarian Pale Ale - \u0411\u0438.\u0420.\u0410.","best_beer_score":3.4330769231,"most_popular_beer":"\u21163 Bulgarian Pale Ale - \u0411\u0438.\u0420.\u0410.","popularity":11.0,"n_beers":7.0,"avg_abv":5.5571428571,"max_abv":6.4},{"brewery":"Shumensko Pivo (Carlsberg)","city":"Shumen","lat":43.27064,"long":26.92286,"best_beer":"Shumensko Tumno","best_beer_score":3.442,"most_popular_beer":"Shumensko Premium","popularity":23.0,"n_beers":9.0,"avg_abv":4.9111111111,"max_abv":5.6},{"brewery":"Ailyak Beer","city":"Sofia","lat":42.69751,"long":23.32415,"best_beer":"Mosaic Session IPA","best_beer_score":3.188,"most_popular_beer":"Mosaic Session IPA","popularity":3.0,"n_beers":1.0,"avg_abv":6.6,"max_abv":6.6},{"brewery":"Blek Pine","city":"Sofia","lat":42.69751,"long":23.32415,"best_beer":"Blek Pine IPA","best_beer_score":3.274,"most_popular_beer":"Blek Pine Stout","popularity":4.0,"n_beers":7.0,"avg_abv":6.5,"max_abv":7.7},{"brewery":"Metalhead Brewery","city":"Burgas","lat":42.50606,"long":27.46781,"best_beer":"Your Girlfriend's Girlfriend","best_beer_score":2.7375,"most_popular_beer":"Your Girlfriend's Girlfriend","popularity":2.0,"n_beers":2.0,"avg_abv":6.15,"max_abv":6.9},{"brewery":"Pivovarna Britos","city":"Veliko Tarnovo","lat":43.08124,"long":25.62904,"best_beer":"Britos Hoppy Blond","best_beer_score":2.6733333333,"most_popular_beer":"Kronberg","popularity":1.0,"n_beers":3.0,"avg_abv":4.8333333333,"max_abv":5.5},{"brewery":"Kanaal","city":"Sofia","lat":42.69751,"long":23.32415,"best_beer":"Kanaal Session IPA","best_beer_score":2.8925,"most_popular_beer":"Kanaal Session IPA","popularity":2.0,"n_beers":1.0,"avg_abv":4.6,"max_abv":4.6}]