[{"brewery":"Cerveza Zigurat","city":"Santiago","lat":-33.45694,"long":-70.64827,"best_beer":"Rusty Cage","best_beer_score":3.3,"most_popular_beer":"Rusty Cage","popularity":2.0,"n_beers":5.0,"avg_abv":6.0,"max_abv":7.0},{"brewery":"Toro Paire","city":"Quill\u00f3n","lat":-36.7443758,"long":-72.4764427,"best_beer":"Kel\u00fc Ale","best_beer_score":2.67,"most_popular_beer":"Kel\u00fc Ale","popularity":2.0,"n_beers":6.0,"avg_abv":6.3833333333,"max_abv":9.5},{"brewery":"Casa Cervecera Quinta Normal S.A.","city":"Santiago","lat":-33.45694,"long":-70.64827,"best_beer":"Quimera Imperial Stout","best_beer_score":3.5055555556,"most_popular_beer":"Quimera Imperial Stout","popularity":34.0,"n_beers":6.0,"avg_abv":6.6,"max_abv":9.5},{"brewery":"Cervecer\u00eda Austral S.A.","city":"Punta Arenas","lat":-53.15483,"long":-70.91129,"best_beer":"Torres Del Paine","best_beer_score":3.3957142857,"most_popular_beer":"Austral Lager","popularity":25.0,"n_beers":8.0,"avg_abv":4.9125,"max_abv":6.1},{"brewery":"Cervecer\u00eda H. Berner","city":"Curic\u00f3","lat":-34.98279,"long":-71.23943,"best_beer":"Berner Martina Strong Ale","best_beer_score":2.6966666667,"most_popular_beer":"Berner Martina Strong Ale","popularity":1.0,"n_beers":2.0,"avg_abv":7.75,"max_abv":10.5},{"brewery":"Cerveza Ruberg","city":"Villa Alemana","lat":-33.04222,"long":-71.37333,"best_beer":"Ruberg Russian","best_beer_score":2.8875,"most_popular_beer":"Ruberg Russian","popularity":2.0,"n_beers":3.0,"avg_abv":7.1333333333,"max_abv":9.0},{"brewery":"Cerveza Guayac\u00e1n","city":"Diaguitas","lat":-30.0224352,"long":-70.6339359,"best_beer":"Diaguitas #33","best_beer_score":3.24,"most_popular_beer":"Guayac\u00e1n Stout","popularity":6.0,"n_beers":9.0,"avg_abv":5.3333333333,"max_abv":7.0},{"brewery":"Compania Cervecera Kunstmann, S.A.","city":"Valdivia","lat":-39.81422,"long":-73.24589,"best_beer":"Kunstmann Gran Torobayo","best_beer_score":3.8551612903,"most_popular_beer":"Torobayo Pale Ale","popularity":39.0,"n_beers":18.0,"avg_abv":5.1333333333,"max_abv":7.5},{"brewery":"Cerveza Granizo","city":"Olmu\u00e9","lat":-32.9956184,"long":-71.186211,"best_beer":"Tue Tue","best_beer_score":3.382,"most_popular_beer":"Tue Tue","popularity":3.0,"n_beers":8.0,"avg_abv":8.2625,"max_abv":12.1},{"brewery":"Microcervecer\u00eda Leyenda","city":"Santiago","lat":-33.45694,"long":-70.64827,"best_beer":"Leyenda IPA Joker","best_beer_score":2.78,"most_popular_beer":"Imperial Stout","popularity":1.0,"n_beers":8.0,"avg_abv":5.5,"max_abv":7.3},{"brewery":"Cervecer\u00eda Salzburg Frutillar","city":"Frutillar","lat":-41.1258462,"long":-73.0604738,"best_beer":"Salzburg Altes Ale","best_beer_score":2.6466666667,"most_popular_beer":"Salzburg Altes Ale","popularity":1.0,"n_beers":1.0,"avg_abv":4.5,"max_abv":4.5},{"brewery":"Cervecera Latinoamericana S.A.","city":"Osorno","lat":-40.57395,"long":-73.13348,"best_beer":"Volcanes del Sur Dopple Bock","best_beer_score":3.0133333333,"most_popular_beer":"Volcanes Del Sur Premium Bock Artesanal Chocolate","popularity":5.0,"n_beers":2.0,"avg_abv":6.0,"max_abv":6.5},{"brewery":"Cervecera Del Puerto","city":"Valpara\u00edso","lat":-33.036,"long":-71.62963,"best_beer":"Del Puerto Barba Roja","best_beer_score":3.162,"most_popular_beer":"Del Puerto Barba Roja","popularity":3.0,"n_beers":6.0,"avg_abv":4.6166666667,"max_abv":5.0},{"brewery":"Cerveza Kudell","city":"Santiago","lat":-33.45694,"long":-70.64827,"best_beer":null,"best_beer_score":null,"most_popular_beer":null,"popularity":null,"n_beers":10.0,"avg_abv":6.57,"max_abv":9.0},{"brewery":"Chester Beer","city":"Puerto Varas","lat":-41.31946,"long":-72.98538,"best_beer":"Chester Rusti 99","best_beer_score":2.5933333333,"most_popular_beer":"Chester Che's IPA","popularity":2.0,"n_beers":6.0,"avg_abv":5.4833333333,"max_abv":6.8},{"brewery":"Cerveza Atrapaniebla","city":"La Serena","lat":-29.90453,"long":-71.24894,"best_beer":"Atrapaniebla","best_beer_score":3.0,"most_popular_beer":"Atrapaniebla Brown Ale","popularity":1.0,"n_beers":2.0,"avg_abv":5.0,"max_abv":5.0},{"brewery":"Compa\u00f1\u00eda Cervecera Yellow Sea (Grassau)","city":"Temuco","lat":-38.73965,"long":-72.59842,"best_beer":"Grassau Bock","best_beer_score":3.292,"most_popular_beer":"Grassau Bock","popularity":3.0,"n_beers":6.0,"avg_abv":5.5833333333,"max_abv":7.0},{"brewery":"Loom Brewpub","city":"Santiago","lat":-33.45694,"long":-70.64827,"best_beer":"Loom Mounstruosa Black IPA","best_beer_score":2.9233333333,"most_popular_beer":"Loom Mounstruosa Black IPA","popularity":1.0,"n_beers":1.0,"avg_abv":7.0,"max_abv":7.0},{"brewery":"Microcervecer\u00eda Rothhammer (Handwerk Brewers Chile S.A.)","city":"Santiago","lat":-33.45694,"long":-70.64827,"best_beer":"Rothhammer Mosaik Red Ale","best_beer_score":3.564,"most_popular_beer":"Brutal Hops","popularity":4.0,"n_beers":9.0,"avg_abv":6.2444444444,"max_abv":9.0},{"brewery":"Mossto BrewFood","city":"Santiago","lat":-33.45694,"long":-70.64827,"best_beer":null,"best_beer_score":null,"most_popular_beer":null,"popularity":null,"n_beers":1.0,"avg_abv":7.0,"max_abv":7.0},{"brewery":"Cerveza Bundor","city":"Valdivia","lat":-39.81422,"long":-73.24589,"best_beer":"Troll","best_beer_score":3.0825,"most_popular_beer":"Belzeboo","popularity":2.0,"n_beers":6.0,"avg_abv":7.3833333333,"max_abv":11.0},{"brewery":"Cerveza Spoh","city":"Santiago","lat":-33.45694,"long":-70.64827,"best_beer":"Spoh Russian Imperial Stout","best_beer_score":3.36,"most_popular_beer":"Spoh Russian Imperial Stout","popularity":4.0,"n_beers":5.0,"avg_abv":6.68,"max_abv":9.2},{"brewery":"Cerveceria Principal (Tubinger)","city":"Santiago","lat":-33.45694,"long":-70.64827,"best_beer":"T\u00fcbinger T\u00fcbinator Strong Dark Ale","best_beer_score":3.32,"most_popular_beer":"T\u00fcbinger IPA","popularity":4.0,"n_beers":10.0,"avg_abv":5.34,"max_abv":8.0},{"brewery":"Cervecera CCU Chile Ltda","city":"Frei M.","lat":-33.4546675,"long":-70.5814826,"best_beer":"Aysen","best_beer_score":2.785,"most_popular_beer":"Morenita","popularity":3.0,"n_beers":6.0,"avg_abv":4.7166666667,"max_abv":6.0},{"brewery":"Szot Microcervecer\u00eda","city":"Santiago","lat":-33.45694,"long":-70.64827,"best_beer":"Szot Amber Ale","best_beer_score":3.3385714286,"most_popular_beer":"Szot Amber Ale","popularity":5.0,"n_beers":8.0,"avg_abv":6.4875,"max_abv":10.5},{"brewery":"Cerveceria Chile","city":"Santiago","lat":-33.45694,"long":-70.64827,"best_beer":"Becker","best_beer_score":2.41,"most_popular_beer":"Becker","popularity":2.0,"n_beers":1.0,"avg_abv":4.5,"max_abv":4.5},{"brewery":"Cerveza Artesanal Cuello Negro","city":"Valdivia","lat":-39.81422,"long":-73.24589,"best_beer":"Cuello Negro Stout","best_beer_score":3.335,"most_popular_beer":"Cuello Negro Ambar","popularity":2.0,"n_beers":2.0,"avg_abv":6.9,"max_abv":8.0},{"brewery":"Casa Cervecera Altamira","city":"Valparaiso","lat":-33.036,"long":-71.62963,"best_beer":"Altamira Amber Ale","best_beer_score":2.9675,"most_popular_beer":"Altamira Amber Ale","popularity":2.0,"n_beers":2.0,"avg_abv":5.15,"max_abv":5.3},{"brewery":"Cervecera Lago Villarrica","city":"Villarrica","lat":-39.28569,"long":-72.2279,"best_beer":"Crater Golden Ale","best_beer_score":2.9166666667,"most_popular_beer":"Crater Golden Ale","popularity":1.0,"n_beers":1.0,"avg_abv":5.6,"max_abv":5.6},{"brewery":"Cervezas Fractal","city":"San Bernardo","lat":-33.59217,"long":-70.6996,"best_beer":"Porter","best_beer_score":2.9233333333,"most_popular_beer":"Porter","popularity":1.0,"n_beers":1.0,"avg_abv":7.0,"max_abv":7.0},{"brewery":"Cerveza de Garage +56","city":"Santiago","lat":-33.45694,"long":-70.64827,"best_beer":"Pale Ale","best_beer_score":2.9966666667,"most_popular_beer":"Stout Con Avena (Oatmeal Stout)","popularity":1.0,"n_beers":2.0,"avg_abv":6.0,"max_abv":7.0},{"brewery":"Cerveceria Belga de la Patagonia S.A.","city":"Coyhaique","lat":-45.57524,"long":-72.06619,"best_beer":"Patagonia D'olbek","best_beer_score":3.124,"most_popular_beer":"Patagonia D'olbek","popularity":3.0,"n_beers":2.0,"avg_abv":4.65,"max_abv":4.8},{"brewery":"Cervecera CCU Chile","city":"Santiago","lat":-33.45694,"long":-70.64827,"best_beer":"Escudo Triple-X","best_beer_score":3.02,"most_popular_beer":"Escudo Triple-X","popularity":3.0,"n_beers":1.0,"avg_abv":6.1,"max_abv":6.1},{"brewery":"Cerveza GEA","city":"Olmu\u00e9","lat":-32.9956184,"long":-71.186211,"best_beer":"GEA Pale Ale","best_beer_score":2.6,"most_popular_beer":"GEA Pale Ale","popularity":1.0,"n_beers":1.0,"avg_abv":5.2,"max_abv":5.2},{"brewery":"Cerveza Prima","city":"Santiago","lat":-33.45694,"long":-70.64827,"best_beer":"Prima Imperial Stout","best_beer_score":2.9133333333,"most_popular_beer":"Prima Imperial Stout","popularity":1.0,"n_beers":1.0,"avg_abv":8.0,"max_abv":8.0},{"brewery":"Cerveza Artesanal Trog","city":"Santiago","lat":-33.45694,"long":-70.64827,"best_beer":"Trog Weizenbock","best_beer_score":2.8966666667,"most_popular_beer":"Trog Scotch Ale","popularity":1.0,"n_beers":4.0,"avg_abv":5.75,"max_abv":7.0},{"brewery":"Cervezas Artesanales S.A. (Mestra)","city":"Malloco","lat":-33.6042468,"long":-70.8526137,"best_beer":"Mestra Stout","best_beer_score":2.9475,"most_popular_beer":"Mestra Stout","popularity":2.0,"n_beers":5.0,"avg_abv":5.24,"max_abv":6.5},{"brewery":"Cerveza Copper","city":"Rancagua","lat":-34.17083,"long":-70.74444,"best_beer":"Copper Belgian Strong Ale","best_beer_score":2.69,"most_popular_beer":"Copper Belgian Strong Ale","popularity":1.0,"n_beers":1.0,"avg_abv":8.5,"max_abv":8.5},{"brewery":"Kross Microbrew Beer (Southern Brewing Company)","city":"Curacav\u00ed","lat":-33.4022289,"long":-71.1293733,"best_beer":"Kross 5","best_beer_score":3.8766666667,"most_popular_beer":"Kross 5","popularity":34.0,"n_beers":11.0,"avg_abv":6.5272727273,"max_abv":9.3},{"brewery":"Cervecer\u00eda Rapa Nui","city":"Isla de Pascua","lat":-27.12595935,"long":-109.3495764221,"best_beer":"Mahina Stout","best_beer_score":3.2775,"most_popular_beer":"Mahina Pale Ale","popularity":2.0,"n_beers":3.0,"avg_abv":6.1333333333,"max_abv":6.8},{"brewery":"Cerveza Emperador","city":"Santiago","lat":-33.45694,"long":-70.64827,"best_beer":"Old Ale","best_beer_score":2.9933333333,"most_popular_beer":"Emperador Stout","popularity":1.0,"n_beers":4.0,"avg_abv":6.15,"max_abv":8.1},{"brewery":"Cerveceria Artesanal Petermann","city":"Neltume","lat":-39.8502964,"long":-71.9422413,"best_beer":"Piedras Negras","best_beer_score":3.1075,"most_popular_beer":"Piedras Negras","popularity":2.0,"n_beers":2.0,"avg_abv":5.75,"max_abv":6.5},{"brewery":"Cervecer\u00eda Yakima","city":"Santiago","lat":-33.45694,"long":-70.64827,"best_beer":"Cream Ale","best_beer_score":2.7933333333,"most_popular_beer":"Cream Ale","popularity":1.0,"n_beers":1.0,"avg_abv":4.8,"max_abv":4.8},{"brewery":"Cervecer\u00eda Jester","city":"Conchal\u00ed","lat":-33.38477515,"long":-70.6746057646,"best_beer":"Luptopia","best_beer_score":3.64,"most_popular_beer":"Jester Cosmonauta RIS","popularity":7.0,"n_beers":4.0,"avg_abv":7.575,"max_abv":9.5},{"brewery":"Cervecer\u00eda Quebrada","city":"Curacav\u00ed","lat":-33.4022289,"long":-71.1293733,"best_beer":"Quebrada Pale Ale","best_beer_score":2.73,"most_popular_beer":"Quebrada Pale Ale","popularity":1.0,"n_beers":1.0,"avg_abv":6.5,"max_abv":6.5},{"brewery":"Cerveza KAF","city":"Temuco","lat":-38.73965,"long":-72.59842,"best_beer":"Wet Hop American Pale Ale","best_beer_score":2.9166666667,"most_popular_beer":"India Pale Ale","popularity":1.0,"n_beers":2.0,"avg_abv":5.25,"max_abv":6.0},{"brewery":"Cervecer\u00eda Pud\u00fa","city":"Santiago","lat":-33.45694,"long":-70.64827,"best_beer":"Pud\u00fa Irish Red Ale","best_beer_score":2.7566666667,"most_popular_beer":"Pud\u00fa Irish Red Ale","popularity":1.0,"n_beers":1.0,"avg_abv":5.6,"max_abv":5.6},{"brewery":"Hathor Cerveza Artesanal","city":"Curacav\u00ed","lat":-33.4022289,"long":-71.1293733,"best_beer":"Hathor Foreign Extra Stout","best_beer_score":2.83,"most_popular_beer":"Hathor Foreign Extra Stout","popularity":1.0,"n_beers":2.0,"avg_abv":6.25,"max_abv":7.0},{"brewery":"Cervecer\u00eda Coda","city":"Casablanca","lat":-33.3205864,"long":-71.4100762,"best_beer":"Symphony","best_beer_score":3.14,"most_popular_beer":"Symphony","popularity":2.0,"n_beers":1.0,"avg_abv":10.0,"max_abv":10.0},{"brewery":"Cerveza N\u00f3made","city":"Santiago","lat":-33.45694,"long":-70.64827,"best_beer":"Nomade Indian Pale","best_beer_score":3.2283333333,"most_popular_beer":"Nomade Indian Pale","popularity":4.0,"n_beers":3.0,"avg_abv":5.7,"max_abv":6.7},{"brewery":"Cerveceria Kuhba","city":"Puc\u00f3n","lat":-39.28223,"long":-71.95427,"best_beer":"Kuhba Stout","best_beer_score":3.1666666667,"most_popular_beer":"Kuhba Stout","popularity":1.0,"n_beers":1.0,"avg_abv":5.0,"max_abv":5.0},{"brewery":"Cerveza Heritage","city":"Valpara\u00edso","lat":-33.036,"long":-71.62963,"best_beer":"Heritage Alegre Lager Albahaca","best_beer_score":2.7466666667,"most_popular_beer":"Heritage Alegre Lager Albahaca","popularity":1.0,"n_beers":1.0,"avg_abv":3.0,"max_abv":3.0},{"brewery":"Cerveteca","city":"Santiago","lat":-33.45694,"long":-70.64827,"best_beer":"Cerveteca De Autor 7 Christmas Ale","best_beer_score":2.84,"most_popular_beer":"Cerveteca De Autor 7 Christmas Ale","popularity":1.0,"n_beers":1.0,"avg_abv":7.0,"max_abv":7.0},{"brewery":"Pub HBH (\u00d1u\u00f1oa)","city":"Santiago","lat":-33.45694,"long":-70.64827,"best_beer":"Rubia","best_beer_score":2.6733333333,"most_popular_beer":"Negra","popularity":1.0,"n_beers":2.0,"avg_abv":5.0,"max_abv":5.0},{"brewery":"Cervecer\u00eda Hess","city":"Valparaiso","lat":-33.036,"long":-71.62963,"best_beer":"Saure Hure","best_beer_score":2.8033333333,"most_popular_beer":"Saure Hure","popularity":1.0,"n_beers":1.0,"avg_abv":6.9,"max_abv":6.9},{"brewery":"Cervecer\u00eda Perra Brava","city":"Santiago","lat":-33.45694,"long":-70.64827,"best_beer":"Perra Brava Porter","best_beer_score":2.68,"most_popular_beer":"Perra Brava Porter","popularity":1.0,"n_beers":1.0,"avg_abv":5.6,"max_abv":5.6},{"brewery":"Cerveza Archipi\u00e9lago","city":"Isla Robinson Crusoe","lat":-33.6444796,"long":-78.8395635413,"best_beer":"Alejandro Selkirk Stout Ale","best_beer_score":3.196,"most_popular_beer":"Alejandro Selkirk Stout Ale","popularity":3.0,"n_beers":1.0,"avg_abv":5.0,"max_abv":5.0},{"brewery":"Cerveza Caudillo","city":"Santiago","lat":-33.45694,"long":-70.64827,"best_beer":"Caudillo India Pale Ale","best_beer_score":2.6633333333,"most_popular_beer":"Caudillo India Pale Ale","popularity":1.0,"n_beers":1.0,"avg_abv":8.3,"max_abv":8.3}]