[{"brewery":"Prvn\u00ed Bud\u011bjovick\u00fd Pivovar Samson","city":"\u010cesk\u00e9 Bud\u011bjovice","lat":48.97447,"long":14.47434,"best_beer":"Praga Dark Lager","best_beer_score":3.524676259,"most_popular_beer":"Praga Dark Lager","popularity":137.0,"n_beers":19.0,"avg_abv":4.4105263158,"max_abv":8.0},{"brewery":"Pivovar Kocour Varnsdorf","city":"Varnsdorf","lat":50.91154,"long":14.61824,"best_beer":"Kocour Catfish Sume\u010dek","best_beer_score":3.59,"most_popular_beer":"IPA Samurai","popularity":35.0,"n_beers":18.0,"avg_abv":5.9666666667,"max_abv":14.5},{"brewery":"\u008e\u017dateck\u00fd Pivovar","city":"\u017da\u008eatec","lat":50.32717,"long":13.54577,"best_beer":"\u008e\u017datec Dark Lager","best_beer_score":3.7572727273,"most_popular_beer":"\u008e\u008e\u017datec","popularity":199.0,"n_beers":12.0,"avg_abv":5.1333333333,"max_abv":7.3},{"brewery":"Pivovar Permon","city":"Sokolov","lat":50.1813,"long":12.6401,"best_beer":"16\u00b0 Sherpa","best_beer_score":3.822,"most_popular_beer":"16\u00b0 Sherpa","popularity":8.0,"n_beers":41.0,"avg_abv":5.9902439024,"max_abv":8.0},{"brewery":"Pivovar N\u00e1chod a.s.","city":"N\u00e1chod","lat":50.4167,"long":16.16289,"best_beer":"Prim\u00e1tor Weizenbier","best_beer_score":3.7881395349,"most_popular_beer":"Prim\u00e1tor Double Bock Beer","popularity":178.0,"n_beers":24.0,"avg_abv":5.4333333333,"max_abv":10.5},{"brewery":"Pivovar Breznak","city":"Velke Brezno","lat":50.662703,"long":14.1417394,"best_beer":"Breznak Schwarzbier","best_beer_score":3.4292857143,"most_popular_beer":"Breznak Lager","popularity":34.0,"n_beers":11.0,"avg_abv":5.3363636364,"max_abv":10.0},{"brewery":"Pivovar Rychtar Hlinsko","city":"Hlinsko V Cechach","lat":49.7631096,"long":15.9046170193,"best_beer":"Rycht\u00e1\u0159 Speci\u00e1l 15\u00b0","best_beer_score":3.185,"most_popular_beer":"Rycht\u00e1\u0159 Premium 12\u00b0","popularity":6.0,"n_beers":6.0,"avg_abv":4.8333333333,"max_abv":6.5},{"brewery":"Pivovar \u010cern\u00e1 Hora","city":"\u00c8ern\u00e1 Hora","lat":50.56101,"long":15.9127,"best_beer":"\u010cern\u00e1 Hora Moravsk\u00e9 Sklepn\u00ed","best_beer_score":3.5061538462,"most_popular_beer":"\u010cern\u00e1 Hora Velen","popularity":19.0,"n_beers":17.0,"avg_abv":4.4405882353,"max_abv":6.3},{"brewery":"Pivovar Raven","city":"Plze\u0148","lat":49.69768,"long":13.4735,"best_beer":"Raven Blond IPA","best_beer_score":3.505,"most_popular_beer":"Raven Brewstock Orange IPA","popularity":3.0,"n_beers":15.0,"avg_abv":6.24,"max_abv":8.7},{"brewery":"Brewery Lobkowicz","city":"Vysoky Chlumec","lat":49.6176522,"long":14.3897618,"best_beer":"Lobkowicz Baron","best_beer_score":3.6224637681,"most_popular_beer":"Lobkowicz Baron","popularity":67.0,"n_beers":20.0,"avg_abv":4.5195,"max_abv":5.7},{"brewery":"Pivovar Broumov","city":"Broumov","lat":50.58566,"long":16.33181,"best_beer":"Opat \u010cokol\u00e1dov\u00fd Speci\u00e1l","best_beer_score":3.627,"most_popular_beer":"Opat \u010cokol\u00e1dov\u00fd Speci\u00e1l","popularity":8.0,"n_beers":10.0,"avg_abv":4.86,"max_abv":5.5},{"brewery":"Prager Laffe","city":"Praha","lat":50.08804,"long":14.42076,"best_beer":null,"best_beer_score":null,"most_popular_beer":null,"popularity":null,"n_beers":11.0,"avg_abv":5.9636363636,"max_abv":7.1},{"brewery":"Pivovar Nymburk, spol. s r.o.","city":"Nymburk","lat":50.18605,"long":15.04167,"best_beer":"ZlatoPra\u017eske","best_beer_score":3.1975,"most_popular_beer":"Gold Bohemia Beer","popularity":12.0,"n_beers":12.0,"avg_abv":4.675,"max_abv":5.8},{"brewery":"Bernard Family Brewery","city":"Humpolec","lat":49.54152,"long":15.35932,"best_beer":"Bernard Bohemian Ale","best_beer_score":3.7861702128,"most_popular_beer":"Bernard Sv\u00e1te\u010dn\u00ed Le\u017e\u00e1k 12\u00b0","popularity":87.0,"n_beers":25.0,"avg_abv":4.336,"max_abv":8.2},{"brewery":"Frankies B\u0159eclav","city":"B\u0159eclav","lat":48.75897,"long":16.88203,"best_beer":null,"best_beer_score":null,"most_popular_beer":null,"popularity":null,"n_beers":1.0,"avg_abv":5.3,"max_abv":5.3},{"brewery":"Pivovar Velk\u00e9 Popovice a.s.","city":"Velk\u00e9 Popovice","lat":49.92252,"long":14.63934,"best_beer":"Master Tmavy","best_beer_score":3.7463636364,"most_popular_beer":"Kozel Cerny (Kozel Dark) Velckopopovicky","popularity":294.0,"n_beers":9.0,"avg_abv":4.8833333333,"max_abv":7.0},{"brewery":"M\u011b\u0161\u0165ansk\u00fd pivovar Havl\u00ed\u010dk\u016fv Brod","city":"Havlickuv Brod","lat":49.6069,"long":15.57937,"best_beer":"Lev Black Lion","best_beer_score":3.387826087,"most_popular_beer":"Rebel","popularity":283.0,"n_beers":10.0,"avg_abv":4.38,"max_abv":6.2},{"brewery":"Kl\u00e1\u0161tern\u00ed pivovar Strahov","city":"Praha","lat":50.08804,"long":14.42076,"best_beer":"Saint Norbert IPA","best_beer_score":4.0055555556,"most_popular_beer":"Saint Norbert Dark","popularity":31.0,"n_beers":15.0,"avg_abv":6.08,"max_abv":9.7},{"brewery":"Pivovar Konrad \/ Pivovar Hols","city":"Liberec Vratislavice","lat":50.7434889,"long":15.0964436,"best_beer":"Konrad Polotmav\u00fd","best_beer_score":3.5693333333,"most_popular_beer":"Konrad Sv\u00ectl\u00fd Le\u009e\u00e1k 11\u00b0","popularity":32.0,"n_beers":23.0,"avg_abv":5.247826087,"max_abv":7.2},{"brewery":"Pivovar Herold B\u0159eznice A.s.","city":"B\u0159eznice","lat":49.55763,"long":13.95063,"best_beer":"Herold Bohemian Black Lager","best_beer_score":3.9416346154,"most_popular_beer":"Herold Bohemian Black Lager","popularity":102.0,"n_beers":14.0,"avg_abv":5.4857142857,"max_abv":9.0},{"brewery":"Wild Creatures","city":"Mikulov","lat":48.80556,"long":16.6378,"best_beer":"Fly With Me - Sour Cherry","best_beer_score":3.8171428571,"most_popular_beer":"Meditation Grand Reserve","popularity":8.0,"n_beers":5.0,"avg_abv":5.72,"max_abv":6.3},{"brewery":"Pivovarsk\u00fd d\u016fm","city":"Praha","lat":50.08804,"long":14.42076,"best_beer":"\u0160amp - Pivn\u00ed Sekt","best_beer_score":3.7008333333,"most_popular_beer":"Vi\u0161\u0148ov\u00e9 Pivo","popularity":14.0,"n_beers":5.0,"avg_abv":5.3,"max_abv":8.5},{"brewery":"B\u0159evnovsk\u00fd Kl\u00e1\u0161tern\u00ed Pivovar","city":"Praha","lat":50.08804,"long":14.42076,"best_beer":"B\u0159evnovsk\u00fd Benedict Russian Imperial Stout","best_beer_score":3.867,"most_popular_beer":"Benedict Kl\u00e1\u0161tern\u00ed IPA","popularity":9.0,"n_beers":6.0,"avg_abv":6.8666666667,"max_abv":8.5},{"brewery":"Pivovar Chot\u011bbo\u0159","city":"Chot\u011bbo\u0159","lat":49.72072,"long":15.67018,"best_beer":"Chotebor Original","best_beer_score":2.9233333333,"most_popular_beer":"Chotebor Original","popularity":1.0,"n_beers":2.0,"avg_abv":4.55,"max_abv":5.0},{"brewery":"Nova Paka Brewery","city":"Nov\u00e1 Paka","lat":50.49449,"long":15.51503,"best_beer":"Gran\u00e1t - BrouCzech Dark","best_beer_score":3.5556097561,"most_popular_beer":"Gran\u00e1t - BrouCzech Dark","popularity":39.0,"n_beers":22.0,"avg_abv":5.0090909091,"max_abv":7.0},{"brewery":"Minipivovar Matu\u0161ka Broumy (Matuska)","city":"Broumy","lat":49.95507,"long":13.85226,"best_beer":"Golden Rocket (Zlat\u00e1 Raketa)","best_beer_score":4.0815384615,"most_popular_beer":"Matu\u0161ka IPA Raptor Super Dry","popularity":30.0,"n_beers":21.0,"avg_abv":6.049047619,"max_abv":9.6},{"brewery":"M\u011bstsk\u00fd Pivovar Platan S.r.o.","city":"Protiv\u00edn","lat":49.19949,"long":14.21717,"best_beer":"Merlin \u010cerny","best_beer_score":3.5457894737,"most_popular_beer":"Merlin \u010cerny","popularity":36.0,"n_beers":17.0,"avg_abv":4.7758823529,"max_abv":10.5},{"brewery":"Pivovary Staropramen","city":"Praha","lat":50.08804,"long":14.42076,"best_beer":"Staropramen \u010cern\u00fd","best_beer_score":3.5985869565,"most_popular_beer":"Staropramen Lager","popularity":870.0,"n_beers":18.0,"avg_abv":4.2494444444,"max_abv":5.3},{"brewery":"Pivovar Bizon","city":"\u010ci\u017eice","lat":49.6479338,"long":13.3978835,"best_beer":"Freedom IPA","best_beer_score":2.9766666667,"most_popular_beer":"Freedom IPA","popularity":1.0,"n_beers":2.0,"avg_abv":5.55,"max_abv":5.7},{"brewery":"Bud\u011bjovick\u00fd Budvar, n.p.","city":"Ceske Budejovice","lat":48.97447,"long":14.47434,"best_beer":"Budweiser Budvar Czech Dark Lager","best_beer_score":3.6709387755,"most_popular_beer":"Budweiser Budvar B:Original","popularity":1601.0,"n_beers":13.0,"avg_abv":5.1615384615,"max_abv":7.6},{"brewery":"Pivovar Rakovnik","city":"Rakovn\u00edk","lat":50.1037,"long":13.7334,"best_beer":"Bakal\u00e1\u0159 Polotmav\u00e9 V\u00fd\u010depn\u00ed 11\u00b0 (Bakalar Light Dark Beer)","best_beer_score":3.6605263158,"most_popular_beer":"Bakalar Svetl\u00fd Le\u009e\u00e1k","popularity":32.0,"n_beers":14.0,"avg_abv":4.9857142857,"max_abv":7.5},{"brewery":"Plze\u0148sk\u00fd Prazdroj","city":"Plze\u0148","lat":49.69768,"long":13.4735,"best_beer":"Pilsner Urquell Nefiltrovan\u00fd","best_beer_score":4.0339215686,"most_popular_beer":"Pilsner Urquell","popularity":4021.0,"n_beers":23.0,"avg_abv":4.6956521739,"max_abv":7.0},{"brewery":"Lucky Bastard","city":"Brno","lat":49.19522,"long":16.60796,"best_beer":"Lucky Bastard Pale","best_beer_score":3.2716666667,"most_popular_beer":"Lucky Bastard Pale","popularity":4.0,"n_beers":7.0,"avg_abv":5.5571428571,"max_abv":6.7},{"brewery":"Kr\u00e1lovsk\u00fd Pivovar Kru\u0161ovice a.s.","city":"Kru\u0161ovice","lat":50.17179,"long":13.77602,"best_beer":"Kru\u0161ovice Cerne","best_beer_score":3.5572727273,"most_popular_beer":"Kru\u0161ovice Imperial","popularity":382.0,"n_beers":10.0,"avg_abv":4.17,"max_abv":5.0},{"brewery":"M\u011b\u009a\u0165ansk\u00fd Pivovar Strakonice","city":"Strakonice","lat":49.26141,"long":13.90237,"best_beer":"Klostermann Polotmav\u00fd Le\u009e\u00e1k 13\u00b0","best_beer_score":3.085,"most_popular_beer":"Strakonicky Dudak Premium","popularity":2.0,"n_beers":5.0,"avg_abv":4.12,"max_abv":5.5},{"brewery":"Pivovar K\u00e1cov","city":"K\u00e1cov","lat":49.77787,"long":15.02789,"best_beer":"K\u00e1cov Hubertus 13\u00b0 Speci\u00e1lni Tmav\u00e9","best_beer_score":3.294,"most_popular_beer":"Hubertus 11\u00b0 Sv\u011btl\u00fd Le\u017e\u00e1k","popularity":6.0,"n_beers":4.0,"avg_abv":4.775,"max_abv":5.8},{"brewery":"Z\u00e1meck\u00fd Pivovar B\u0159eclav","city":"B\u0159eclav","lat":48.75897,"long":16.88203,"best_beer":"Podlu\u017ean","best_beer_score":3.045,"most_popular_beer":"Podlu\u017ean","popularity":2.0,"n_beers":2.0,"avg_abv":4.75,"max_abv":5.0},{"brewery":"Pardubick\u00fd pivovar a.s.","city":"Pardubice","lat":50.04075,"long":15.77659,"best_beer":"Porter","best_beer_score":3.8179661017,"most_popular_beer":"Porter","popularity":57.0,"n_beers":20.0,"avg_abv":5.495,"max_abv":8.0},{"brewery":"Pivovar Svijany","city":"P\u0159\u00ed\u0161ovice","lat":50.57813,"long":15.0839,"best_beer":"Svijansk\u00e1 Kn\u011b\u017ena 13%","best_beer_score":3.7018181818,"most_popular_beer":"Svijansk\u00fd M\u00e1z 11%","popularity":27.0,"n_beers":13.0,"avg_abv":4.8769230769,"max_abv":6.5},{"brewery":"Pivovar Nom\u00e1d","city":"Decin","lat":50.78215,"long":14.21478,"best_beer":"Nom\u00e1d Karel \u010cesk\u00e1 IPA","best_beer_score":3.02,"most_popular_beer":"Nom\u00e1d Karel \u010cesk\u00e1 IPA","popularity":1.0,"n_beers":1.0,"avg_abv":7.6,"max_abv":7.6},{"brewery":"Pivovoar Branik","city":"Praha","lat":50.08804,"long":14.42076,"best_beer":"Branik Lager (Svetle 10)","best_beer_score":3.2266666667,"most_popular_beer":"Branik Lager (Svetle 10)","popularity":7.0,"n_beers":3.0,"avg_abv":4.5333333333,"max_abv":5.0},{"brewery":"Pivovar Ostravar (Staropramen Breweries \/ Inbev)","city":"Ostravar","lat":49.83835735,"long":18.2714892097,"best_beer":"Ostravar Premium","best_beer_score":3.038,"most_popular_beer":"Ostravar Premium","popularity":8.0,"n_beers":2.0,"avg_abv":4.65,"max_abv":5.0},{"brewery":"Jihlavsk\u00fd Radni\u010dn\u00ed Pr\u00e1vov\u00e1re\u010dn\u00fd Pivovar","city":"Jihlava","lat":49.3961,"long":15.59124,"best_beer":"Post Apocalyptic Ale 12\u00b0","best_beer_score":3.0,"most_popular_beer":"Post Apocalyptic Ale 12\u00b0","popularity":1.0,"n_beers":3.0,"avg_abv":5.2,"max_abv":5.9},{"brewery":"Pivovar Prerov","city":"Prerov","lat":50.16027,"long":14.82502,"best_beer":"Zubr Classic Dark","best_beer_score":3.205,"most_popular_beer":"Zubr Bison","popularity":76.0,"n_beers":8.0,"avg_abv":4.4625,"max_abv":5.8},{"brewery":"Pivovar Kutn\u00e1 Hora","city":"Kutn\u00e1 Hora","lat":49.94839,"long":15.26816,"best_beer":"Da\u010dick\u00fd (Kutnohorsk\u00fd Sv\u011btl\u00fd Le\u009e\u00e1k)","best_beer_score":3.1471428571,"most_popular_beer":"Da\u010dick\u00fd (Kutnohorsk\u00fd Sv\u011btl\u00fd Le\u009e\u00e1k)","popularity":5.0,"n_beers":3.0,"avg_abv":5.1,"max_abv":6.0},{"brewery":"Staropilsen","city":"Plze\u0148","lat":49.69768,"long":13.4735,"best_beer":"Staropilsen","best_beer_score":3.2721052632,"most_popular_beer":"Staropilsen","popularity":17.0,"n_beers":9.0,"avg_abv":5.1222222222,"max_abv":12.0},{"brewery":"Pra\u017esk\u00fd Most U Val\u0161\u016f","city":"Praha","lat":50.08804,"long":14.42076,"best_beer":"Prazsky Most Dark","best_beer_score":3.222,"most_popular_beer":"Pra\u009esk\u00fd Most Sv\u011btl\u00e9","popularity":4.0,"n_beers":2.0,"avg_abv":5.45,"max_abv":5.9},{"brewery":"Pivovar Regent T\u0159ebo\u0148","city":"T\u0159ebo\u0148","lat":49.00364,"long":14.77065,"best_beer":"Bohemia Regent Premium Lager","best_beer_score":3.359047619,"most_popular_beer":"Bohemia Regent Premium Dark","popularity":35.0,"n_beers":11.0,"avg_abv":4.9545454545,"max_abv":7.2},{"brewery":"Explosion Brewing Company","city":"Strakonice","lat":49.26141,"long":13.90237,"best_beer":"Boom Chocolate Stout Porter","best_beer_score":3.2625,"most_popular_beer":"Boom Chocolate Stout Porter","popularity":22.0,"n_beers":4.0,"avg_abv":8.4,"max_abv":8.8},{"brewery":"Pivovar Starbrno, A.S.","city":"Brno","lat":49.19522,"long":16.60796,"best_beer":"Starobrno","best_beer_score":3.5211881188,"most_popular_beer":"Starobrno","popularity":99.0,"n_beers":11.0,"avg_abv":4.9363636364,"max_abv":6.0},{"brewery":"Pivovar Kl\u00e1\u0161ter","city":"Hradi\u009at\u00ec nad Jizerou","lat":50.7720087,"long":15.4315431,"best_beer":"Premium Lager \/ Kl\u00e1ster Svetl\u00fd Special 14%","best_beer_score":3.7171428571,"most_popular_beer":"Dark Beer \/ Kl\u00e1ster Tmav\u00e9 10%","popularity":76.0,"n_beers":9.0,"avg_abv":5.2111111111,"max_abv":7.5},{"brewery":"Pivovar Radegast a.s.","city":"Nosovic","lat":49.6606723,"long":18.426381,"best_beer":"Radegast Premium","best_beer_score":3.4421818182,"most_popular_beer":"Radegast Premium","popularity":53.0,"n_beers":7.0,"avg_abv":4.2428571429,"max_abv":6.5},{"brewery":"Pivovar Rohozec","city":"Turnov","lat":50.58356,"long":15.15186,"best_beer":"Rohozec Skal\u00e1k Sv\u011btl\u00fd Le\u009e\u00e1k Premium 12\u00b0","best_beer_score":3.3983333333,"most_popular_beer":"Rohozec Skal\u00e1k Sv\u011btl\u00fd Le\u009e\u00e1k Premium 12\u00b0","popularity":10.0,"n_beers":6.0,"avg_abv":5.0833333333,"max_abv":6.0},{"brewery":"Pivovar Poutn\u00edk","city":"Pelh\u0159imov","lat":49.43134,"long":15.22336,"best_beer":"Poutn\u00edk Pelh\u0159imov","best_beer_score":3.6185714286,"most_popular_beer":"Poutn\u00edk Pelh\u0159imov","popularity":12.0,"n_beers":2.0,"avg_abv":5.5,"max_abv":6.0},{"brewery":"Chodovar Brewery","city":"Chodov\u00e1 Plan\u00e1","lat":49.89321,"long":12.73014,"best_beer":"Chodovar 13%","best_beer_score":3.653,"most_popular_beer":"\u010cern\u00e9 Z\u00e1meck\u00e9","popularity":14.0,"n_beers":7.0,"avg_abv":4.7571428571,"max_abv":5.1},{"brewery":"Pivovar a Sodovk\u00e1rna Jihlava","city":"Jihlava","lat":49.3961,"long":15.59124,"best_beer":"Je\u009eek 11\u00b0","best_beer_score":3.2661538462,"most_popular_beer":"Jihlavsky Grand","popularity":13.0,"n_beers":9.0,"avg_abv":5.1222222222,"max_abv":8.0},{"brewery":"Minipivovar U Medv\u00eddk\u016f","city":"Praha","lat":50.08804,"long":14.42076,"best_beer":"U Medvidku 1466","best_beer_score":3.6069565217,"most_popular_beer":"Oldgott","popularity":37.0,"n_beers":7.0,"avg_abv":6.7,"max_abv":12.6},{"brewery":"Two Tales Brewing","city":"Praha","lat":50.08804,"long":14.42076,"best_beer":"Bohemian Pale Ale","best_beer_score":3.575,"most_popular_beer":"Bohemian Pale Ale","popularity":10.0,"n_beers":5.0,"avg_abv":5.26,"max_abv":7.8},{"brewery":"Rodinn\u0177 Pivovar Vendel\u00edn","city":"Liberec","lat":50.76711,"long":15.05619,"best_beer":null,"best_beer_score":null,"most_popular_beer":null,"popularity":null,"n_beers":1.0,"avg_abv":4.8,"max_abv":4.8},{"brewery":"Pivovar Uhersk\u00fd Brod","city":"Uhersk\u00fd Brod","lat":49.02513,"long":17.64715,"best_beer":"Uhersk\u00fd Brod Kounic","best_beer_score":3.1563636364,"most_popular_beer":"Uhersk\u00fd Brod Kounic","popularity":9.0,"n_beers":5.0,"avg_abv":4.88,"max_abv":6.0},{"brewery":"Pivovarsk\u00fd dv\u016fr Plze\u0148 \/ Purkmistr Restaurant","city":"Plze\u0148","lat":49.69768,"long":13.4735,"best_beer":"Purkmistr 12\u00b0 - Dark Lager","best_beer_score":3.5955555556,"most_popular_beer":"Purkmistr 12\u00b0 - Dark Lager","popularity":7.0,"n_beers":6.0,"avg_abv":5.1166666667,"max_abv":6.0},{"brewery":"Pivovar Ba\u0161ta (Sousedsk\u00fd Pivovar U Banseth\u016f)","city":"Praha","lat":50.08804,"long":14.42076,"best_beer":"Ba\u009ata Polotmav\u00fd Speci\u00e1l 12\u00b0","best_beer_score":2.8433333333,"most_popular_beer":"Ba\u009ata Polotmav\u00fd Speci\u00e1l 12\u00b0","popularity":1.0,"n_beers":1.0,"avg_abv":5.0,"max_abv":5.0},{"brewery":"Pivovar Karel IV.","city":"Karlovy Vary","lat":50.23271,"long":12.87117,"best_beer":"Karel IV. Speci\u00e1l 15\u00b0","best_beer_score":3.05,"most_popular_beer":"Karel IV. Tmav\u00fd 13\u00b0","popularity":1.0,"n_beers":5.0,"avg_abv":5.02,"max_abv":6.0},{"brewery":"Kl\u00e1\u009atern\u00ed pivovar \u008e\u017deliv s.r.o.","city":"\u008e\u017deliv","lat":49.5299527,"long":15.2212786,"best_beer":"\u008e\u017d\u008eeliv Castulus","best_beer_score":3.3290909091,"most_popular_beer":"\u008e\u017d\u008eeliv Castulus","popularity":9.0,"n_beers":3.0,"avg_abv":5.6,"max_abv":6.5},{"brewery":"U Flek\u016f Pivovar a Restaurace","city":"Praha","lat":50.08804,"long":14.42076,"best_beer":"U Fleku Dark Lager","best_beer_score":4.201971831,"most_popular_beer":"U Fleku Dark Lager","popularity":69.0,"n_beers":1.0,"avg_abv":4.5,"max_abv":4.5},{"brewery":"T\u0159ebonick\u00fd Rukod\u011bln\u00fd Pivov\u00e1rek","city":"Praha","lat":50.08804,"long":14.42076,"best_beer":null,"best_beer_score":null,"most_popular_beer":null,"popularity":null,"n_beers":2.0,"avg_abv":5.0,"max_abv":5.0},{"brewery":"Pivovar Podkov\u00e1\u0148","city":"Mlad\u00e1 Boleslav","lat":50.41135,"long":14.90318,"best_beer":"Podkovan Dark","best_beer_score":3.4955555556,"most_popular_beer":"Podkovan Dark","popularity":25.0,"n_beers":15.0,"avg_abv":4.5733333333,"max_abv":6.0},{"brewery":"Pivovar Vy\u009akov","city":"Vyskov","lat":49.27747,"long":16.99897,"best_beer":"Vyskovske Pivo","best_beer_score":3.3740540541,"most_popular_beer":"Vyskovske Pivo","popularity":35.0,"n_beers":6.0,"avg_abv":5.1666666667,"max_abv":7.0},{"brewery":"Remeslny Pivovar Clock","city":"Pot\u0161tejn","lat":50.08209,"long":16.30892,"best_beer":"Clock Twist 14\u00b0 American Red IPA","best_beer_score":3.4933333333,"most_popular_beer":"Clock 12\u00b0 American Pale Ale","popularity":6.0,"n_beers":8.0,"avg_abv":6.0625,"max_abv":7.8},{"brewery":"Pivovar Ferdinand \/ Pivovar Bene\u009aov","city":"Bene\u009aov U Prahy","lat":48.7294,"long":14.62737,"best_beer":"Sedm Kul\u00ed (13% Speci\u00e1ln\u00ed Pivo Polotmav\u00e9 )","best_beer_score":3.5885,"most_popular_beer":"Sedm Kul\u00ed (13% Speci\u00e1ln\u00ed Pivo Polotmav\u00e9 )","popularity":18.0,"n_beers":4.0,"avg_abv":4.65,"max_abv":5.5},{"brewery":"Podkl\u00e1\u0161tern\u00ed Pivovar T\u0159eb\u00ed\u010d \/ Centrum Lihovar","city":"T\u0159eb\u00ed\u010d","lat":49.21492,"long":15.88166,"best_beer":"Cornel 12\u00b0 RED ALE","best_beer_score":3.254,"most_popular_beer":"Cornel 12\u00b0 RED ALE","popularity":3.0,"n_beers":10.0,"avg_abv":5.1,"max_abv":6.0},{"brewery":"Pivovar Tambor","city":"Dv\u016fr Kr\u00e1lov\u00e9 Nad Labem","lat":50.4319898,"long":15.8139714,"best_beer":"Tambor 10 Sv\u011btl\u00e9 V\u00fd\u010depn\u00ed","best_beer_score":3.0,"most_popular_beer":"Tambor R.A. Dvorsk\u00fd Sv\u011btl\u00fd Le\u017e\u00e1k","popularity":1.0,"n_beers":2.0,"avg_abv":4.55,"max_abv":5.0},{"brewery":"Pivovar Chomout","city":"Olomouc","lat":49.59552,"long":17.25175,"best_beer":"Re\u017en\u00e1 B\u00e1ra","best_beer_score":3.285,"most_popular_beer":"Re\u017en\u00e1 B\u00e1ra","popularity":2.0,"n_beers":3.0,"avg_abv":6.1666666667,"max_abv":7.0},{"brewery":"Pivovar Litovel","city":"Litovel","lat":49.70121,"long":17.07615,"best_beer":"Original Litovel Premium","best_beer_score":3.3506060606,"most_popular_beer":"Original Litovel Premium","popularity":31.0,"n_beers":10.0,"avg_abv":4.75,"max_abv":6.1},{"brewery":"Z\u00e1meck\u00fd Pivovar Fr\u00fddlant","city":"Fr\u00fddlant","lat":50.92139,"long":15.07974,"best_beer":"Morion","best_beer_score":3.348,"most_popular_beer":"Morion","popularity":3.0,"n_beers":15.0,"avg_abv":5.9933333333,"max_abv":9.0},{"brewery":"Prvn\u00ed Novom\u011bstsk\u00fd restaura\u010dn\u00ed pivovar","city":"Praha","lat":50.08804,"long":14.42076,"best_beer":"New Town 11\u00b0 Light Lager","best_beer_score":3.6226666667,"most_popular_beer":"New Town 11\u00b0 Light Lager","popularity":13.0,"n_beers":7.0,"avg_abv":3.9,"max_abv":5.0},{"brewery":"Pivovar U T\u0159\u00ed R\u016f\u017e\u00ed","city":"Praha","lat":50.08804,"long":14.42076,"best_beer":"Tmav\u00fd Le\u017e\u00e1k","best_beer_score":3.7628571429,"most_popular_beer":"Tmav\u00fd Le\u017e\u00e1k","popularity":12.0,"n_beers":12.0,"avg_abv":5.8,"max_abv":9.0},{"brewery":"Pivovar Holba","city":"Hanu\u009aovice","lat":50.0784174,"long":16.9347166,"best_beer":"Holba \u0160er\u00e1k","best_beer_score":3.0527777778,"most_popular_beer":"Holba Premium","popularity":25.0,"n_beers":8.0,"avg_abv":4.7875,"max_abv":7.2},{"brewery":"Pivovar Krakonos","city":"Trutnov","lat":50.56101,"long":15.9127,"best_beer":"Svetl\u00fd Le\u009e\u00e1k 12","best_beer_score":3.335625,"most_popular_beer":"Svetl\u00fd Le\u009e\u00e1k 12","popularity":14.0,"n_beers":5.0,"avg_abv":4.6,"max_abv":5.8},{"brewery":"Pivov\u00e1r N\u00e1rodn\u00ed","city":"Praha","lat":50.08804,"long":14.42076,"best_beer":"Czech Lion 11 lez\u00e1k nefiltrovany","best_beer_score":3.0175,"most_popular_beer":"Czech Lion 11 lez\u00e1k nefiltrovany","popularity":2.0,"n_beers":3.0,"avg_abv":4.8333333333,"max_abv":5.5},{"brewery":"Brewer S.R.O.","city":"Praha","lat":50.08804,"long":14.42076,"best_beer":"Brewer Pils 3,5 (Bonvar)","best_beer_score":2.312,"most_popular_beer":"Brewer Pils 3,5 (Bonvar)","popularity":3.0,"n_beers":2.0,"avg_abv":3.5,"max_abv":3.5},{"brewery":"Pivovar Kout na \u0160umav\u011b","city":"Kout Na \u008a\u0160umav\u011b","lat":49.4026669,"long":13.0018434,"best_beer":"Koutsk\u00e1 12\u00b0 Dvan\u00e1ctka","best_beer_score":4.1624528302,"most_popular_beer":"Koutsk\u00e1 12\u00b0 Dvan\u00e1ctka","popularity":51.0,"n_beers":5.0,"avg_abv":5.84,"max_abv":9.0},{"brewery":"Pivovar Eggenberg & Restaurant Eggenberg","city":"\u010cesk\u00fd Krumlov","lat":48.81091,"long":14.31521,"best_beer":"Eggenberg Svetl\u00fd Lez\u00e1k (Premium Lager)","best_beer_score":3.6776,"most_popular_beer":"Eggenberg Svetl\u00fd Lez\u00e1k (Premium Lager)","popularity":23.0,"n_beers":7.0,"avg_abv":4.0571428571,"max_abv":5.2},{"brewery":"Pivovar Blahovar","city":"Plze\u0148","lat":49.69768,"long":13.4735,"best_beer":"Russian Imperial Stout","best_beer_score":2.9166666667,"most_popular_beer":"Russian Imperial Stout","popularity":1.0,"n_beers":1.0,"avg_abv":8.0,"max_abv":8.0},{"brewery":"Minipivovar Pegas","city":"Brno","lat":49.19522,"long":16.60796,"best_beer":"Pegas Australian Pale Ale 14\u00b0","best_beer_score":2.9166666667,"most_popular_beer":"Pegas Oatmeal Stout","popularity":1.0,"n_beers":3.0,"avg_abv":5.4333333333,"max_abv":6.3},{"brewery":"Pivovar Zlatopramen","city":"USTI Nad LABEM","lat":50.6603327,"long":14.0381357,"best_beer":"Zlatopramen Extra Premium","best_beer_score":3.3181818182,"most_popular_beer":"Zlatopramen 11\u00b0","popularity":44.0,"n_beers":6.0,"avg_abv":4.5333333333,"max_abv":5.1},{"brewery":"Pivovar Falkon","city":"\u017datec","lat":50.32717,"long":13.54577,"best_beer":"Falkon Stalker IPA","best_beer_score":3.185,"most_popular_beer":"Falkon Stalker IPA","popularity":2.0,"n_beers":17.0,"avg_abv":6.9941176471,"max_abv":10.7},{"brewery":"Z\u00e1meck\u00fd Dv\u016fr V\u0161eradice","city":"V\u0161eradice","lat":49.8734038,"long":14.1057309,"best_beer":"V\u0161erad Sv\u011btl\u00fd 11\u00b0","best_beer_score":3.1166666667,"most_popular_beer":"V\u0161erad Sv\u011btl\u00fd 11\u00b0","popularity":1.0,"n_beers":2.0,"avg_abv":5.2,"max_abv":5.8},{"brewery":"Minipivovar Rychnov","city":"Rychnov\u011b Nad Kn\u011b\u017enou","lat":50.1648638,"long":16.2793325,"best_beer":"Rychnovsk\u00fd Ka\u0161tan Polotmav\u00fd Le\u017e\u00e1k 11\u00b0","best_beer_score":3.1575,"most_popular_beer":"Rychnovsk\u00fd Ka\u0161tan Polotmav\u00fd Le\u017e\u00e1k 11\u00b0","popularity":2.0,"n_beers":1.0,"avg_abv":4.5,"max_abv":4.5},{"brewery":"M\u011b\u0161\u0165ansk\u00fd pivovar v Poli\u010dce, a.s.","city":"Poli\u010dka","lat":49.71465,"long":16.26543,"best_beer":"Z\u00e1vi\u009a Nefiltrovan\u00fd (unfiltered)","best_beer_score":3.7785714286,"most_popular_beer":"Z\u00e1vi\u009a","popularity":14.0,"n_beers":4.0,"avg_abv":4.75,"max_abv":5.2},{"brewery":"Pivovar Louny","city":"Louny","lat":50.35699,"long":13.79667,"best_beer":"Sv\u011btl\u00e9 V\u00fd\u010depn\u00ed","best_beer_score":2.9333333333,"most_popular_beer":"Louny Sv\u011btl\u00fd Le\u017e\u00e1k","popularity":1.0,"n_beers":2.0,"avg_abv":4.7,"max_abv":5.1},{"brewery":"Tov\u00e1rna Pivovar","city":"Slan\u00fd","lat":50.23046,"long":14.08693,"best_beer":"Protektor IPA 15","best_beer_score":3.1633333333,"most_popular_beer":"Quadrupel 23","popularity":1.0,"n_beers":3.0,"avg_abv":7.7333333333,"max_abv":11.7},{"brewery":"Minipivovar \u008e\u017damberk","city":"\u017d\u008eamberk","lat":50.0874408,"long":16.4648984,"best_beer":"\u017d\u008eambereck\u00fd Kanec Imperial Stout","best_beer_score":3.3125,"most_popular_beer":"\u017d\u008eambereck\u00fd Kanec Imperial Stout","popularity":2.0,"n_beers":3.0,"avg_abv":4.9,"max_abv":5.5},{"brewery":"Pivovar Zh\u016f\u0159\u00e1k","city":"Zh\u016f\u0159","lat":49.69768,"long":13.4735,"best_beer":"Zh\u016f\u0159\u00e1k \/ Raven Brewstock Orange & Grapefruit IPA","best_beer_score":2.9633333333,"most_popular_beer":"Zh\u016f\u0159\u00e1k \/ Raven Brewstock Orange & Grapefruit IPA","popularity":1.0,"n_beers":4.0,"avg_abv":6.875,"max_abv":7.4},{"brewery":"Pivovar Hostan","city":"Znojmo","lat":48.8555,"long":16.0488,"best_beer":"Praga","best_beer_score":2.694,"most_popular_beer":"Praga","popularity":3.0,"n_beers":1.0,"avg_abv":5.0,"max_abv":5.0},{"brewery":"Pivovarsk\u00e1 Ba\u009ata, S.r.o.","city":"Vrchlab\u00ed","lat":50.62697,"long":15.60937,"best_beer":"Krkonossky Medved Hibiscus Special 16\u00b0","best_beer_score":2.8333333333,"most_popular_beer":"Krokonossky Medved Intergalactic PA 15","popularity":1.0,"n_beers":2.0,"avg_abv":6.6,"max_abv":6.8},{"brewery":"Malostr\u00e1nsk\u00fd Pivovar","city":"Velk\u00e9 Mezi\u0159\u00ed\u010d\u00ed","lat":49.35522,"long":16.01224,"best_beer":"Harrach \u010cern\u00e9 Pivo","best_beer_score":2.9166666667,"most_popular_beer":"Harrach \u010cern\u00e9 Pivo","popularity":1.0,"n_beers":2.0,"avg_abv":4.25,"max_abv":4.5},{"brewery":"Pivovarsk\u00fd Dv\u016fr Lipan","city":"Dra\u017e\u00ed\u010d","lat":49.3058685,"long":14.3838199,"best_beer":null,"best_beer_score":null,"most_popular_beer":null,"popularity":null,"n_beers":1.0,"avg_abv":5.2,"max_abv":5.2},{"brewery":"United Breweries","city":"Rakovnik","lat":50.08804,"long":14.42076,"best_beer":"Keltsk\u00e9 D\u011bdictv\u00ed Premium Tmavy Lezak","best_beer_score":2.8333333333,"most_popular_beer":"Beer Star","popularity":1.0,"n_beers":2.0,"avg_abv":4.75,"max_abv":4.8},{"brewery":"Pivovar Anto\u0161","city":"Slan\u00fd","lat":50.23046,"long":14.08693,"best_beer":"Crystal IPA","best_beer_score":3.3,"most_popular_beer":"Crystal IPA","popularity":1.0,"n_beers":1.0,"avg_abv":6.7,"max_abv":6.7},{"brewery":"Rodinn\u0177 Pivovar U Rybi\u010dek","city":"St\u0159\u00edbro","lat":49.75565,"long":12.997,"best_beer":null,"best_beer_score":null,"most_popular_beer":null,"popularity":null,"n_beers":1.0,"avg_abv":5.6,"max_abv":5.6},{"brewery":"Beskydsk\u00fd pivov\u00e1rek","city":"Ostravice","lat":49.5351,"long":18.39164,"best_beer":"James Cook IPA","best_beer_score":3.0433333333,"most_popular_beer":"Summer Day Strong Ale","popularity":1.0,"n_beers":3.0,"avg_abv":6.1,"max_abv":6.6},{"brewery":"Pivovar Rambousek","city":"Hradec Kr\u00e1lov\u00e9","lat":50.20923,"long":15.83277,"best_beer":null,"best_beer_score":null,"most_popular_beer":null,"popularity":null,"n_beers":1.0,"avg_abv":6.5,"max_abv":6.5},{"brewery":"\u00dan\u011btick\u00fd Pivovar","city":"\u00dan\u011btice","lat":50.15011,"long":14.3541,"best_beer":"\u00dan\u011bticke Pivo 10\u00b0","best_beer_score":3.0266666667,"most_popular_beer":"\u00dan\u011bticke Pivo 10\u00b0","popularity":1.0,"n_beers":1.0,"avg_abv":3.8,"max_abv":3.8},{"brewery":"\u0160umavsk\u00fd Pivovar","city":"Vimperk","lat":49.05857,"long":13.78286,"best_beer":"\u0160umavsk\u00fd Polotmav\u00fd Le\u017e\u00e1k 12\u00b0","best_beer_score":3.115,"most_popular_beer":"\u0160umavsk\u00fd Polotmav\u00fd Le\u017e\u00e1k 12\u00b0","popularity":2.0,"n_beers":2.0,"avg_abv":5.5,"max_abv":5.9},{"brewery":"Euphoria Trade","city":"Praha","lat":50.08804,"long":14.42076,"best_beer":"Euphoria Cannabis Beer","best_beer_score":2.786,"most_popular_beer":"Euphoria Cannabis Beer","popularity":8.0,"n_beers":1.0,"avg_abv":4.5,"max_abv":4.5},{"brewery":"Pivovar U Bulovky","city":"Praha","lat":50.08804,"long":14.42076,"best_beer":null,"best_beer_score":null,"most_popular_beer":null,"popularity":null,"n_beers":1.0,"avg_abv":5.4,"max_abv":5.4},{"brewery":"Kyn\u0161persk\u00fd Pivovar S.r.o.","city":"Kyn\u0161perk nad Oh\u0159\u00ed","lat":50.11893,"long":12.53027,"best_beer":"Christmas Beer","best_beer_score":2.77,"most_popular_beer":"Christmas Beer","popularity":1.0,"n_beers":1.0,"avg_abv":5.7,"max_abv":5.7},{"brewery":"Svatokopeck\u00e9 pivo","city":"Olomouc-Svat\u00fd Kope\u010dek","lat":49.6299738,"long":17.3393751,"best_beer":"Yankee","best_beer_score":3.07,"most_popular_beer":"Yankee","popularity":1.0,"n_beers":1.0,"avg_abv":5.4,"max_abv":5.4},{"brewery":"Pivovar Jadrn\u00ed\u010dek","city":"N\u00e1m\u011b\u0161\u0165 na Han\u00e9","lat":49.60213,"long":17.06539,"best_beer":"Jadro\u0161","best_beer_score":3.08,"most_popular_beer":"Jadro\u0161","popularity":1.0,"n_beers":1.0,"avg_abv":4.5,"max_abv":4.5},{"brewery":"Pivovar U Dob\u0159ensk\u00fdch","city":"Praha","lat":50.08804,"long":14.42076,"best_beer":"Tribulus Beer 14\u00b0 Kotvi\u010dn\u00edkov\u00fd Ale","best_beer_score":2.8333333333,"most_popular_beer":"Tribulus Beer 14\u00b0 Kotvi\u010dn\u00edkov\u00fd Ale","popularity":1.0,"n_beers":1.0,"avg_abv":5.2,"max_abv":5.2},{"brewery":"Pivovar Svat\u00fd J\u00e1n","city":"Kolin","lat":50.05965,"long":15.10711,"best_beer":"Mamba","best_beer_score":2.7666666667,"most_popular_beer":"Mamba","popularity":1.0,"n_beers":1.0,"avg_abv":12.0,"max_abv":12.0}]