[{"brewery":"Private Landbrauerei Sch\u00f6nram","city":"Petting\/Sch\u00f6nram","lat":47.8857782,"long":12.8505941,"best_beer":"Sch\u00f6nramer Imperial Stout","best_beer_score":3.9203846154,"most_popular_beer":"Schonramer Pils","popularity":101.0,"n_beers":22.0,"avg_abv":6.9545454545,"max_abv":11.0},{"brewery":"Der HirschBrau\/Privatbrauerei H\u00f6ss","city":"Sonthofen","lat":47.51821,"long":10.28262,"best_beer":"Hirsch Bavarian-Weissbier Hefeweisse","best_beer_score":3.9083928571,"most_popular_beer":"Doppel-Hirsch","popularity":370.0,"n_beers":27.0,"avg_abv":5.4222222222,"max_abv":10.5},{"brewery":"Braugastst\u00e4tte D\u00f6bler","city":"Bad Windsheim","lat":49.50274,"long":10.41539,"best_beer":"D\u00f6bler Windsheimer Reichsstadtbier","best_beer_score":3.0275,"most_popular_beer":"D\u00f6bler Windsheimer Reichsstadtbier","popularity":2.0,"n_beers":7.0,"avg_abv":5.3285714286,"max_abv":5.8},{"brewery":"Privatbrauerei Streck-Br\u00e4u E.K.","city":"Ostheim","lat":50.93117,"long":7.04412,"best_beer":"Burgherren Pils","best_beer_score":2.925,"most_popular_beer":"Burgherren Pils","popularity":2.0,"n_beers":5.0,"avg_abv":4.94,"max_abv":5.4},{"brewery":"Arrogant Brewing - Berlin","city":"Berlin","lat":52.52437,"long":13.41053,"best_beer":"Arrogant Bastard Ale","best_beer_score":3.4457142857,"most_popular_beer":"Little Bastard Ale","popularity":16.0,"n_beers":2.0,"avg_abv":5.95,"max_abv":7.2},{"brewery":"Kaiser Br\u00e4u GmbH & Co KG","city":"Neuhaus a.d. Pegnitz","lat":49.6280956,"long":11.5516616,"best_beer":"Veldensteiner Landbier","best_beer_score":3.7372619048,"most_popular_beer":"Veldensteiner Landbier","popularity":82.0,"n_beers":23.0,"avg_abv":5.4695652174,"max_abv":7.8},{"brewery":"Brauwerk","city":"Bad Kreuznach","lat":49.8414,"long":7.86713,"best_beer":"Salinenbr\u00e4u Hell","best_beer_score":2.5,"most_popular_beer":"Salinenbr\u00e4u Hell","popularity":1.0,"n_beers":5.0,"avg_abv":5.2,"max_abv":6.5},{"brewery":"Hofbr\u00e4uhaus M\u00fcnchen","city":"M\u00fcnchen","lat":50.82114,"long":11.93226,"best_beer":"Hofbr\u00e4u M\u00fcnchner Weisse","best_beer_score":3.8943084661,"most_popular_beer":"Hofbr\u00e4u Original","popularity":1658.0,"n_beers":21.0,"avg_abv":5.0666666667,"max_abv":8.5},{"brewery":"Brauerei Schlappeseppel GmbH","city":"Aschaffenburg","lat":49.97704,"long":9.15214,"best_beer":"Schlappeseppel Urbrau","best_beer_score":3.4355555556,"most_popular_beer":"Schlappeseppel Kellerbier","popularity":22.0,"n_beers":11.0,"avg_abv":5.0090909091,"max_abv":6.8},{"brewery":"Allg\u00e4uer Brauhaus AG","city":"Kempten","lat":47.72674,"long":10.31389,"best_beer":"Allg\u00e4uer Cambonator Doppelbock","best_beer_score":3.8052475248,"most_popular_beer":"Altenm\u00fcnster Oktoberfest","popularity":128.0,"n_beers":54.0,"avg_abv":5.562962963,"max_abv":7.5},{"brewery":"Sch\u00f6nbuch Brauhaus & Biergarten","city":"B\u00f6blingen","lat":48.68212,"long":9.01171,"best_beer":"Sch\u00f6nbuch Hefeweizen Hell","best_beer_score":3.6033333333,"most_popular_beer":"Sch\u00f6nbuch Hefeweizen Hell","popularity":7.0,"n_beers":12.0,"avg_abv":5.5083333333,"max_abv":7.9},{"brewery":"Gepard Getr\u00e4nke Partnerdienst GmbH","city":"Goslar","lat":51.90425,"long":10.42766,"best_beer":"Bayrisch Hefeweizen","best_beer_score":2.9166666667,"most_popular_beer":"Bayrisch Hefeweizen","popularity":1.0,"n_beers":2.0,"avg_abv":5.15,"max_abv":5.3},{"brewery":"Frankenthaler Brauhaus","city":"Frankemthal\/Pfalz","lat":49.4891,"long":8.46694,"best_beer":"Durlacher Hof Hefeweissbier Dunkel","best_beer_score":3.2069230769,"most_popular_beer":"Germania Pilsner","popularity":28.0,"n_beers":26.0,"avg_abv":5.0730769231,"max_abv":7.9},{"brewery":"Brauerei Gasthof Ankerbr\u00e4u","city":"Steinach","lat":50.43129,"long":11.15909,"best_beer":"Ankerla Kolonial IPA","best_beer_score":2.8333333333,"most_popular_beer":"Ankerla Kolonial IPA","popularity":1.0,"n_beers":4.0,"avg_abv":6.45,"max_abv":7.9},{"brewery":"Brauerei Aldersbach","city":"Aldersbach","lat":48.58972,"long":13.08971,"best_beer":"Aldersbacher Kloster Weisse Hell","best_beer_score":3.6206666667,"most_popular_beer":"Aldersbacher Kloster Weisse Hell","popularity":13.0,"n_beers":9.0,"avg_abv":5.3777777778,"max_abv":6.0},{"brewery":"Hanseatische Getr\u00e4nke-Industrie (HGI) Holsten-Brauerei AG","city":"Hamburg","lat":53.55073,"long":9.99302,"best_beer":"Astra Grapefruit Radler","best_beer_score":3.4705263158,"most_popular_beer":"Holsten Premium","popularity":156.0,"n_beers":33.0,"avg_abv":4.9545454545,"max_abv":7.5},{"brewery":"Park & Bellheimer AG","city":"Bellheim","lat":49.19833,"long":8.27944,"best_beer":"Valentins Wei\u00dfbier","best_beer_score":3.5561627907,"most_popular_beer":"Valentins Wei\u00dfbier","popularity":170.0,"n_beers":14.0,"avg_abv":5.25,"max_abv":7.8},{"brewery":"Mahr's Br\u00e4u","city":"Bamberg","lat":49.89873,"long":10.90067,"best_beer":"Kellerbier Ungespundet-Lager hefetr\u00fcb","best_beer_score":3.9717258883,"most_popular_beer":"Kellerbier Ungespundet-Lager hefetr\u00fcb","popularity":392.0,"n_beers":17.0,"avg_abv":5.4235294118,"max_abv":8.5},{"brewery":"Klosterbrauerei Furth GmbH & Co. KG","city":"Furth","lat":48.59095,"long":12.02057,"best_beer":"Marzen Original","best_beer_score":3.05,"most_popular_beer":"Marzen Original","popularity":1.0,"n_beers":1.0,"avg_abv":5.3,"max_abv":5.3},{"brewery":"CREW Republic Brewery GmbH","city":"M\u00fcnchen","lat":50.82114,"long":11.93226,"best_beer":"Roundhouse Kick","best_beer_score":4.0082352941,"most_popular_beer":"Drunken Sailor India Pale Ale","popularity":76.0,"n_beers":27.0,"avg_abv":7.062962963,"max_abv":11.0},{"brewery":"Schlossbrauerei Hirschau Franz Dorfner","city":"Hirschau","lat":49.54396,"long":11.94617,"best_beer":null,"best_beer_score":null,"most_popular_beer":null,"popularity":null,"n_beers":6.0,"avg_abv":5.1,"max_abv":5.5},{"brewery":"Brauerei G\u00f6ller Zur Alten Freyung","city":"Zeil Am Main","lat":50.0137529,"long":10.5948036,"best_beer":"G\u00f6ller Rauchbier","best_beer_score":3.8585294118,"most_popular_beer":"G\u00f6ller Rauchbier","popularity":66.0,"n_beers":15.0,"avg_abv":5.5066666667,"max_abv":7.0},{"brewery":"Braumanufactur Alt-Bamberg","city":"Bamberg","lat":49.89873,"long":10.90067,"best_beer":"Alt-Bamberg Dunkel","best_beer_score":3.25,"most_popular_beer":"Alt-Bamberg Zwickl","popularity":11.0,"n_beers":6.0,"avg_abv":4.2833333333,"max_abv":5.5},{"brewery":"Brauhaus Faust-Miltenberger","city":"Miltenberg","lat":49.70452,"long":9.26725,"best_beer":"Faust Hefeweizen Dunkel","best_beer_score":3.9413636364,"most_popular_beer":"Faust Hefeweizen Hell","popularity":32.0,"n_beers":16.0,"avg_abv":6.30625,"max_abv":11.0},{"brewery":"Warsteiner Brauerei","city":"Warstein","lat":51.44488,"long":8.34851,"best_beer":"Warsteiner Premium Dunkel","best_beer_score":3.5055,"most_popular_beer":"Premium German Pilsener","popularity":2209.0,"n_beers":20.0,"avg_abv":3.965,"max_abv":6.5},{"brewery":"Brauerei Westheim GmbH","city":"Marsberg-Westheim","lat":51.5028739,"long":8.9197339026,"best_beer":"Graf Stolberg Dunkel","best_beer_score":3.5457777778,"most_popular_beer":"Graf Stolberg Dunkel","popularity":43.0,"n_beers":8.0,"avg_abv":4.8,"max_abv":5.3},{"brewery":"Brauerei Wilhelm Krieger KG","city":"Landau","lat":49.19844,"long":8.11692,"best_beer":"Krieger Floriani-Bock","best_beer_score":3.05,"most_popular_beer":"Mikes Wanderlust Session Pale Ale","popularity":1.0,"n_beers":16.0,"avg_abv":5.05,"max_abv":7.5},{"brewery":"Martini Brauerei GmbH","city":"Kassel","lat":51.31667,"long":9.5,"best_beer":"Martini Weissbier Hell","best_beer_score":3.276,"most_popular_beer":"N\u00f6rten-Hardenberger Pils","popularity":13.0,"n_beers":6.0,"avg_abv":5.4166666667,"max_abv":6.9},{"brewery":"Weisses Br\u00e4uhaus G. Schneider & Sohn GmbH","city":"Kelheim","lat":48.91725,"long":11.88618,"best_beer":"Schneider Weisse Tap 6 Unser Aventinus","best_beer_score":4.3277548359,"most_popular_beer":"Schneider Weisse Tap 6 Unser Aventinus","popularity":4599.0,"n_beers":27.0,"avg_abv":7.1,"max_abv":12.0},{"brewery":"Hops & Barley Hausbrauerei","city":"Berlin","lat":52.52437,"long":13.41053,"best_beer":"Hops & Barley India Pale Ale","best_beer_score":3.4785714286,"most_popular_beer":"Hops & Barley India Pale Ale","popularity":5.0,"n_beers":5.0,"avg_abv":6.04,"max_abv":7.0},{"brewery":"Brauerei Lemke","city":"Berlin","lat":52.52437,"long":13.41053,"best_beer":"Imperial Stout","best_beer_score":3.498,"most_popular_beer":"Original","popularity":10.0,"n_beers":14.0,"avg_abv":7.5571428571,"max_abv":11.0},{"brewery":"L\u00f6wenbrauerei Hall","city":"Schw\u00e4bisch Hall","lat":49.11127,"long":9.73908,"best_beer":"Mohrenkopfle","best_beer_score":3.215,"most_popular_beer":"Mohrenkopfle","popularity":4.0,"n_beers":6.0,"avg_abv":5.5666666667,"max_abv":7.4},{"brewery":"Karmelitenbrauerei Karl Sturm","city":"Straubing","lat":48.88126,"long":12.57385,"best_beer":"Karmeliten Kloster Dunkel","best_beer_score":3.5807142857,"most_popular_beer":"Karmeliten Kloster Doppelbock","popularity":16.0,"n_beers":10.0,"avg_abv":5.84,"max_abv":8.0},{"brewery":"FUERST WIACEK","city":"Berlin","lat":52.52437,"long":13.41053,"best_beer":"Exploding Rainbows","best_beer_score":3.6277777778,"most_popular_beer":"Exploding Rainbows","popularity":7.0,"n_beers":9.0,"avg_abv":6.4777777778,"max_abv":8.4},{"brewery":"Hochdorfer Kronenbrauerei Otto Haizmann KG","city":"Nagold-Hochdorf","lat":48.4958591,"long":8.7206457,"best_beer":"Gold","best_beer_score":3.425,"most_popular_beer":"Keller-Gold","popularity":2.0,"n_beers":7.0,"avg_abv":5.4,"max_abv":7.5},{"brewery":"Gasthaus & Gosebrauerei Bayerischer Bahnhof","city":"Leipzig","lat":51.33962,"long":12.37129,"best_beer":"Brettanomyces Lambicus Berliner Style Weisse","best_beer_score":4.2056540084,"most_popular_beer":"Leipziger Gose","popularity":1005.0,"n_beers":35.0,"avg_abv":5.1628571429,"max_abv":9.0},{"brewery":"Brauerei Gasthof Hotel Post","city":"Nesselwang","lat":47.62342,"long":10.50243,"best_beer":"Postwirts Dunkel","best_beer_score":3.7444444444,"most_popular_beer":"Postwirts Dunkel","popularity":7.0,"n_beers":12.0,"avg_abv":5.6125,"max_abv":7.3},{"brewery":"Weideneder Brau","city":"Tann","lat":48.31463,"long":12.89301,"best_beer":"Weideneder Papst-Bier","best_beer_score":3.375,"most_popular_beer":"Weideneder Papst-Bier","popularity":4.0,"n_beers":6.0,"avg_abv":5.2833333333,"max_abv":5.4},{"brewery":"Spaten-Franziskaner-Br\u00e4u","city":"M\u00fcnchen","lat":50.82114,"long":11.93226,"best_beer":"Franziskaner Hefe-Weisse","best_beer_score":4.0530131098,"most_popular_beer":"Franziskaner Hefe-Weisse","popularity":4651.0,"n_beers":16.0,"avg_abv":5.125,"max_abv":7.6},{"brewery":"Brauerei Clemens H\u00e4rle","city":"Leutkirch im Allg\u00e4u","lat":47.82672,"long":10.0205,"best_beer":"H\u00e4rle's B\u00f6ckle","best_beer_score":2.9766666667,"most_popular_beer":"H\u00e4rle's B\u00f6ckle","popularity":1.0,"n_beers":5.0,"avg_abv":5.36,"max_abv":6.7},{"brewery":"Braumanufaktur Hertl","city":"Schl\u00fcsselfeld","lat":49.75621,"long":10.61873,"best_beer":null,"best_beer_score":null,"most_popular_beer":null,"popularity":null,"n_beers":16.0,"avg_abv":6.75625,"max_abv":11.3},{"brewery":"Kehrwieder Kreativbrauerei","city":"Hamburg","lat":53.55073,"long":9.99302,"best_beer":"SHIPA Galaxy","best_beer_score":3.7225,"most_popular_beer":"Kehrwieder Prototyp","popularity":12.0,"n_beers":40.0,"avg_abv":7.1775,"max_abv":12.0},{"brewery":"Freigeist Bierkultur","city":"Stolberg","lat":51.57426,"long":10.95582,"best_beer":"Geisterzug Gose Rhubarb","best_beer_score":4.0603448276,"most_popular_beer":"Abraxxxas","popularity":284.0,"n_beers":64.0,"avg_abv":6.2859375,"max_abv":18.0},{"brewery":"Parkbrauerei \/ Park & Bellheimer AG","city":"Pirmasens","lat":49.20145,"long":7.60529,"best_beer":"Park Pirminator","best_beer_score":3.3131578947,"most_popular_beer":"Park Pirminator","popularity":17.0,"n_beers":12.0,"avg_abv":5.2083333333,"max_abv":6.9},{"brewery":"Woinemer Hausbrauerei","city":"Weinheim","lat":49.54887,"long":8.66697,"best_beer":"Woinemer Hefe Weizen","best_beer_score":3.5166666667,"most_popular_beer":"Woinemer Hefe Weizen","popularity":4.0,"n_beers":4.0,"avg_abv":5.55,"max_abv":7.0},{"brewery":"Brauerei Eugen H\u00e4berlen","city":"Gaildorf","lat":49.00027,"long":9.76953,"best_beer":"Gaildorfer Spezial","best_beer_score":2.6266666667,"most_popular_beer":"Gaildorfer Spezial","popularity":1.0,"n_beers":3.0,"avg_abv":5.3,"max_abv":5.3},{"brewery":"Griesbr\u00e4u Zu Murnau","city":"Murnau Am Staffelsee","lat":47.6778816,"long":11.2011903,"best_beer":"Griesbr\u00e4u Weisse","best_beer_score":3.4422222222,"most_popular_beer":"Griesbr\u00e4u Weisse","popularity":7.0,"n_beers":12.0,"avg_abv":6.0833333333,"max_abv":7.8},{"brewery":"Lahnsteiner Brauerei","city":"Lahnstein","lat":50.3,"long":7.61667,"best_beer":"Schnee-Bock","best_beer_score":3.6092307692,"most_popular_beer":"Schnee-Bock","popularity":11.0,"n_beers":11.0,"avg_abv":5.9181818182,"max_abv":8.0},{"brewery":"Sitterbr\u00e4u Gasthausbrauerei","city":"Neureichenau","lat":48.74861,"long":13.74699,"best_beer":"Sitter Br\u00e4u Pils","best_beer_score":2.8666666667,"most_popular_beer":"Sitter Br\u00e4u Pils","popularity":1.0,"n_beers":2.0,"avg_abv":4.8,"max_abv":4.8},{"brewery":"Riedenburger Brauhaus","city":"Riedenburg","lat":48.96383,"long":11.6888,"best_beer":"Dolden Sud IPA","best_beer_score":3.7591836735,"most_popular_beer":"Dolden Sud IPA","popularity":47.0,"n_beers":29.0,"avg_abv":5.1310344828,"max_abv":8.0},{"brewery":"Brauerei-Gastst\u00e4tte Schwarzer Adler","city":"Stettfeld","lat":49.9709,"long":10.7217,"best_beer":"Alt Fr\u00e4nkisches Lagerbier","best_beer_score":3.7616666667,"most_popular_beer":"Alt Fr\u00e4nkisches Lagerbier","popularity":4.0,"n_beers":3.0,"avg_abv":5.6333333333,"max_abv":7.1},{"brewery":"Brauerei Pinkus Mueller","city":"M\u00fcnster","lat":51.96236,"long":7.62571,"best_beer":"Organic Ur Pils","best_beer_score":3.8250620347,"most_popular_beer":"Organic Hefe-Weizen","popularity":424.0,"n_beers":12.0,"avg_abv":4.625,"max_abv":6.5},{"brewery":"Ebensfelder Brauhaus","city":"Ebensfeld","lat":50.0664,"long":10.95835,"best_beer":"Dunkler Bock","best_beer_score":3.0433333333,"most_popular_beer":"Dunkler Bock","popularity":1.0,"n_beers":8.0,"avg_abv":5.7375,"max_abv":7.2},{"brewery":"Brauerei Heller GmbH","city":"K\u00f6ln","lat":50.93333,"long":6.95,"best_beer":"Hellers Wiess","best_beer_score":3.3885714286,"most_popular_beer":"Hellers K\u00f6lsch","popularity":12.0,"n_beers":7.0,"avg_abv":5.0571428571,"max_abv":6.5},{"brewery":"Engelbr\u00e4u Rettenberg","city":"Rettenberg","lat":47.57428,"long":10.29173,"best_beer":"Doppelbock Dunkel","best_beer_score":3.4216666667,"most_popular_beer":"Doppelbock Dunkel","popularity":4.0,"n_beers":8.0,"avg_abv":5.4875,"max_abv":7.8},{"brewery":"Privatbrauerei Eichbaum GmbH & Co. KG","city":"Mannheim","lat":49.4891,"long":8.46694,"best_beer":"Feuerio Tropfen","best_beer_score":3.65,"most_popular_beer":"Apostel Br\u00e4u","popularity":44.0,"n_beers":71.0,"avg_abv":5.4915492958,"max_abv":8.0},{"brewery":"Brauerei Grandauer - Wildbr\u00e4u Grafing vor M\u00fcnchen","city":"Grafing","lat":48.04596,"long":11.96797,"best_beer":"Wildbr\u00e4u Meistersud","best_beer_score":3.3483333333,"most_popular_beer":"Wildbr\u00e4u Meistersud","popularity":10.0,"n_beers":11.0,"avg_abv":4.8636363636,"max_abv":5.5},{"brewery":"Klosterbrauerei Neuzelle GmbH","city":"Neuzelle","lat":52.09016,"long":14.64804,"best_beer":"Kyritzer Mord Und Totschlag","best_beer_score":4.0017741935,"most_popular_beer":"Bathbeer","popularity":63.0,"n_beers":30.0,"avg_abv":5.2266666667,"max_abv":8.1},{"brewery":"Memminger Brauerei","city":"Memmingen","lat":47.98372,"long":10.18527,"best_beer":"Kart\u00e4user Doppelbock Dunkel","best_beer_score":3.775,"most_popular_beer":"Kart\u00e4user Doppelbock Dunkel","popularity":34.0,"n_beers":30.0,"avg_abv":5.2433333333,"max_abv":7.5},{"brewery":"Buddelship Brauerei GmbH","city":"Hamburg","lat":53.55073,"long":9.99302,"best_beer":"Mr. T","best_beer_score":3.5366666667,"most_popular_beer":"Great Escape","popularity":10.0,"n_beers":23.0,"avg_abv":6.8782608696,"max_abv":10.4},{"brewery":"Kulmbacher Brauerei AG","city":"Kulmbach","lat":50.10068,"long":11.45032,"best_beer":"Eisbock","best_beer_score":4.1120673527,"most_popular_beer":"Eisbock","popularity":1067.0,"n_beers":43.0,"avg_abv":5.0604651163,"max_abv":11.0},{"brewery":"Brauerei Leikeim","city":"Altenkunstadt","lat":50.12504,"long":11.2503,"best_beer":"Leikeim Schwarzbier","best_beer_score":3.6085294118,"most_popular_beer":"Brauhaus Altenkunstadt Leikeim Steinbier Original","popularity":48.0,"n_beers":14.0,"avg_abv":5.1928571429,"max_abv":5.8},{"brewery":"Pfungst\u00e4dter Brauerei","city":"Pfungstadt","lat":49.80557,"long":8.60307,"best_beer":"Pfungst\u00e4dter St. Nikolaus","best_beer_score":3.7714285714,"most_popular_beer":"Pfungst\u00e4dter 1831 Schwarzbier","popularity":32.0,"n_beers":17.0,"avg_abv":5.1235294118,"max_abv":6.9},{"brewery":"Brauerei im Eiswerk","city":"M\u00fcnchen","lat":50.82114,"long":11.93226,"best_beer":"Imperial Barrique Stout","best_beer_score":2.98,"most_popular_beer":"Imperial Barrique Stout","popularity":1.0,"n_beers":5.0,"avg_abv":7.16,"max_abv":11.2},{"brewery":"Radeberger Exportbierbrauerei","city":"Radeberg, Saxony","lat":51.1151413,"long":13.9175257,"best_beer":"Radeberger Zwickel","best_beer_score":3.8457142857,"most_popular_beer":"Radeberger Pilsner","popularity":1129.0,"n_beers":4.0,"avg_abv":5.425,"max_abv":6.6},{"brewery":"Brauerei Julius Hummel","city":"Merkendorf","lat":49.20361,"long":10.70416,"best_beer":"Hummel R\u00e4ucherator","best_beer_score":3.77,"most_popular_beer":"Hummel R\u00e4ucherator","popularity":10.0,"n_beers":12.0,"avg_abv":6.1833333333,"max_abv":8.1},{"brewery":"Duff beverage GmbH","city":"Alling","lat":48.14034,"long":11.30144,"best_beer":"The Legendary Duff Beer","best_beer_score":3.0,"most_popular_beer":"Duff Beer","popularity":1.0,"n_beers":2.0,"avg_abv":4.9,"max_abv":4.9},{"brewery":"Brauerei Wittmann","city":"Landshut","lat":48.52961,"long":12.16179,"best_beer":"Wittmann Urhell","best_beer_score":3.41,"most_popular_beer":"Wittmann Urhell","popularity":39.0,"n_beers":9.0,"avg_abv":4.8444444444,"max_abv":5.5},{"brewery":"Bierfabrik Berlin","city":"Berlin","lat":52.52437,"long":13.41053,"best_beer":"Bierfabrik Berlin \/ Spent Maple Walnut Stout","best_beer_score":3.3328571429,"most_popular_beer":"Bierfabrik Berlin \/ Spent Maple Walnut Stout","popularity":5.0,"n_beers":8.0,"avg_abv":6.7125,"max_abv":10.0},{"brewery":"W\u00fcrzburger Hofbr\u00e4u AG","city":"W\u00fcrzburg","lat":49.79391,"long":9.95121,"best_beer":"Julius Echter Hefe-Weissbier Hell","best_beer_score":4.002122571,"most_popular_beer":"Julius Echter Hefe-Weissbier Hell","popularity":667.0,"n_beers":14.0,"avg_abv":4.8142857143,"max_abv":7.9},{"brewery":"Berliner Kindl Brauerei","city":"Berlin","lat":52.52437,"long":13.41053,"best_beer":"M\u00e4rkischer Landmann","best_beer_score":3.5653571429,"most_popular_beer":"Berliner Kindl Weisse","popularity":242.0,"n_beers":16.0,"avg_abv":4.7,"max_abv":7.0},{"brewery":"Schorschbr\u00e4u","city":"Gunzenhausen","lat":49.11663,"long":10.75971,"best_beer":"Schorschbr\u00e4u Schorschbock 20%","best_beer_score":3.7633333333,"most_popular_beer":"Schorschbock Ice 13","popularity":22.0,"n_beers":13.0,"avg_abv":22.5153846154,"max_abv":57.5},{"brewery":"Paulaner Brauerei GmbH & Co. KG","city":"M\u00fcnchen","lat":50.82114,"long":11.93226,"best_beer":"Paulaner Hefe-Weissbier Naturtr\u00fcb","best_beer_score":4.0461092437,"most_popular_beer":"Paulaner Hefe-Weissbier Naturtr\u00fcb","popularity":3568.0,"n_beers":26.0,"avg_abv":4.5807692308,"max_abv":7.9},{"brewery":"St\u00f6rtebeker Braumanufaktur","city":"Stralsund","lat":54.30911,"long":13.0818,"best_beer":"Stralsunder Traditionsbock","best_beer_score":3.6616666667,"most_popular_beer":"St\u00f6rtebeker Schwarzbier","popularity":68.0,"n_beers":36.0,"avg_abv":5.4102777778,"max_abv":9.8},{"brewery":"Brauerei Und Gasthof Zur Krone","city":"Tettnang","lat":47.66857,"long":9.59132,"best_beer":"Tettnanger Coronator Dunkel","best_beer_score":3.1666666667,"most_popular_beer":"Tettnanger Coronator Heller","popularity":2.0,"n_beers":4.0,"avg_abv":6.7,"max_abv":7.2},{"brewery":"Schlossbrauerei Eichhofen","city":"Nittendorf","lat":49.02459,"long":11.96126,"best_beer":"Eichhofener Eichator","best_beer_score":3.6871428571,"most_popular_beer":"Eichhofener Helles","popularity":13.0,"n_beers":6.0,"avg_abv":5.75,"max_abv":8.0},{"brewery":"Brauerei Josef Schimpfle","city":"Gessertshausen","lat":48.32904,"long":10.73278,"best_beer":"L\u00f6sch-Zwerg Pils","best_beer_score":3.15,"most_popular_beer":"L\u00f6sch-Zwerg W\u00fcrzig","popularity":22.0,"n_beers":7.0,"avg_abv":4.4857142857,"max_abv":5.2},{"brewery":"Heidenpeters","city":"Berlin","lat":52.52437,"long":13.41053,"best_beer":"Pale Ale","best_beer_score":3.8477777778,"most_popular_beer":"Pale Ale","popularity":7.0,"n_beers":30.0,"avg_abv":5.87,"max_abv":8.6},{"brewery":"Privatbrauerei Frankenw\u00e4lder B\u00fcrgerbr\u00e4u Naila A. Wohn OHG","city":"Naila","lat":50.33034,"long":11.70463,"best_beer":"Wohn's Dunkler Bock","best_beer_score":3.6188888889,"most_popular_beer":"Wohn's Heller Bock","popularity":8.0,"n_beers":8.0,"avg_abv":5.525,"max_abv":7.2},{"brewery":"St. Georgenbr\u00e4u","city":"Buttenheim","lat":49.80365,"long":11.03002,"best_beer":"St. Georgenbr\u00e4u Keller Bier","best_beer_score":3.8592118227,"most_popular_beer":"St. Georgenbr\u00e4u Keller Bier","popularity":201.0,"n_beers":14.0,"avg_abv":5.6571428571,"max_abv":7.3},{"brewery":"Kaltenberg International \/ K\u00f6nig Ludwig International GmbH & Co.KG","city":"F\u00fcrstenfeldbruck","lat":48.17904,"long":11.2547,"best_beer":"K\u00f6nig Ludwig Weiss (Royal Bavarian Hefe-Weizen)","best_beer_score":3.8587245445,"most_popular_beer":"K\u00f6nig Ludwig Weiss (Royal Bavarian Hefe-Weizen)","popularity":931.0,"n_beers":17.0,"avg_abv":5.3176470588,"max_abv":9.0},{"brewery":"Schlossbrauerei Friedenfels GmbH","city":"Friedenfels","lat":49.8826,"long":12.10124,"best_beer":"Friedenfelser Hefe-Weissbier","best_beer_score":3.7633333333,"most_popular_beer":"Friedenfelser Steinwald Zoigl","popularity":17.0,"n_beers":7.0,"avg_abv":4.3,"max_abv":5.2},{"brewery":"Hoppen Un Molt","city":"Warnem\u00fcnde","lat":54.1767,"long":12.08402,"best_beer":"Spezial","best_beer_score":3.01,"most_popular_beer":"Spezial - Bernstein Ale","popularity":1.0,"n_beers":5.0,"avg_abv":4.88,"max_abv":5.5},{"brewery":"Grosswald Brauerei","city":"Heusweiler","lat":49.33632,"long":6.93036,"best_beer":"Urweizen","best_beer_score":3.216,"most_popular_beer":"Hofgut-Pils","popularity":3.0,"n_beers":7.0,"avg_abv":5.2142857143,"max_abv":5.5},{"brewery":"Brauerei St\u00f6ttner","city":"Mallersdorf-Pfaffenberg","lat":48.76637,"long":12.23096,"best_beer":"St\u00f6ttner Neues Helles","best_beer_score":2.8933333333,"most_popular_beer":"St\u00f6ttner Pfaffen Gold","popularity":1.0,"n_beers":2.0,"avg_abv":5.5,"max_abv":6.1},{"brewery":"Brauerei Gasthof Kundm\u00fcller","city":"Viereth-Trunstadt","lat":49.92222,"long":10.77716,"best_beer":"Weiherer Keller","best_beer_score":3.765,"most_popular_beer":"Weiherer Rauch","popularity":26.0,"n_beers":17.0,"avg_abv":5.7235294118,"max_abv":9.0},{"brewery":"Aktienbrauerei Vilsbiburg","city":"Vilsbiburg","lat":48.45296,"long":12.35604,"best_beer":"Dunkles Hefe-Weizen","best_beer_score":3.11,"most_popular_beer":"Export Hefe-Weizen","popularity":1.0,"n_beers":3.0,"avg_abv":5.0,"max_abv":5.0},{"brewery":"Br\u00e4ust\u00fcberl zum Thorbr\u00e4u","city":"Augsburg","lat":48.37154,"long":10.89851,"best_beer":"Thorbr\u00e4u Portator","best_beer_score":3.43,"most_popular_beer":"Thorbr\u00e4u Portator","popularity":4.0,"n_beers":4.0,"avg_abv":5.825,"max_abv":7.5},{"brewery":"Brauhaus Preussen Pils GmbH","city":"Pritzwalk","lat":53.14945,"long":12.17405,"best_beer":"Preussen Schwarzbier Premium","best_beer_score":3.055,"most_popular_beer":"Preussen Schwarzbier Premium","popularity":2.0,"n_beers":5.0,"avg_abv":5.44,"max_abv":6.9},{"brewery":"Braustelle","city":"K\u00f6ln","lat":50.93333,"long":6.95,"best_beer":"Eszett Geuze","best_beer_score":4.4297297297,"most_popular_beer":"Ehrenfelder Alt","popularity":45.0,"n_beers":43.0,"avg_abv":7.2813953488,"max_abv":14.0},{"brewery":"Einsiedler Brauhaus GmbH","city":"Chemnitz","lat":50.8357,"long":12.92922,"best_beer":"Einsiedler S\u00e4chsisch Doppelbock","best_beer_score":3.7071428571,"most_popular_beer":"Einsiedler S\u00e4chsisch Doppelbock","popularity":5.0,"n_beers":25.0,"avg_abv":5.432,"max_abv":7.8},{"brewery":"Brauerei Eschenbr\u00e4u","city":"Berlin","lat":52.52437,"long":13.41053,"best_beer":"Eschenbr\u00e4u Dunkel","best_beer_score":3.5228571429,"most_popular_beer":"Eschenbr\u00e4u Pils","popularity":7.0,"n_beers":6.0,"avg_abv":5.4333333333,"max_abv":6.0},{"brewery":"Brauerei Hauf GmbH","city":"Dinkelsb\u00fchl","lat":49.06942,"long":10.31985,"best_beer":"Hauf Edel Hell","best_beer_score":3.0333333333,"most_popular_beer":"Hauf Dinkelator","popularity":3.0,"n_beers":10.0,"avg_abv":5.34,"max_abv":7.4},{"brewery":"Klosterbrauerei Andechs","city":"Andechs","lat":47.97464,"long":11.18279,"best_beer":"Andechser Doppelbock Dunkel","best_beer_score":4.2772208228,"most_popular_beer":"Andechser Doppelbock Dunkel","popularity":1189.0,"n_beers":10.0,"avg_abv":5.67,"max_abv":7.1},{"brewery":"Brauerei Otto H\u00fcbner","city":"Stadelhofen","lat":50.00317,"long":11.19757,"best_beer":"H\u00fcbner-Br\u00e4u Vollbier (Landbier)","best_beer_score":3.441,"most_popular_beer":"H\u00fcbner-Br\u00e4u Vollbier (Landbier)","popularity":8.0,"n_beers":4.0,"avg_abv":5.6,"max_abv":6.7},{"brewery":"Aktienbrauerei Kaufbeuren AG","city":"Kaufbeuren","lat":47.88238,"long":10.62192,"best_beer":"St. Martin Dunkler Doppelbock","best_beer_score":3.9332786885,"most_popular_beer":"Hell","popularity":81.0,"n_beers":27.0,"avg_abv":5.6851851852,"max_abv":7.5},{"brewery":"Privatbrauerei Wittingen GmbH","city":"Wittingen","lat":52.72694,"long":10.73613,"best_beer":"Stackmann's Dunkel","best_beer_score":3.208,"most_popular_beer":"Stackmann's Dunkel","popularity":3.0,"n_beers":7.0,"avg_abv":5.7428571429,"max_abv":8.0},{"brewery":"Hofbrauhaus Freising","city":"Freising","lat":48.40351,"long":11.74876,"best_beer":"Huber Weisses Original","best_beer_score":3.7169620253,"most_popular_beer":"Huber Weisses Original","popularity":77.0,"n_beers":14.0,"avg_abv":5.1857142857,"max_abv":7.7},{"brewery":"Privatbrauerei Sander","city":"Worms","lat":49.63278,"long":8.35916,"best_beer":"Limited Edition T\u00f6pper's IPA","best_beer_score":3.1033333333,"most_popular_beer":"Gwen Ale","popularity":3.0,"n_beers":17.0,"avg_abv":6.7941176471,"max_abv":9.0},{"brewery":"Brauerei Landsberg GmbH","city":"Landsberg","lat":51.52698,"long":12.16076,"best_beer":"Landsberger Schwares","best_beer_score":2.8866666667,"most_popular_beer":"Landsberger Premium Pilsner","popularity":1.0,"n_beers":3.0,"avg_abv":5.2333333333,"max_abv":6.0},{"brewery":"Herrnbr\u00e4u B\u00fcrgerliches Brauhaus Ingolstadt","city":"Ingolstadt","lat":48.76508,"long":11.42372,"best_beer":"Herrnbr\u00e4u Premium Pils","best_beer_score":3.75625,"most_popular_beer":"Tradition","popularity":47.0,"n_beers":14.0,"avg_abv":5.1642857143,"max_abv":7.8},{"brewery":"Privatbrauerei Franz Inselkammer KG \/ Brauerei Aying","city":"Aying","lat":47.9701,"long":11.77752,"best_beer":"Celebrator","best_beer_score":4.3372904483,"most_popular_beer":"Celebrator","popularity":6667.0,"n_beers":17.0,"avg_abv":5.6235294118,"max_abv":7.1},{"brewery":"M\u00fcllerbr\u00e4u Neu\u00f6tting K. M\u00fcller","city":"Neu\u00f6tting","lat":48.24102,"long":12.68998,"best_beer":"M\u00fcllerbr\u00e4u Weisse","best_beer_score":3.3775,"most_popular_beer":"Bavariator","popularity":4.0,"n_beers":6.0,"avg_abv":6.8333333333,"max_abv":8.9},{"brewery":"P\u00fcls Br\u00e4u OHG","city":"Weismain","lat":50.08512,"long":11.24024,"best_beer":"Original 1798er Kellertrunk","best_beer_score":3.245,"most_popular_beer":"Weismainer Krone Pils","popularity":5.0,"n_beers":10.0,"avg_abv":5.54,"max_abv":7.5},{"brewery":"Distelh\u00e4user Brauerei","city":"Tauberbischofsheim","lat":49.62472,"long":9.66278,"best_beer":"Distelh\u00e4user Premium Pils","best_beer_score":3.6764285714,"most_popular_beer":"Distelh\u00e4user Landbier","popularity":18.0,"n_beers":17.0,"avg_abv":5.6235294118,"max_abv":7.7},{"brewery":"Hohenthanner Schlossbrauerei KG","city":"Hohenthann","lat":48.66115,"long":12.09251,"best_beer":"Perlenzauber German Pale Ale","best_beer_score":3.2741176471,"most_popular_beer":"Perlenzauber German Pale Ale","popularity":15.0,"n_beers":5.0,"avg_abv":5.3,"max_abv":5.6},{"brewery":"Crailsheimer Engelbr\u00e4u","city":"Crailsheim","lat":49.13444,"long":10.07193,"best_beer":"Engel Bock Hell","best_beer_score":3.6465,"most_popular_beer":"Engel Hefe-Weizen","popularity":27.0,"n_beers":21.0,"avg_abv":5.719047619,"max_abv":7.2},{"brewery":"Privatbrauerei Ludwig W\u00fcrth","city":"Windischeschenbach","lat":49.80108,"long":12.1571,"best_beer":"Zoiglbier Dunkles","best_beer_score":2.8066666667,"most_popular_beer":"Zoiglbier Dunkles","popularity":1.0,"n_beers":1.0,"avg_abv":5.3,"max_abv":5.3},{"brewery":"Oderland Brauerei GmbH","city":"Frankfurt\/Oder","lat":52.34714,"long":14.55062,"best_beer":"Grafenwalder Hefe Weissbier","best_beer_score":2.801875,"most_popular_beer":"Grafenwalder Pils","popularity":24.0,"n_beers":9.0,"avg_abv":4.9666666667,"max_abv":7.9},{"brewery":"Bayerische L\u00f6wenbrauerei","city":"Passau","lat":48.5665,"long":13.43122,"best_beer":"L\u00f6wenbrauerei Passau Urtyp Hell","best_beer_score":3.4431707317,"most_popular_beer":"L\u00f6wenbrauerei Passau Urtyp Hell","popularity":39.0,"n_beers":13.0,"avg_abv":5.2461538462,"max_abv":6.6},{"brewery":"Hoppebr\u00e4u","city":"Waakirchen","lat":47.7725,"long":11.67315,"best_beer":"Fuchsteufelswuid","best_beer_score":3.172,"most_popular_beer":"Hoppebr\u00e4u Vogelwuid","popularity":7.0,"n_beers":9.0,"avg_abv":6.7111111111,"max_abv":11.1},{"brewery":"Brauerei Kraus","city":"Hirschaid","lat":49.81789,"long":10.98918,"best_beer":"Kraus Hirschentrunk","best_beer_score":3.3881818182,"most_popular_beer":"Kraus Hirschentrunk","popularity":9.0,"n_beers":5.0,"avg_abv":4.86,"max_abv":5.5},{"brewery":"Sollinger Bergbrauerei","city":"Uslar","lat":51.6569,"long":9.63501,"best_beer":"Bernstein Pale Ale","best_beer_score":2.8890909091,"most_popular_beer":"Bernstein Pale Ale","popularity":9.0,"n_beers":2.0,"avg_abv":5.2,"max_abv":6.0},{"brewery":"Brauerei Erharting","city":"Erharting","lat":48.28333,"long":12.58333,"best_beer":"Erhartinger Hefe-Weisse","best_beer_score":3.055,"most_popular_beer":"Erhartinger Hefe-Weisse","popularity":2.0,"n_beers":9.0,"avg_abv":4.8222222222,"max_abv":7.0},{"brewery":"Brauhaus an der Thomaskirche","city":"Leipzig","lat":51.33962,"long":12.37129,"best_beer":"Thomaskirch Schwarzbier","best_beer_score":3.4942857143,"most_popular_beer":"Thomaskirch Schwarzbier","popularity":5.0,"n_beers":3.0,"avg_abv":5.4666666667,"max_abv":6.2},{"brewery":"F\u00fcrstlich F\u00fcrstenbergische Brauerei KG","city":"Donaueschingen","lat":47.95514,"long":8.49707,"best_beer":"Black Forest Pils","best_beer_score":3.751,"most_popular_beer":"F\u00fcrstenberg Premium Pilsener","popularity":95.0,"n_beers":17.0,"avg_abv":5.0235294118,"max_abv":6.9},{"brewery":"Zombr\u00e4u","city":"Essenbach","lat":48.61332,"long":12.21833,"best_beer":"Voodoo","best_beer_score":2.8825,"most_popular_beer":"Voodoo","popularity":2.0,"n_beers":7.0,"avg_abv":6.7857142857,"max_abv":9.0},{"brewery":"Feldschloesschen AG","city":"Dresden","lat":51.05089,"long":13.73832,"best_beer":"Schwarzer Steiger","best_beer_score":3.62875,"most_popular_beer":"5,0 Original","popularity":23.0,"n_beers":14.0,"avg_abv":4.8428571429,"max_abv":5.9},{"brewery":"Uerige Oberg\u00e4rige Hausbrauerei","city":"D\u00fcsseldorf","lat":51.22172,"long":6.77616,"best_beer":"Uerige Doppelsticke","best_beer_score":4.0986745214,"most_popular_beer":"Uerige Doppelsticke","popularity":677.0,"n_beers":9.0,"avg_abv":7.4333333333,"max_abv":12.4},{"brewery":"ElbPaul","city":"Hamburg","lat":53.55073,"long":9.99302,"best_beer":"ElbPaul Pils","best_beer_score":3.1728571429,"most_popular_beer":"ElbPaul Pils","popularity":5.0,"n_beers":2.0,"avg_abv":7.1,"max_abv":9.2},{"brewery":"Oettinger Brauerei","city":"Braunschweig","lat":52.26594,"long":10.52673,"best_beer":null,"best_beer_score":null,"most_popular_beer":null,"popularity":null,"n_beers":14.0,"avg_abv":4.9928571429,"max_abv":8.9},{"brewery":"Privatbrauerei Specht","city":"Ehrenfriedersdorf","lat":50.64934,"long":12.97009,"best_beer":"Specht Pilsener","best_beer_score":3.0933333333,"most_popular_beer":"Specht Bockbier","popularity":2.0,"n_beers":6.0,"avg_abv":5.3,"max_abv":6.1},{"brewery":"Karlsberg Brauerei","city":"Homburg","lat":49.32637,"long":7.33867,"best_beer":"Karlsberg Heller Hoch Brau Pils","best_beer_score":3.47,"most_popular_beer":"AC\/DC","popularity":157.0,"n_beers":33.0,"avg_abv":4.403030303,"max_abv":8.0},{"brewery":"Darguner Brauerei GmbH","city":"Dargun","lat":53.9009,"long":12.85014,"best_beer":"Mecklenburger Pilsener","best_beer_score":3.3433333333,"most_popular_beer":"Burgkopf Pils","popularity":22.0,"n_beers":19.0,"avg_abv":6.1736842105,"max_abv":12.0},{"brewery":"Landshuter Brauhaus Koller-Fleischmann AG","city":"Landshut","lat":48.52961,"long":12.16179,"best_beer":"Pr\u00e4dikator Dunkler Doppelbock","best_beer_score":3.5733333333,"most_popular_beer":"Pr\u00e4dikator Dunkler Doppelbock","popularity":4.0,"n_beers":3.0,"avg_abv":5.4333333333,"max_abv":8.0},{"brewery":"Hotel-Gasthof H\u00e4ffner Br\u00e4u","city":"Bad Rappenau","lat":49.23848,"long":9.1018,"best_beer":"H\u00e4ffner Hopfenstopfer Citra Ale","best_beer_score":3.736969697,"most_popular_beer":"H\u00e4ffner Hopfenstopfer Citra Ale","popularity":31.0,"n_beers":16.0,"avg_abv":7.2375,"max_abv":10.3},{"brewery":"Frau Gruber Craft Brewing","city":"Gundelfingen","lat":48.55347,"long":10.37223,"best_beer":"Butcher's Lamb","best_beer_score":3.868,"most_popular_beer":"Green Is Lord","popularity":9.0,"n_beers":20.0,"avg_abv":6.415,"max_abv":8.8},{"brewery":"Martins Br\u00e4u Erste Freiburger Gasthausbrauerei","city":"Freiburg","lat":47.9959,"long":7.85222,"best_beer":"Martin\u0092s Br\u00e4u Pils","best_beer_score":3.3925,"most_popular_beer":"Martin\u0092s Br\u00e4u Pils","popularity":10.0,"n_beers":3.0,"avg_abv":5.0666666667,"max_abv":5.5},{"brewery":"Brauerei Johannes Grasser","city":"K\u00f6nigsfeld","lat":51.06667,"long":12.75,"best_beer":"Huppendorfer Vollbier","best_beer_score":3.7707142857,"most_popular_beer":"Huppendorfer Vollbier","popularity":12.0,"n_beers":9.0,"avg_abv":5.6444444444,"max_abv":7.5},{"brewery":"Hofbrauhaus Wolters GmbH","city":"Braunschweig","lat":52.26594,"long":10.52673,"best_beer":"Wolters Black Beer","best_beer_score":3.5335294118,"most_popular_beer":"Wolters Pilsener","popularity":257.0,"n_beers":11.0,"avg_abv":4.9727272727,"max_abv":5.4},{"brewery":"DUFF Sales & Marketing E.K.","city":"Gotha","lat":50.94823,"long":10.70193,"best_beer":"Duff Grape","best_beer_score":2.5625,"most_popular_beer":"The Legendary Duff Beer","popularity":60.0,"n_beers":3.0,"avg_abv":4.2666666667,"max_abv":5.0},{"brewery":"Karmeliter Br\u00e4u","city":"Salz","lat":50.51,"long":7.96361,"best_beer":"Bockbier","best_beer_score":2.98,"most_popular_beer":"Karmeliter Br\u00e4u Weissbier","popularity":1.0,"n_beers":10.0,"avg_abv":5.17,"max_abv":7.3},{"brewery":"Schlossbrauerei Gr\u00fcnbach","city":"Gr\u00fcnbach bei Erding","lat":48.3304363,"long":12.0030664,"best_beer":"Benno Scharl Braumeister Weizen","best_beer_score":3.3075,"most_popular_beer":"Gr\u00fcnbacher Altweisse Gold","popularity":7.0,"n_beers":7.0,"avg_abv":5.3571428571,"max_abv":5.7},{"brewery":"Pax Br\u00e4u","city":"Oberelsbach","lat":50.44118,"long":10.11692,"best_beer":"Rh\u00f6ner Pale Ale","best_beer_score":3.6983333333,"most_popular_beer":"Vollbier","popularity":4.0,"n_beers":23.0,"avg_abv":6.9086956522,"max_abv":10.1},{"brewery":"Augustiner-Br\u00e4u Wagner KG","city":"M\u00fcnchen","lat":50.82114,"long":11.93226,"best_beer":"Augustiner Br\u00e4u Lagerbier Hell","best_beer_score":4.1487919463,"most_popular_beer":"Augustiner Br\u00e4u Maximator","popularity":651.0,"n_beers":10.0,"avg_abv":5.96,"max_abv":7.5},{"brewery":"Privatbrauerei Bischoff","city":"Winnweiler","lat":49.56667,"long":7.85,"best_beer":"Falkensteiner Ur-Weisse","best_beer_score":3.5278125,"most_popular_beer":"Doppelbock","popularity":63.0,"n_beers":13.0,"avg_abv":5.6,"max_abv":7.5},{"brewery":"Brauhaus Zollernalb","city":"Albstadt-Ebingen","lat":48.2102295,"long":9.0276774,"best_beer":null,"best_beer_score":null,"most_popular_beer":null,"popularity":null,"n_beers":1.0,"avg_abv":4.9,"max_abv":4.9},{"brewery":"Brauerei Eichhorn","city":"Forchheim","lat":49.71754,"long":11.05877,"best_beer":"Eichhorn Vollbier-Dunkel","best_beer_score":3.442,"most_popular_beer":"Eichhorn Vollbier-Hell","popularity":4.0,"n_beers":4.0,"avg_abv":5.525,"max_abv":7.3},{"brewery":"Brauerei Hacklberg","city":"Passau","lat":48.5665,"long":13.43122,"best_beer":"Humorator","best_beer_score":3.6657142857,"most_popular_beer":"Hacklberg Urhell","popularity":11.0,"n_beers":14.0,"avg_abv":5.1785714286,"max_abv":7.0},{"brewery":"Brauerei Gebr\u00fcder Maisel GmbH & Co.","city":"Bayreuth","lat":49.94782,"long":11.57893,"best_beer":"Maisel & Friends Jeff's Bavarian Ale","best_beer_score":3.9695555556,"most_popular_beer":"Weisse Original","popularity":477.0,"n_beers":30.0,"avg_abv":5.86,"max_abv":9.5},{"brewery":"Privatbrauerei Lauterbach","city":"Lauterbach","lat":51.06667,"long":10.35,"best_beer":"Lauterbacher Brotzeitbier","best_beer_score":3.3983333333,"most_popular_beer":"Lauterbacher Brotzeitbier","popularity":4.0,"n_beers":11.0,"avg_abv":6.3545454545,"max_abv":9.0},{"brewery":"Privatbrauerei Schwelm","city":"Schwelm","lat":51.28635,"long":7.29388,"best_beer":"Schwelmer Weizen","best_beer_score":3.935212766,"most_popular_beer":"Schwelmer Alt","popularity":116.0,"n_beers":12.0,"avg_abv":5.0416666667,"max_abv":6.8},{"brewery":"The Monarchy","city":"K\u00f6ln","lat":50.93333,"long":6.95,"best_beer":"Methusalem Sour Altbier","best_beer_score":4.0253125,"most_popular_beer":"Methusalem Sour Altbier","popularity":62.0,"n_beers":15.0,"avg_abv":6.5866666667,"max_abv":10.0},{"brewery":"Brauerei Moninger GmbH","city":"Karlsruhe","lat":49.00937,"long":8.40444,"best_beer":"Moninger Export","best_beer_score":3.45,"most_popular_beer":"Ratskrone Pilsner","popularity":10.0,"n_beers":18.0,"avg_abv":5.2333333333,"max_abv":6.7},{"brewery":"Himburgs Braukunstkeller GmbH","city":"M\u00fcnchen","lat":50.82114,"long":11.93226,"best_beer":"Amarsi Double IPA","best_beer_score":3.9983333333,"most_popular_beer":"Amarsi Double IPA","popularity":40.0,"n_beers":17.0,"avg_abv":7.4352941176,"max_abv":11.7},{"brewery":"Braustil","city":"Frankfurt Am Main","lat":50.1106444,"long":8.6820917,"best_beer":"Honey Monk","best_beer_score":3.2366666667,"most_popular_beer":"Frankfurt Pale Ale","popularity":6.0,"n_beers":5.0,"avg_abv":5.2,"max_abv":5.6},{"brewery":"Flensburger Brauerei GmbH Und Co. KG","city":"Flensburg","lat":54.78431,"long":9.43961,"best_beer":"Flensburger Weizen","best_beer_score":3.6657322176,"most_popular_beer":"Flensburger Pilsener","popularity":302.0,"n_beers":13.0,"avg_abv":5.2769230769,"max_abv":7.0},{"brewery":"Hofbr\u00e4uhaus Traunstein Josef Sailer KG","city":"Traunstein","lat":47.86825,"long":12.64335,"best_beer":"Altbairisch Dunkel","best_beer_score":3.976,"most_popular_beer":"Hofbr\u00e4u Oktoberfest","popularity":79.0,"n_beers":16.0,"avg_abv":5.3875,"max_abv":7.8},{"brewery":"Westindien Compagnie","city":"Flensburg","lat":54.78431,"long":9.43961,"best_beer":"Sylter Hopfen","best_beer_score":3.34,"most_popular_beer":"Sylter Hopfen","popularity":3.0,"n_beers":7.0,"avg_abv":5.8714285714,"max_abv":7.3},{"brewery":"Krombacher Brauerei","city":"Kreuztal-Krombach","lat":49.97704,"long":9.15214,"best_beer":"Krombacher Weizen","best_beer_score":3.5714909091,"most_popular_beer":"Krombacher Pils","popularity":605.0,"n_beers":17.0,"avg_abv":4.1811764706,"max_abv":5.9},{"brewery":"Brauerie Franz Kammhuber","city":"Obertaufkirchen","lat":48.26046,"long":12.27904,"best_beer":"Hochzeitsbier","best_beer_score":3.298,"most_popular_beer":"Hochzeitsbier","popularity":3.0,"n_beers":3.0,"avg_abv":5.1666666667,"max_abv":5.5},{"brewery":"Privat Brauerei Schmucker Ober-Mossau KG","city":"Mossautal","lat":49.66919,"long":8.9233922,"best_beer":"Schmucker Doppel-Bock Dunkel","best_beer_score":3.7683333333,"most_popular_beer":"Schmucker Ros\u00e9bock","popularity":28.0,"n_beers":20.0,"avg_abv":5.515,"max_abv":8.0},{"brewery":"Ratsherrn Brauerei GmbH","city":"Hamburg","lat":53.55073,"long":9.99302,"best_beer":"Ratsherrn Matrosenschluck Oat White IPA","best_beer_score":3.564,"most_popular_beer":"Ratsherrn Pale Ale","popularity":20.0,"n_beers":46.0,"avg_abv":6.4152173913,"max_abv":10.3},{"brewery":"Klosterbrauerei Weissenohe \/ Klosterbrauerei Wei\u00dfenohe Wirtshaus","city":"Weissenohe","lat":49.6307659,"long":11.2547781,"best_beer":"Bonator","best_beer_score":3.9394623656,"most_popular_beer":"Weissenohe Monk's Fest","popularity":115.0,"n_beers":25.0,"avg_abv":5.488,"max_abv":8.2},{"brewery":"Privatbrauerei und Mineralbrunnenbetrieb H. Egerer","city":"Pilsting-Grossk\u00f6llnbach","lat":48.6813342,"long":12.6060611,"best_beer":"Holzknecht","best_beer_score":3.553,"most_popular_beer":"Eaglebrau Weizenbier Dunkel","popularity":43.0,"n_beers":26.0,"avg_abv":5.1896153846,"max_abv":6.5},{"brewery":"Brandy's BrauGarage","city":"Wallersdorf","lat":48.73767,"long":12.74744,"best_beer":null,"best_beer_score":null,"most_popular_beer":null,"popularity":null,"n_beers":20.0,"avg_abv":5.905,"max_abv":8.5},{"brewery":"Kulmbacher Kommunbr\u00e4u","city":"Kulmbach","lat":50.10068,"long":11.45032,"best_beer":"eisbock","best_beer_score":3.2766666667,"most_popular_beer":"Monkshof Dunkel","popularity":4.0,"n_beers":3.0,"avg_abv":6.7666666667,"max_abv":9.2},{"brewery":"Calwer-Eck-Br\u00e4u GmbH & Co. KG","city":"Stuttgart","lat":48.78232,"long":9.17702,"best_beer":"Keller-Pils","best_beer_score":2.91,"most_popular_beer":"Keller-Pils","popularity":1.0,"n_beers":1.0,"avg_abv":4.9,"max_abv":4.9},{"brewery":"Franken Br\u00e4u Lorenz Bauer GmbH & Co. KG","city":"Mitwitz","lat":50.25111,"long":11.20818,"best_beer":"Festbier","best_beer_score":3.2954545455,"most_popular_beer":"Festbier","popularity":9.0,"n_beers":10.0,"avg_abv":5.08,"max_abv":5.4},{"brewery":"Zwiefalter Klosterbr\u00e4u OHG","city":"Zwiefalten","lat":48.23396,"long":9.46232,"best_beer":"Zwiefalter Gro\u00dfer Abt Kellerbier","best_beer_score":3.31,"most_popular_beer":"Zwiefalter Kristallweizen","popularity":2.0,"n_beers":12.0,"avg_abv":4.475,"max_abv":5.6},{"brewery":"Ale-Mania","city":"Bonn","lat":50.73438,"long":7.09549,"best_beer":"India Pale Ale","best_beer_score":3.6057142857,"most_popular_beer":"Fritz Ale IPA 15.4 Plato","popularity":7.0,"n_beers":22.0,"avg_abv":6.3772727273,"max_abv":9.2},{"brewery":"Brauerei Beck & Co.","city":"Bremen","lat":53.07582,"long":8.80717,"best_beer":"Haake Beck Krausen","best_beer_score":3.5054545455,"most_popular_beer":"Beck's","popularity":2223.0,"n_beers":19.0,"avg_abv":4.1973684211,"max_abv":6.3},{"brewery":"Konrad Krug Brauerei","city":"Waischenfeld","lat":49.84645,"long":11.3481,"best_beer":"Krug-Br\u00e4u Pilsner","best_beer_score":3.72375,"most_popular_beer":"Krug-Br\u00e4u Dunkles Lagerbier","popularity":15.0,"n_beers":9.0,"avg_abv":5.4666666667,"max_abv":6.8},{"brewery":"Braukollektiv KG","city":"Freiburg im Breisgau","lat":47.9959,"long":7.85222,"best_beer":"Black Sheep IPA","best_beer_score":3.34,"most_popular_beer":"Moe","popularity":4.0,"n_beers":9.0,"avg_abv":6.2333333333,"max_abv":7.9},{"brewery":"Brauerei Josef Greif","city":"Forchheim","lat":49.71754,"long":11.05877,"best_beer":"Greif-Br\u00e4u Weisse","best_beer_score":3.65,"most_popular_beer":"Greif-Br\u00e4u Weisse","popularity":6.0,"n_beers":11.0,"avg_abv":5.3363636364,"max_abv":6.6},{"brewery":"Schoppe Br\u00e4u","city":"Berlin","lat":52.52437,"long":13.41053,"best_beer":"Schoppe Br\u00e4u Holy Shit","best_beer_score":3.7292857143,"most_popular_beer":"Schoppe Br\u00e4u Holy Shit","popularity":12.0,"n_beers":16.0,"avg_abv":8.275,"max_abv":27.6},{"brewery":"Feldschl\u00f6sschen AG","city":"Dresden","lat":51.05089,"long":13.73832,"best_beer":"Feldschl\u00f6sschen Maibock","best_beer_score":3.6908,"most_popular_beer":"Feldschl\u00f6sschen Maibock","popularity":23.0,"n_beers":9.0,"avg_abv":5.3777777778,"max_abv":7.2},{"brewery":"Held Br\u00e4u","city":"Ahorntal","lat":49.45421,"long":11.07752,"best_beer":"Altfr\u00e4nkisches Bauernbier Dunkel","best_beer_score":3.58,"most_popular_beer":"Altfr\u00e4nkisches Bauernbier Dunkel","popularity":10.0,"n_beers":2.0,"avg_abv":5.1,"max_abv":5.3},{"brewery":"Brauhaus Rheinbach","city":"Rheinbach","lat":50.62562,"long":6.94911,"best_beer":"Rheinbacher Weissbier","best_beer_score":3.4858823529,"most_popular_beer":"Rheinbacher Weissbier","popularity":15.0,"n_beers":2.0,"avg_abv":4.95,"max_abv":5.0},{"brewery":"Klosterbrauerei Mallersdorf","city":"Mallersdorf-Pfaffenberg","lat":48.76637,"long":12.23096,"best_beer":"Vollbier Hell","best_beer_score":3.318,"most_popular_beer":"Vollbier Hell","popularity":3.0,"n_beers":2.0,"avg_abv":5.85,"max_abv":6.7},{"brewery":"Bayerische Staatsbrauerei Weihenstephan","city":"Freising","lat":48.40351,"long":11.74876,"best_beer":"Weihenstephaner Hefeweissbier","best_beer_score":4.4070499366,"most_popular_beer":"Weihenstephaner Hefeweissbier","popularity":8669.0,"n_beers":25.0,"avg_abv":5.146,"max_abv":7.7},{"brewery":"L\u00f6wenbr\u00e4u Buttenheim","city":"Buttenheim","lat":49.80365,"long":11.03002,"best_beer":"Ungespundetes Lagerbier","best_beer_score":3.89,"most_popular_beer":"Ungespundetes Lagerbier","popularity":21.0,"n_beers":5.0,"avg_abv":5.22,"max_abv":6.3},{"brewery":"Braugasthof Falkenstein","city":"Pfronten","lat":47.5822,"long":10.54962,"best_beer":"M\u00e4rzen","best_beer_score":2.9166666667,"most_popular_beer":"Doppelbock","popularity":1.0,"n_beers":6.0,"avg_abv":6.0166666667,"max_abv":7.5},{"brewery":"Eder & Heylands Brauerei","city":"Gro\u00dfostheim","lat":49.91985,"long":9.07596,"best_beer":"Bavaria Dunkles Starkbier","best_beer_score":3.642,"most_popular_beer":"Bavaria Hefe Weizen","popularity":3.0,"n_beers":11.0,"avg_abv":5.1545454545,"max_abv":7.5},{"brewery":"Brauerei Fr\u00fch am Dom","city":"K\u00f6ln","lat":50.93333,"long":6.95,"best_beer":"Fr\u00fch K\u00f6lsch","best_beer_score":3.8067864693,"most_popular_beer":"Fr\u00fch K\u00f6lsch","popularity":471.0,"n_beers":3.0,"avg_abv":4.0,"max_abv":4.8},{"brewery":"Weyermann Brauerei GmbH","city":"Bamberg","lat":49.89873,"long":10.90067,"best_beer":"Adam's Imperial Pils","best_beer_score":3.3875,"most_popular_beer":"Weyermann Schlotfegerla","popularity":7.0,"n_beers":24.0,"avg_abv":6.5,"max_abv":11.5},{"brewery":"Stone Brewing - Berlin","city":"Berlin","lat":52.52437,"long":13.41053,"best_beer":"Stone \/ Maui \"Aloha! Berlin\"","best_beer_score":4.0125714286,"most_popular_beer":"Stone \/ Maui \"Aloha! Berlin\"","popularity":33.0,"n_beers":25.0,"avg_abv":8.172,"max_abv":10.1},{"brewery":"Brauerei C. & A. Veltins GmbH & Co.","city":"Meschede-Grevenstein","lat":51.303187,"long":8.1323234,"best_beer":"Grevensteiner Original","best_beer_score":3.772010582,"most_popular_beer":"Pilsener","popularity":365.0,"n_beers":10.0,"avg_abv":3.3,"max_abv":5.2},{"brewery":"Linden Brauerei GmbH","city":"Unna","lat":51.53795,"long":7.68969,"best_beer":"Grafen Walder Premium Pils","best_beer_score":2.828,"most_popular_beer":"Grafen Walder Premium Pils","popularity":8.0,"n_beers":13.0,"avg_abv":4.9230769231,"max_abv":8.6},{"brewery":"OLs Brauhaus","city":"Oldenburg","lat":53.14118,"long":8.21467,"best_beer":null,"best_beer_score":null,"most_popular_beer":null,"popularity":null,"n_beers":7.0,"avg_abv":5.3714285714,"max_abv":6.5},{"brewery":"Brauerei Leonhard Sch\u00fcbel","city":"Stadtsteinach","lat":50.16433,"long":11.50349,"best_beer":"Sch\u00fcbel Br\u00e4u Pressecker Drachenseidla","best_beer_score":3.142,"most_popular_beer":"Sch\u00fcbel Br\u00e4u Pressecker Drachenseidla","popularity":3.0,"n_beers":3.0,"avg_abv":4.9,"max_abv":4.9},{"brewery":"Brauerei Ladenburger GmbH","city":"Neuler","lat":48.92803,"long":10.06888,"best_beer":"Ladenburger Hefeweizen Dunkel","best_beer_score":3.34,"most_popular_beer":"Ladenburger Hefeweizen Dunkel","popularity":4.0,"n_beers":13.0,"avg_abv":4.2307692308,"max_abv":8.0},{"brewery":"L\u00f6wenbr\u00e4u AG","city":"M\u00fcnchen","lat":50.82114,"long":11.93226,"best_beer":"L\u00f6wenbr\u00e4u Triumphator","best_beer_score":3.8587323944,"most_popular_beer":"L\u00f6wenbr\u00e4u Original","popularity":878.0,"n_beers":13.0,"avg_abv":4.8307692308,"max_abv":7.6},{"brewery":"Steinbach Br\u00e4u","city":"Erlangen","lat":49.59099,"long":11.00783,"best_beer":"Steinbach Bergkirchweihbier","best_beer_score":2.5366666667,"most_popular_beer":"Steinbach Bergkirchweihbier","popularity":1.0,"n_beers":1.0,"avg_abv":6.5,"max_abv":6.5},{"brewery":"Brauerei Roppelt","city":"Hallerndorf","lat":49.75909,"long":10.97946,"best_beer":"Kellerbier","best_beer_score":3.06,"most_popular_beer":"Kellerbier","popularity":1.0,"n_beers":1.0,"avg_abv":4.9,"max_abv":4.9},{"brewery":"Museums- und Traditionsbrauerei Wippra \/ Harz Gebr\u00fcder Gehring","city":"Wippra","lat":51.573,"long":11.27498,"best_beer":"Doldensud","best_beer_score":2.99,"most_popular_beer":"Doldensud","popularity":1.0,"n_beers":9.0,"avg_abv":6.0888888889,"max_abv":8.9},{"brewery":"Pyraser Bier GmbH & Co. KG","city":"Thalm\u00e4ssing","lat":49.08834,"long":11.2215,"best_beer":"Weizen-Bock","best_beer_score":3.64375,"most_popular_beer":"6-Korn Bier","popularity":13.0,"n_beers":16.0,"avg_abv":5.48125,"max_abv":8.3},{"brewery":"Brauerei K\u00f6nigshof","city":"Krefeld","lat":51.33645,"long":6.55381,"best_beer":"Brauerei K\u00f6nigshof Pils","best_beer_score":3.4,"most_popular_beer":"Brauerei K\u00f6nigshof Pils","popularity":5.0,"n_beers":3.0,"avg_abv":5.0,"max_abv":5.4},{"brewery":"Gr\u00e4fliche Brauerei Arco Valley","city":"Eichendorf","lat":48.63266,"long":12.85586,"best_beer":"Graf Arco Weisse Hell","best_beer_score":3.58,"most_popular_beer":"Graf Arco Weisse Hell","popularity":4.0,"n_beers":11.0,"avg_abv":4.6090909091,"max_abv":7.2},{"brewery":"Vagabund Brauerei","city":"Berlin","lat":52.52437,"long":13.41053,"best_beer":"Double IPA","best_beer_score":3.49,"most_popular_beer":"Double IPA","popularity":4.0,"n_beers":12.0,"avg_abv":5.925,"max_abv":8.0},{"brewery":"Brauerei Fritz Gutmann","city":"Titting","lat":48.996666,"long":11.2106102,"best_beer":"Gutmann Weizenbock","best_beer_score":3.8042857143,"most_popular_beer":"Gutmann Hefeweizen","popularity":41.0,"n_beers":4.0,"avg_abv":5.175,"max_abv":7.2},{"brewery":"Paderborner Isenbeck Brauerei Haus Cramer GmbH & Co. KG","city":"Paderborn","lat":51.71905,"long":8.75439,"best_beer":"Paderborner Pilsener","best_beer_score":3.2042222222,"most_popular_beer":"Paderborner Pilsener","popularity":43.0,"n_beers":6.0,"avg_abv":5.3166666667,"max_abv":5.9},{"brewery":"Hirschbr\u00e4u Friedrich Wurm KG","city":"Bieswang","lat":48.9286701,"long":11.0361219,"best_beer":"Wurm Vollbier Hell","best_beer_score":3.1475,"most_popular_beer":"Wurm Vollbier Hell","popularity":2.0,"n_beers":1.0,"avg_abv":4.8,"max_abv":4.8},{"brewery":"Apostelbr\u00e4u","city":"Hauzenberg","lat":48.64957,"long":13.62645,"best_beer":"First Bavarian Pale Ale","best_beer_score":3.6779166667,"most_popular_beer":"Roggen","popularity":53.0,"n_beers":9.0,"avg_abv":5.4111111111,"max_abv":7.0},{"brewery":"Dithmarscher Brauerei \/ Karl Hintz GmbH & Co.KG","city":"Marne","lat":53.95,"long":8.98333,"best_beer":"Dithmarscher Pilsener","best_beer_score":3.4938461538,"most_popular_beer":"Dithmarscher Pilsener","popularity":11.0,"n_beers":7.0,"avg_abv":5.3142857143,"max_abv":6.5},{"brewery":"Hacker-Pschorr Br\u00e4u GmbH","city":"M\u00fcnchen","lat":50.82114,"long":11.93226,"best_beer":"Hacker-Pschorr Hefe Weisse Naturtr\u00fcb","best_beer_score":4.0945520717,"most_popular_beer":"Hacker-Pschorr Original Oktoberfest Amber M\u00e4rzen","popularity":1905.0,"n_beers":21.0,"avg_abv":5.3857142857,"max_abv":8.1},{"brewery":"Kaiserdom Privatbrauerei Bamberg","city":"Bamberg","lat":49.89873,"long":10.90067,"best_beer":"Kaiserdom Kellerbier Unfiltriert","best_beer_score":3.3973076923,"most_popular_beer":"Pilsener","popularity":67.0,"n_beers":20.0,"avg_abv":4.85,"max_abv":7.5},{"brewery":"Privatbrauerei Kesselring Gmbh & Co. KG","city":"Marksteft","lat":49.79391,"long":9.95121,"best_beer":"Kesselring Urtyp Export","best_beer_score":3.206,"most_popular_beer":"Steinie^2 Das Geniale Bier","popularity":3.0,"n_beers":11.0,"avg_abv":4.8272727273,"max_abv":6.2},{"brewery":"H\u00f6sl & Co. Brauhaus GmbH","city":"Mitterteich","lat":49.95141,"long":12.24206,"best_beer":"St. Bonifatius","best_beer_score":3.4266666667,"most_popular_beer":"St. Bonifatius","popularity":19.0,"n_beers":12.0,"avg_abv":5.4333333333,"max_abv":7.5},{"brewery":"Privatbrauerei Scherdel OHG","city":"Hof","lat":50.66667,"long":8.01667,"best_beer":"Scherdel Schwarzes","best_beer_score":3.25,"most_popular_beer":"Zoigl Unfiltriert","popularity":4.0,"n_beers":7.0,"avg_abv":5.2285714286,"max_abv":6.5},{"brewery":"Sperber-Brau","city":"Sulzbach-Rosenberg","lat":49.50126,"long":11.74598,"best_beer":"Herzog Christian August","best_beer_score":2.8333333333,"most_popular_beer":"Herzog Christian August","popularity":1.0,"n_beers":1.0,"avg_abv":7.2,"max_abv":7.2},{"brewery":"Erdinger Weissbr\u00e4u","city":"Erding","lat":48.30603,"long":11.90686,"best_beer":"Erdinger Weissbier Pikantus","best_beer_score":3.8609411765,"most_popular_beer":"Erdinger Weissbier","popularity":2031.0,"n_beers":13.0,"avg_abv":4.8461538462,"max_abv":7.3},{"brewery":"Klosterbrauerei Ettal \/ Ettaler Klosterbetriebe GmbH","city":"Ettal","lat":47.56667,"long":11.1,"best_beer":"Ettaler Curator Dunkler Doppelbock (US Import Version)","best_beer_score":3.9055704698,"most_popular_beer":"Benediktiner Weissbier","popularity":316.0,"n_beers":18.0,"avg_abv":5.7666666667,"max_abv":9.0},{"brewery":"Herrmannsdorfer Schweinsbr\u00e4u","city":"Glonn","lat":47.98751,"long":11.86721,"best_beer":"Schweinsbr\u00e4u Weisse","best_beer_score":3.6288235294,"most_popular_beer":"Schweinsbr\u00e4u Dunkel","popularity":22.0,"n_beers":3.0,"avg_abv":4.8333333333,"max_abv":5.2},{"brewery":"Frankfurter Brauhaus GmbH","city":"Frankfurt (Oder)","lat":52.34714,"long":14.55062,"best_beer":"Prost! Hefe","best_beer_score":3.326,"most_popular_beer":"Pilsator Pilsener","popularity":8.0,"n_beers":18.0,"avg_abv":4.3722222222,"max_abv":5.5},{"brewery":"Weiss R\u00f6ssl Br\u00e4u","city":"Eltmann","lat":49.97148,"long":10.66712,"best_beer":"Turmherren Hefeweizen","best_beer_score":3.5457142857,"most_popular_beer":"Turmherren Hefeweizen","popularity":5.0,"n_beers":11.0,"avg_abv":5.1090909091,"max_abv":5.4},{"brewery":"Brauerei August Gleumes GmbH","city":"Krefeld","lat":51.33645,"long":6.55381,"best_beer":"Gleumes Lager","best_beer_score":3.2575,"most_popular_beer":"Gleumes Lager","popularity":2.0,"n_beers":2.0,"avg_abv":4.9,"max_abv":4.9},{"brewery":"Brauerei Schumacher","city":"D\u00fcsseldorf","lat":51.22172,"long":6.77616,"best_beer":"Schumacher Alt","best_beer_score":4.0688333333,"most_popular_beer":"Schumacher Alt","popularity":58.0,"n_beers":3.0,"avg_abv":5.0333333333,"max_abv":5.5},{"brewery":"Brauhaus Brandmeier","city":"Cadolzburg","lat":49.4573,"long":10.85329,"best_beer":"Cadolzburger Rote Weisse","best_beer_score":2.99,"most_popular_beer":"Cadolzburger Blondes","popularity":1.0,"n_beers":15.0,"avg_abv":6.1333333333,"max_abv":9.0},{"brewery":"Ziegler Br\u00e4u Mainburg","city":"Mainburg \/ Hallertau","lat":48.5585625,"long":11.7378413,"best_beer":"Ziegler Br\u00e4u Kellerbier","best_beer_score":2.7733333333,"most_popular_beer":"Ziegler Br\u00e4u Kellerbier","popularity":1.0,"n_beers":3.0,"avg_abv":5.2,"max_abv":5.2},{"brewery":"Brauerei Gasthof Schwan - Schwanenbr\u00e4u","city":"Burgebrach","lat":49.82832,"long":10.74338,"best_beer":"Schwana Kellerbier","best_beer_score":3.4,"most_popular_beer":"Schwanenbr\u00e4u Burgebrach Weihnachtsbock","popularity":3.0,"n_beers":3.0,"avg_abv":5.9333333333,"max_abv":6.9},{"brewery":"Vulkan Brauhaus GmbH","city":"Mendig","lat":50.36667,"long":7.28333,"best_beer":"Vulkan Dunkles","best_beer_score":3.2766666667,"most_popular_beer":"Vulkan Dunkles","popularity":7.0,"n_beers":10.0,"avg_abv":6.03,"max_abv":8.0},{"brewery":"Wildwuchs Brauwerk Hamburg","city":"Hamburg","lat":53.55073,"long":9.99302,"best_beer":"Wildwuchs Fastmoker Pils","best_beer_score":3.204,"most_popular_beer":"Bock O'Range","popularity":4.0,"n_beers":5.0,"avg_abv":6.78,"max_abv":8.0},{"brewery":"Hirschbrauerei GmbH & Co. KG","city":"Wurmlingen","lat":48.0,"long":8.78333,"best_beer":"Hirsch Hefe Weisse","best_beer_score":3.545,"most_popular_beer":"Hirsch Hefe Weisse","popularity":6.0,"n_beers":15.0,"avg_abv":4.6133333333,"max_abv":7.0},{"brewery":"1 Dampfbierbrauerei Zwiesel GmbH & Co.KG","city":"Zwiesel","lat":49.01693,"long":13.23765,"best_beer":"Zwiesel L\u00f6wentrunk","best_beer_score":3.7666666667,"most_popular_beer":"Dampfbier","popularity":27.0,"n_beers":7.0,"avg_abv":4.9714285714,"max_abv":5.5},{"brewery":"K\u00f6thener Brauerei","city":"K\u00f6then","lat":51.75185,"long":11.97093,"best_beer":"Hubertus Schwarzbier","best_beer_score":3.27,"most_popular_beer":"Hubertus Schwarzbier","popularity":9.0,"n_beers":3.0,"avg_abv":5.8333333333,"max_abv":6.9},{"brewery":"Trier Petrusbr\u00e4u","city":"Trier","lat":49.75565,"long":6.63935,"best_beer":"Trierer Petrusbr\u00e4u Der Schwarze Pitter","best_beer_score":3.07,"most_popular_beer":"Trierer Petrusbr\u00e4u Weizen","popularity":1.0,"n_beers":9.0,"avg_abv":5.1888888889,"max_abv":7.0},{"brewery":"Gasthof-Hotel-Brauerei Grosch","city":"R\u00f6dental","lat":50.29516,"long":11.04122,"best_beer":"Anno 1492","best_beer_score":3.1075,"most_popular_beer":"Anno 1492","popularity":2.0,"n_beers":5.0,"avg_abv":5.52,"max_abv":7.0},{"brewery":"Oettinger Brauerei","city":"Oettingen","lat":48.95274,"long":10.60465,"best_beer":"Oettinger Hefeweissbier","best_beer_score":3.5603030303,"most_popular_beer":"Oettinger Pils","popularity":38.0,"n_beers":26.0,"avg_abv":4.4,"max_abv":8.9},{"brewery":"K\u00f6nig-Brauerei GmbH","city":"Duisburg","lat":51.43247,"long":6.76516,"best_beer":"K\u00f6nig Pilsener","best_beer_score":3.7749359886,"most_popular_beer":"K\u00f6nig Pilsener","popularity":701.0,"n_beers":2.0,"avg_abv":5.1,"max_abv":5.3},{"brewery":"Brauerei Gasthof Hartmann","city":"W\u00fcrgau","lat":49.9789954,"long":11.0903786,"best_beer":"Hartmann Bockbier","best_beer_score":3.776,"most_popular_beer":"Hartmann Felsentrunk","popularity":8.0,"n_beers":7.0,"avg_abv":5.5714285714,"max_abv":7.0},{"brewery":"Freiberger Brauhaus AG","city":"Freiberg","lat":50.91089,"long":13.33881,"best_beer":"Freibergisch Bock Dunkel","best_beer_score":3.553125,"most_popular_beer":"Freiberger Premium-Pils","popularity":16.0,"n_beers":11.0,"avg_abv":5.4272727273,"max_abv":6.7},{"brewery":"Oettinger International Getr\u00e4nke-Vertriebs GmbH","city":"Hamburg","lat":53.55073,"long":9.99302,"best_beer":"Original Oettinger Hefeweissbier","best_beer_score":3.5803333333,"most_popular_beer":"Original Oettinger Pils","popularity":99.0,"n_beers":25.0,"avg_abv":4.896,"max_abv":8.9},{"brewery":"Schwerter Brauerei Wohlers KG","city":"Meissen","lat":51.16158,"long":13.4737,"best_beer":"St Afra Dunkel","best_beer_score":3.4728571429,"most_popular_beer":"St Afra Dunkel","popularity":5.0,"n_beers":7.0,"avg_abv":5.1714285714,"max_abv":6.5},{"brewery":"Maisel Br\u00e4u Bamberg GmbH","city":"Bamberg","lat":49.89873,"long":10.90067,"best_beer":"Bamberger Der Weisse Bock","best_beer_score":3.6175,"most_popular_beer":"St. Michaelsberg Kellerbier","popularity":30.0,"n_beers":12.0,"avg_abv":5.45,"max_abv":9.0},{"brewery":"Hubert Mellert Brauerei","city":"Steinach","lat":50.43129,"long":11.15909,"best_beer":"Hefe Weizen","best_beer_score":3.5416666667,"most_popular_beer":"Hefe Weizen","popularity":4.0,"n_beers":3.0,"avg_abv":5.1,"max_abv":5.4},{"brewery":"Gem\u00fcnder Brauerei","city":"Schleiden","lat":50.88419,"long":6.24298,"best_beer":"Kr\u00f6nes Eifeler Landbier","best_beer_score":3.3961538462,"most_popular_beer":"Kr\u00f6nes Eifeler Landbier","popularity":11.0,"n_beers":2.0,"avg_abv":5.1,"max_abv":5.1},{"brewery":"Brauerei Tucher Brau","city":"N\u00fcrnberg","lat":49.45421,"long":11.07752,"best_beer":"Tucher Bajuvator Doppelbock","best_beer_score":4.0852529183,"most_popular_beer":"Tucher Helles Hefe Weizen","popularity":593.0,"n_beers":32.0,"avg_abv":5.190625,"max_abv":7.2},{"brewery":"Union Brauerei Bremen","city":"Bremen","lat":53.07582,"long":8.80717,"best_beer":null,"best_beer_score":null,"most_popular_beer":null,"popularity":null,"n_beers":10.0,"avg_abv":5.45,"max_abv":7.0},{"brewery":"Privatbrauerei Schweiger","city":"Markt Schwaben","lat":48.18949,"long":11.8691,"best_beer":"Schweiger Premium Pils","best_beer_score":3.678,"most_popular_beer":"Schweiger Helles Export","popularity":7.0,"n_beers":10.0,"avg_abv":4.53,"max_abv":5.1},{"brewery":"Brauhaus Knallh\u00fctte\/H\u00fctt Brauerei Bettenh\u00e4user GmbH & Co. KG","city":"Baunatal","lat":51.25182,"long":9.40747,"best_beer":"H\u00fctt Naturtr\u00fcb","best_beer_score":3.4771428571,"most_popular_beer":"H\u00fctt Naturtr\u00fcb","popularity":5.0,"n_beers":4.0,"avg_abv":5.075,"max_abv":5.2},{"brewery":"Brauhaus Riegele","city":"Augsburg","lat":48.37154,"long":10.89851,"best_beer":"Riegele Augustus Weizendoppelbock","best_beer_score":3.95,"most_popular_beer":"Commerzienrat Riegele Privat","popularity":74.0,"n_beers":33.0,"avg_abv":6.796969697,"max_abv":13.0},{"brewery":"Brauerei Richard Wagner","city":"Merkendorf","lat":49.20361,"long":10.70416,"best_beer":"Wagner Ungespundetes Lagerbier","best_beer_score":3.6072727273,"most_popular_beer":"Wagner Ungespundetes Lagerbier","popularity":9.0,"n_beers":10.0,"avg_abv":5.76,"max_abv":7.5},{"brewery":"Brauerei Ustersbach","city":"Ustersbach","lat":48.31667,"long":10.65,"best_beer":"Ustersbacher Privat Pils","best_beer_score":3.18,"most_popular_beer":"Ustersbacher Dunkle Weisse","popularity":4.0,"n_beers":11.0,"avg_abv":5.3272727273,"max_abv":5.5},{"brewery":"Brauerei Gasthof Rittmayer","city":"Hallerndorf","lat":49.75909,"long":10.97946,"best_beer":"Rauchbier","best_beer_score":3.791,"most_popular_beer":"Hallerndorfer Landbier Hell","popularity":21.0,"n_beers":19.0,"avg_abv":5.8421052632,"max_abv":9.0},{"brewery":"Binding-Brauerei AG","city":"Frankfurt am Main","lat":50.11552,"long":8.68417,"best_beer":"Carolus, Der Starke","best_beer_score":3.865,"most_popular_beer":"Sch\u00f6fferhofer Grapefruit Weizen-Mix","popularity":830.0,"n_beers":21.0,"avg_abv":3.270952381,"max_abv":7.5},{"brewery":"T\u00f6lzer M\u00fchlfeldbr\u00e4u","city":"Bad T\u00f6lz","lat":47.76111,"long":11.5589,"best_beer":"T\u00f6lzer M\u00fchlfeldbr\u00e4u \/ Findler Motueka Single Hop IPA","best_beer_score":2.9666666667,"most_popular_beer":"TMB Alt","popularity":1.0,"n_beers":5.0,"avg_abv":5.46,"max_abv":7.1},{"brewery":"Stadtbrauerei Spalt","city":"Spalt","lat":49.17553,"long":10.92453,"best_beer":"Spalter Premium Pils","best_beer_score":3.285,"most_popular_beer":"Spalter Helles Vollbier","popularity":5.0,"n_beers":9.0,"avg_abv":5.5555555556,"max_abv":7.5},{"brewery":"Einbecker Brauhaus AG","city":"Einbeck","lat":51.82018,"long":9.86961,"best_beer":"Winter-Bock","best_beer_score":3.7761146497,"most_popular_beer":"Mai-Ur-Bock","popularity":427.0,"n_beers":22.0,"avg_abv":5.25,"max_abv":7.5},{"brewery":"Brauhaus am Waldschl\u00f6sschen","city":"Dresden","lat":51.05089,"long":13.73832,"best_beer":"Waldschl\u00f6sschen Zwickelbier","best_beer_score":3.22,"most_popular_beer":"Waldschl\u00f6sschen Zwickelbier","popularity":2.0,"n_beers":4.0,"avg_abv":5.25,"max_abv":5.5},{"brewery":"Privatbrauerei Ernst Barre GmbH","city":"L\u00fcbbecke","lat":52.30699,"long":8.61423,"best_beer":"Barre Pilsner","best_beer_score":3.2530769231,"most_popular_beer":"Barre Pilsner","popularity":11.0,"n_beers":7.0,"avg_abv":5.2714285714,"max_abv":6.9},{"brewery":"Kauzen Br\u00e4u","city":"Ochsenfurt","lat":49.66429,"long":10.06227,"best_beer":"Kauzen Weissbier Dunkel","best_beer_score":3.265,"most_popular_beer":"K\u00e4uzle","popularity":7.0,"n_beers":12.0,"avg_abv":5.3083333333,"max_abv":7.1},{"brewery":"Heinenhof - Die Mikrobrauerei & Craftbeer Creations Cologne","city":"Puhlheim","lat":49.4099217,"long":11.3862596,"best_beer":"Rheinische Felder","best_beer_score":3.05,"most_popular_beer":"Roter Korsar","popularity":1.0,"n_beers":4.0,"avg_abv":6.4,"max_abv":7.5},{"brewery":"Brauerei Kathi Br\u00e4u","city":"Aufse\u00df","lat":49.8837,"long":11.22692,"best_beer":"Dunkles Lagerbier","best_beer_score":3.08,"most_popular_beer":"Dunkles Lagerbier","popularity":1.0,"n_beers":1.0,"avg_abv":4.8,"max_abv":4.8},{"brewery":"Brauerei Michael Plank","city":"Laaber","lat":48.70233,"long":12.02717,"best_beer":"Plank Bavarian Heller Weizenbock","best_beer_score":3.9003007519,"most_popular_beer":"Plank Bavarian Dunkler Weizenbock","popularity":132.0,"n_beers":9.0,"avg_abv":6.2222222222,"max_abv":7.8},{"brewery":"Brauerei Sauer","city":"Rossdorf am Forst","lat":49.8665593,"long":10.994996,"best_beer":"Unfiltered Lager","best_beer_score":3.725,"most_popular_beer":"Unfiltered Lager","popularity":6.0,"n_beers":5.0,"avg_abv":5.28,"max_abv":7.0},{"brewery":"Schlossbrauerei Unterbaar A. Freiherr von Trockau","city":"Baar","lat":52.71009,"long":8.50256,"best_beer":"Unterbaarer Helles","best_beer_score":3.0016666667,"most_popular_beer":"Unterbaarer Helles","popularity":4.0,"n_beers":2.0,"avg_abv":5.95,"max_abv":6.9},{"brewery":"G\u00e4nstaller-Br\u00e4u","city":"Hallerndorf","lat":49.75909,"long":10.97946,"best_beer":"Amber Weizenbock","best_beer_score":3.802,"most_popular_beer":"G\u00e4nstaller-Br\u00e4u Affumicator","popularity":19.0,"n_beers":33.0,"avg_abv":7.3090909091,"max_abv":14.4},{"brewery":"Brauerei Weitnau","city":"Weitnau","lat":47.64171,"long":10.12732,"best_beer":"Zunftherrn Hefe- Weizen","best_beer_score":2.915,"most_popular_beer":"Zunftherrn Hefe- Weizen","popularity":2.0,"n_beers":2.0,"avg_abv":4.95,"max_abv":5.0},{"brewery":"BRLO","city":"Berlin","lat":52.52437,"long":13.41053,"best_beer":"BRLO \/ Steamworks Maple Smoked Weizenbock","best_beer_score":3.3828571429,"most_popular_beer":"BRLO Pale Ale","popularity":14.0,"n_beers":8.0,"avg_abv":5.9375,"max_abv":7.0},{"brewery":"SchwarzwaldGold Braumanufaktur","city":"V\u00f6rstetten","lat":48.06667,"long":7.85,"best_beer":"Schwarzwaldgold Tripel","best_beer_score":3.324,"most_popular_beer":"Schwarzwaldgold Tripel","popularity":3.0,"n_beers":4.0,"avg_abv":7.575,"max_abv":10.0},{"brewery":"Schleswig & Asgaard Brauerei","city":"Schleswig","lat":54.52156,"long":9.5586,"best_beer":"Schleswig Asgaard Bio Premium Pils","best_beer_score":2.775,"most_popular_beer":"El-Tequito Beer-Mix","popularity":4.0,"n_beers":4.0,"avg_abv":5.075,"max_abv":5.9},{"brewery":"Vetter Alt Heidelberger Brauhaus","city":"Heidelberg","lat":49.40768,"long":8.69079,"best_beer":"Vetter Maibock","best_beer_score":3.29,"most_popular_beer":"Vetter Maibock","popularity":3.0,"n_beers":1.0,"avg_abv":6.5,"max_abv":6.5},{"brewery":"Klosterbrauerei Reutberg","city":"Sachsenkam","lat":47.80543,"long":11.64396,"best_beer":"Reutberger Export Dunkel","best_beer_score":3.715,"most_popular_beer":"Reutberger Export Dunkel","popularity":74.0,"n_beers":7.0,"avg_abv":5.8571428571,"max_abv":6.9},{"brewery":"Emma - Biere Ohne Bart","city":"Freiburg im Breisgau","lat":47.9959,"long":7.85222,"best_beer":"Zapotopaz","best_beer_score":3.0333333333,"most_popular_beer":"Salto Orale","popularity":1.0,"n_beers":4.0,"avg_abv":7.725,"max_abv":8.6},{"brewery":"Dortmunder Actien Brauerei \/ DAB","city":"Dortmund","lat":51.51494,"long":7.466,"best_beer":"DAB Maibock","best_beer_score":3.4120930233,"most_popular_beer":"DAB Original","popularity":650.0,"n_beers":20.0,"avg_abv":4.76,"max_abv":7.0},{"brewery":"Gastst\u00e4tte Zum Bautzner Tor","city":"Dresden","lat":51.05089,"long":13.73832,"best_beer":"Lenins Hanf","best_beer_score":3.7633333333,"most_popular_beer":"Lenins Hanf","popularity":4.0,"n_beers":2.0,"avg_abv":6.1,"max_abv":7.0},{"brewery":"Licher Privatbrauerei","city":"Lich","lat":50.52085,"long":8.81567,"best_beer":"Licher Hefeweizen","best_beer_score":3.7363636364,"most_popular_beer":"Licher Hefeweizen","popularity":141.0,"n_beers":8.0,"avg_abv":4.5875,"max_abv":5.7},{"brewery":"Winkler Braustuberl Privatbrauerei und Gutshof","city":"Lengenfeld","lat":50.5694,"long":12.36408,"best_beer":"Kupfer Bock","best_beer_score":3.655,"most_popular_beer":"Kupfer Bock","popularity":4.0,"n_beers":3.0,"avg_abv":5.5,"max_abv":6.4},{"brewery":"Third Sector Brewing","city":"Essen","lat":52.72258,"long":7.9371,"best_beer":"Aam Lassee (\u0906\u092e \u0932\u0938\u094d\u0938\u0940)","best_beer_score":2.9933333333,"most_popular_beer":"Aam Lassee (\u0906\u092e \u0932\u0938\u094d\u0938\u0940)","popularity":1.0,"n_beers":5.0,"avg_abv":7.46,"max_abv":9.2},{"brewery":"Privatbrauerei Franz Joseph Sailer","city":"Marktoberdorf","lat":47.77964,"long":10.61713,"best_beer":"Jubel","best_beer_score":3.8894117647,"most_popular_beer":"Rauchenfelser Steinbrau","popularity":52.0,"n_beers":5.0,"avg_abv":5.38,"max_abv":5.5},{"brewery":"Dinkelacker-Schwabenbraeu AG","city":"Stuttgart","lat":48.78232,"long":9.17702,"best_beer":"Das Schwarze","best_beer_score":3.6860504202,"most_popular_beer":"Dinkelacker CD-Pils","popularity":296.0,"n_beers":32.0,"avg_abv":5.175,"max_abv":6.9},{"brewery":"Michels Eichsfelder Braumanufaktur","city":"D\u00fcnwald","lat":51.3198476,"long":10.4269631448,"best_beer":"Maibock","best_beer_score":3.0966666667,"most_popular_beer":"Oatmeal Stout","popularity":1.0,"n_beers":10.0,"avg_abv":5.55,"max_abv":6.5},{"brewery":"H.Nettelbeck KG","city":"Braunschweig","lat":52.26594,"long":10.52673,"best_beer":"Segelschiff - Mumme Bier","best_beer_score":2.9775,"most_popular_beer":"Segelschiff - Mumme Bier","popularity":2.0,"n_beers":1.0,"avg_abv":5.2,"max_abv":5.2},{"brewery":"Brauerei K\u00fcrzer","city":"D\u00fcsseldorf","lat":51.22172,"long":6.77616,"best_beer":"K\u00fcrzer Alt","best_beer_score":3.2677777778,"most_popular_beer":"K\u00fcrzer Alt","popularity":7.0,"n_beers":1.0,"avg_abv":4.8,"max_abv":4.8},{"brewery":"Wolnzacher B\u00fcrgerbra\u00fc AG","city":"Wolnzach","lat":48.6038,"long":11.62568,"best_beer":"Wolnzacher Oktoberfest-Bier","best_beer_score":3.957826087,"most_popular_beer":"Wolnzacher Roggenbier","popularity":62.0,"n_beers":10.0,"avg_abv":5.72,"max_abv":7.8},{"brewery":"Weissbierbrauerei Hopf","city":"Miesbach","lat":47.78903,"long":11.83382,"best_beer":"Hopf Weisser Bock","best_beer_score":3.9297222222,"most_popular_beer":"Hopf Helle Weisse","popularity":171.0,"n_beers":11.0,"avg_abv":5.5,"max_abv":8.0},{"brewery":"Landwehr-Br\u00e4u - Privatbrauerei W\u00f6rner","city":"Reichelshofen bei Rothenburg o.d. Tauber","lat":49.4395953,"long":10.2109757,"best_beer":"Landwehr Edel","best_beer_score":3.466,"most_popular_beer":"Landwehr Hell","popularity":7.0,"n_beers":15.0,"avg_abv":5.1066666667,"max_abv":6.6},{"brewery":"Husums Brauhaus","city":"Husum\/Nordsee","lat":54.4721649,"long":9.055448,"best_beer":null,"best_beer_score":null,"most_popular_beer":null,"popularity":null,"n_beers":7.0,"avg_abv":6.0,"max_abv":7.8},{"brewery":"Badische Staatsbrauerei Rothaus AG","city":"Grafenhausen-Rothaus","lat":47.7948415,"long":8.2443865,"best_beer":"Rothaus Pils Tannen Z\u00e4pfle","best_beer_score":4.0389366516,"most_popular_beer":"Rothaus Pils Tannen Z\u00e4pfle","popularity":440.0,"n_beers":9.0,"avg_abv":3.9111111111,"max_abv":5.6},{"brewery":"Wiesbadener Braumanufaktur UG","city":"Wiesbaden","lat":50.08258,"long":8.24932,"best_beer":"Wiesbadener IPA","best_beer_score":3.3375,"most_popular_beer":"Wiesbadener Amber Ale","popularity":2.0,"n_beers":6.0,"avg_abv":6.6166666667,"max_abv":8.5},{"brewery":"Mauritius Brauerei","city":"Zwickau","lat":50.72724,"long":12.48839,"best_beer":"Mauritius Zwickauer Bock Dunkel","best_beer_score":3.2322222222,"most_popular_beer":"Perlenbacher Premium Pils","popularity":59.0,"n_beers":19.0,"avg_abv":5.0631578947,"max_abv":7.9},{"brewery":"G\u00fcnther Br\u00e4u","city":"Burgkunstadt","lat":50.14093,"long":11.25205,"best_beer":"G\u00fcnther Br\u00e4u Bockbier","best_beer_score":3.5155555556,"most_popular_beer":"G\u00fcnther Br\u00e4u Bockbier","popularity":7.0,"n_beers":7.0,"avg_abv":5.3,"max_abv":6.8},{"brewery":"Brauerei Haag","city":"Oberdachstetten","lat":49.41667,"long":10.43333,"best_beer":"Haag Oberdachstetter Hefeweizen","best_beer_score":3.1125,"most_popular_beer":"Haag Oberdachstetter Hefeweizen","popularity":2.0,"n_beers":1.0,"avg_abv":5.6,"max_abv":5.6},{"brewery":"Brauerei Andreas Schneider","city":"Weissenburg","lat":49.03095,"long":10.97221,"best_beer":"Biericiana IPA","best_beer_score":2.6666666667,"most_popular_beer":"Biericiana IPA","popularity":1.0,"n_beers":11.0,"avg_abv":5.2181818182,"max_abv":6.5},{"brewery":"Ankerbr\u00e4u N\u00f6rdlingen","city":"N\u00f6rdlingen","lat":48.85122,"long":10.48868,"best_beer":"Rieser Hefe-Weizen","best_beer_score":3.5591666667,"most_popular_beer":"Grandl","popularity":49.0,"n_beers":16.0,"avg_abv":5.025,"max_abv":5.8},{"brewery":"Bolten Brauerei","city":"Korschenbroich","lat":51.19139,"long":6.51352,"best_beer":"Boltens Ur-Alt","best_beer_score":3.6623809524,"most_popular_beer":"Boltens Ur-Alt","popularity":19.0,"n_beers":6.0,"avg_abv":4.9166666667,"max_abv":5.4},{"brewery":"Ahornberger Landbrauerei","city":"Konradsreuth","lat":50.26667,"long":11.85,"best_beer":"Ahornberger Dunkel","best_beer_score":3.3722222222,"most_popular_beer":"Feines Ahonberger Landbier","popularity":10.0,"n_beers":3.0,"avg_abv":5.0666666667,"max_abv":5.3},{"brewery":"Freiherr Von Poschinger Braysche Schlossbrauerei Irlbach GmbH","city":"Irlbach","lat":48.84128,"long":12.75135,"best_beer":"Irlbacher Premium Hefeweizen Hell","best_beer_score":3.36,"most_popular_beer":"Irlbacher Premium Hefeweizen Hell","popularity":4.0,"n_beers":10.0,"avg_abv":5.71,"max_abv":6.6},{"brewery":"Leipziger Brauhaus zu Reudnitz GmbH","city":"Leipzig","lat":51.33962,"long":12.37129,"best_beer":"Sternburg Schwarzbier","best_beer_score":2.93,"most_popular_beer":"Sternburg Export","popularity":13.0,"n_beers":8.0,"avg_abv":4.5125,"max_abv":6.9},{"brewery":"Landauer Brauhof","city":"Landau (Pfalz)","lat":49.1982825,"long":8.1123441,"best_beer":"Helles","best_beer_score":3.0266666667,"most_popular_beer":"Weizen","popularity":1.0,"n_beers":3.0,"avg_abv":5.2,"max_abv":5.3},{"brewery":"Brauerei Kaiser","city":"Burgebrach","lat":49.82832,"long":10.74338,"best_beer":"Kaiser Pils","best_beer_score":3.01,"most_popular_beer":"Kaiser Pils","popularity":1.0,"n_beers":6.0,"avg_abv":5.45,"max_abv":7.5},{"brewery":"Brauerei Flessa","city":"Berlin","lat":52.52437,"long":13.41053,"best_beer":"Flessa ExtrAle","best_beer_score":2.8966666667,"most_popular_beer":"Flessa ExtrAle","popularity":1.0,"n_beers":2.0,"avg_abv":5.0,"max_abv":5.0},{"brewery":"B\u00fcrgerliches Brauhaus Saalfeld GmbH","city":"Saalfeld","lat":50.64826,"long":11.36536,"best_beer":"Doppelbock","best_beer_score":3.474,"most_popular_beer":"Doppelbock","popularity":3.0,"n_beers":9.0,"avg_abv":5.5333333333,"max_abv":7.5},{"brewery":"Microbrauerei Barkowsky - Marcus Br\u00e4u","city":"Berlin","lat":52.52437,"long":13.41053,"best_beer":"Marcus Brau Rotbier","best_beer_score":2.79,"most_popular_beer":"Marcus Brau Rotbier","popularity":1.0,"n_beers":1.0,"avg_abv":5.3,"max_abv":5.3},{"brewery":"Eschweger Klosterbrauerei","city":"Eschwege","lat":51.18386,"long":10.05329,"best_beer":"Jacobinus Hefe Weizen","best_beer_score":3.5390909091,"most_popular_beer":"Jacobinus Hefe Weizen","popularity":9.0,"n_beers":8.0,"avg_abv":5.15,"max_abv":5.7},{"brewery":"Rosenbrauerei P\u00f6\u00dfneck GmbH","city":"P\u00f6\u00dfneck","lat":50.69358,"long":11.59229,"best_beer":"Rosen Pils","best_beer_score":2.662,"most_popular_beer":"Rosen Pils","popularity":3.0,"n_beers":7.0,"avg_abv":4.9714285714,"max_abv":6.5},{"brewery":"Brauerei Bischofshof","city":"Regensburg","lat":49.01513,"long":12.10161,"best_beer":"Pralat Pilsener","best_beer_score":3.68375,"most_popular_beer":"Original 1649 Jubil\u00e4umsbier","popularity":21.0,"n_beers":17.0,"avg_abv":5.0941176471,"max_abv":8.0},{"brewery":"Freiherrn Getr\u00e4nkevertrieb GmbH","city":"Deggendorf","lat":48.84085,"long":12.96068,"best_beer":"Freiherrn Premium Hefeweizen","best_beer_score":2.7866666667,"most_popular_beer":"Mertinger Brau Hefeweizen","popularity":1.0,"n_beers":5.0,"avg_abv":5.12,"max_abv":5.2},{"brewery":"Neumarkter Lammsbr\u00e4u","city":"Neumarkt","lat":48.36051,"long":12.50723,"best_beer":"Neumarkter Lammsbr\u00e4u (Organic) Pilsner","best_beer_score":3.9066896552,"most_popular_beer":"Neumarkter Lammsbr\u00e4u (Organic) Dunkel","popularity":145.0,"n_beers":24.0,"avg_abv":4.3954166667,"max_abv":8.0},{"brewery":"Brauerei Penning Zei\u00dfler","city":"Pretzfeld-Hetzelsdorf","lat":49.7272216,"long":11.2033725,"best_beer":"Hetzelsdorfer Pilsner","best_beer_score":3.0833333333,"most_popular_beer":"Hetzelsdorfer Vollbier","popularity":4.0,"n_beers":4.0,"avg_abv":5.475,"max_abv":6.5},{"brewery":"Thurn Und Taxis Regensburg Gmbh F\u00fcrstliche Brauerei","city":"Regensburg","lat":49.01513,"long":12.10161,"best_beer":"Thurn Und Taxis Roggen","best_beer_score":3.7671052632,"most_popular_beer":"Thurn Und Taxis Roggen","popularity":36.0,"n_beers":12.0,"avg_abv":5.0916666667,"max_abv":6.0},{"brewery":"Br\u00e4u im Moos","city":"Tusling","lat":47.8113117,"long":11.1330907,"best_beer":"Br\u00e4u Im Moos Dunkel","best_beer_score":2.8066666667,"most_popular_beer":"Br\u00e4u Im Moos Dunkel","popularity":1.0,"n_beers":1.0,"avg_abv":5.2,"max_abv":5.2},{"brewery":"Bayreuther Bierbrauerei","city":"Bayreuth","lat":49.94782,"long":11.57893,"best_beer":"Original Landbier Zwick'l","best_beer_score":3.8994054054,"most_popular_beer":"Original Landbier Zwick'l","popularity":183.0,"n_beers":13.0,"avg_abv":5.2846153846,"max_abv":6.8},{"brewery":"Brauerei Reichold","city":"Hochstahl","lat":49.8835178,"long":11.2682949,"best_beer":"Hochstahl Lager","best_beer_score":3.332,"most_popular_beer":"Hochstahl Lager","popularity":3.0,"n_beers":2.0,"avg_abv":5.05,"max_abv":5.2},{"brewery":"Kronprinz Bamberg","city":"Bamberg","lat":49.89873,"long":10.90067,"best_beer":null,"best_beer_score":null,"most_popular_beer":null,"popularity":null,"n_beers":14.0,"avg_abv":5.6,"max_abv":8.0},{"brewery":"Private Landbrauerei Scheuerer","city":"Moosbach b. Vohenstrauss","lat":49.44287,"long":11.86267,"best_beer":"Moosbacher Weissbier","best_beer_score":3.5959803922,"most_popular_beer":"Moosbacher Kellerbier","popularity":163.0,"n_beers":7.0,"avg_abv":5.1571428571,"max_abv":5.5},{"brewery":"Fl\u00f6tzinger Br\u00e4u\/Privatbrauerei Franz Steegm\u00fcller","city":"Rosenheim","lat":47.85637,"long":12.12247,"best_beer":"Fl\u00f6tzinger Br\u00e4u 1543 Hefe Weisse","best_beer_score":3.81,"most_popular_beer":"Fl\u00f6tzinger Br\u00e4u 1543 Hefe Weisse","popularity":15.0,"n_beers":10.0,"avg_abv":5.72,"max_abv":7.5},{"brewery":"Fischer\u00b4s Stiftungsbr\u00e4u GmbH","city":"Erding","lat":48.30603,"long":11.90686,"best_beer":"Fischer's Helles","best_beer_score":3.5406666667,"most_popular_beer":"Fischer's Helles","popularity":13.0,"n_beers":3.0,"avg_abv":5.1333333333,"max_abv":5.2},{"brewery":"F\u00fcrst Wallerstein Brauhaus","city":"Wallerstein","lat":48.88741,"long":10.47591,"best_beer":"Bavaringer Hefeweisen","best_beer_score":3.8293333333,"most_popular_beer":"Bavaringer Hefeweisen","popularity":58.0,"n_beers":13.0,"avg_abv":5.5,"max_abv":7.5},{"brewery":"Kitzmann Br\u00e4u","city":"Erlangen","lat":49.59099,"long":11.00783,"best_beer":"Kitzmann Urbock","best_beer_score":3.8016666667,"most_popular_beer":"Kitzmann Edelpils","popularity":7.0,"n_beers":16.0,"avg_abv":4.8625,"max_abv":7.1},{"brewery":"Weissbierbrauerei Andorfer","city":"Passau","lat":48.5665,"long":13.43122,"best_beer":"Andorfer Weizenbock","best_beer_score":3.8257142857,"most_popular_beer":"Andorfer Weizenbock","popularity":5.0,"n_beers":4.0,"avg_abv":6.75,"max_abv":7.7},{"brewery":"Brauhaus Binkert GmbH & Co. KG","city":"Breiteng\u00fc\u00dfbach","lat":49.97209,"long":10.88591,"best_beer":"Main Seidla Porter","best_beer_score":3.264,"most_popular_beer":"Main Seidla Porter","popularity":3.0,"n_beers":14.0,"avg_abv":5.5214285714,"max_abv":7.0},{"brewery":"Familienbrauerei Bauh\u00f6fer GmbH & Co. KG","city":"Renchen","lat":48.5885,"long":8.01321,"best_beer":"Ulmer Keller N. 5","best_beer_score":3.42,"most_popular_beer":"Ulmer Maibock","popularity":8.0,"n_beers":9.0,"avg_abv":5.7222222222,"max_abv":7.5},{"brewery":"Staffelberg-Br\u00e4u","city":"Bad Staffelstein","lat":50.10199,"long":11.00128,"best_beer":"Loffelder Dunkel","best_beer_score":3.4,"most_popular_beer":"M\u00e4rzen","popularity":3.0,"n_beers":16.0,"avg_abv":5.725,"max_abv":11.0},{"brewery":"Privatbrauerei M.C. Wieninger","city":"Teisendorf","lat":47.84921,"long":12.81919,"best_beer":"Impulsator","best_beer_score":3.581,"most_popular_beer":"Wieninger Helles Lagerbier Premium","popularity":15.0,"n_beers":16.0,"avg_abv":5.3625,"max_abv":7.5},{"brewery":"Brauerei Bruckm\u00fcller","city":"Amberg","lat":49.44287,"long":11.86267,"best_beer":"Bruckmueller Hell","best_beer_score":3.8533333333,"most_popular_beer":"Bruckmueller Hell","popularity":4.0,"n_beers":8.0,"avg_abv":5.35,"max_abv":7.0},{"brewery":"Privatbrauerei Moritz Fiege Bochum","city":"Bochum","lat":51.48165,"long":7.21648,"best_beer":"Moritz Fiege Schwarzbier","best_beer_score":3.5683333333,"most_popular_beer":"Moritz Fiege Bernstein","popularity":8.0,"n_beers":6.0,"avg_abv":4.9333333333,"max_abv":7.8},{"brewery":"Brauerei Ganter GmbH & Co. KG","city":"Freiburg","lat":47.9959,"long":7.85222,"best_beer":"Ganter Wodan","best_beer_score":3.93,"most_popular_beer":"Freiburger Pilsner","popularity":11.0,"n_beers":13.0,"avg_abv":5.6846153846,"max_abv":8.0},{"brewery":"B\u00fcrgerbr\u00e4u Hersbruck Deinlein & Co. KG","city":"Hersbruck","lat":49.51083,"long":11.43151,"best_beer":"Hersbrucker Bock","best_beer_score":3.03,"most_popular_beer":"Hersbrucker Bock","popularity":3.0,"n_beers":4.0,"avg_abv":5.175,"max_abv":6.2},{"brewery":"LaBieratorium","city":"Cottbus","lat":51.75769,"long":14.32888,"best_beer":"F60 Paranoid IPA","best_beer_score":3.4883333333,"most_popular_beer":"F60 Paranoid IPA","popularity":4.0,"n_beers":13.0,"avg_abv":5.3076923077,"max_abv":7.2},{"brewery":"Klosterbrauerei Weltenburg","city":"Kelheim","lat":48.91725,"long":11.88618,"best_beer":"Weltenburger Kloster Asam-Bock","best_beer_score":4.0829528986,"most_popular_beer":"Weltenburger Kloster Asam-Bock","popularity":550.0,"n_beers":13.0,"avg_abv":5.1153846154,"max_abv":6.9},{"brewery":"Kraft Br\u00e4u - Blesius Garten","city":"Trier","lat":49.75565,"long":6.63935,"best_beer":"Kraft Brau Weizen","best_beer_score":3.286,"most_popular_beer":"Kraft Brau Weizen","popularity":3.0,"n_beers":24.0,"avg_abv":6.2375,"max_abv":9.2},{"brewery":"Weissbierbrauerei Kuchlbauer","city":"Abensberg","lat":48.81684,"long":11.8498,"best_beer":"Kuchlbauer Weisse","best_beer_score":3.755483871,"most_popular_beer":"Kuchlbauer Weisse","popularity":29.0,"n_beers":7.0,"avg_abv":4.5714285714,"max_abv":7.2},{"brewery":"R\u00fcgener Insel Brauerei GmbH","city":"Rambin","lat":54.35566,"long":13.20445,"best_beer":"Baltic Tripel","best_beer_score":3.4052631579,"most_popular_beer":"Baltic Dubbel","popularity":18.0,"n_beers":20.0,"avg_abv":6.16,"max_abv":9.5},{"brewery":"Schiller Br\u00e4u","city":"M\u00fcnchen","lat":50.82114,"long":11.93226,"best_beer":null,"best_beer_score":null,"most_popular_beer":null,"popularity":null,"n_beers":7.0,"avg_abv":5.4714285714,"max_abv":8.6},{"brewery":"Duckstein GmbH","city":"Hamburg","lat":53.55073,"long":9.99302,"best_beer":"Duckstein Rotblondes Original","best_beer_score":3.4889010989,"most_popular_beer":"Duckstein Rotblondes Original","popularity":89.0,"n_beers":10.0,"avg_abv":5.51,"max_abv":7.1},{"brewery":"Lindenbr\u00e4u","city":"Gr\u00e4fenberg","lat":49.64426,"long":11.24971,"best_beer":"Vollbier","best_beer_score":3.6144444444,"most_popular_beer":"Vollbier","popularity":7.0,"n_beers":6.0,"avg_abv":4.8833333333,"max_abv":6.5},{"brewery":"H\u00e4rtsfelder Familienbrauerei Hald e.K.","city":"Dunstelkingen","lat":48.7181721,"long":10.4129875,"best_beer":"H\u00e4rtsfelder Premium Weisse","best_beer_score":3.15,"most_popular_beer":"Kung Markatta Ljus Lager","popularity":7.0,"n_beers":13.0,"avg_abv":4.6538461538,"max_abv":5.3},{"brewery":"Bier Hannes Brauerei Zur Mainkur GmbH","city":"Frankfurt am Main","lat":50.11552,"long":8.68417,"best_beer":"Bier-Hannes Krolle-Bock","best_beer_score":2.8833333333,"most_popular_beer":"Bier-Hannes Krolle-Bock","popularity":1.0,"n_beers":9.0,"avg_abv":5.9666666667,"max_abv":7.3},{"brewery":"Brauhaus Nittenau","city":"Nittenau","lat":49.19425,"long":12.26741,"best_beer":"Mein Boomerang","best_beer_score":3.2725,"most_popular_beer":"Mein Boomerang","popularity":2.0,"n_beers":7.0,"avg_abv":6.2714285714,"max_abv":7.5},{"brewery":"Ball- und Brauhaus Watzke","city":"Dresden","lat":51.05089,"long":13.73832,"best_beer":"Watzkes Doppelbock","best_beer_score":3.3,"most_popular_beer":"Altpieschner Spezial","popularity":2.0,"n_beers":11.0,"avg_abv":5.5772727273,"max_abv":7.4},{"brewery":"Privatbrauerei Jacob Stauder GmbH & Co. KG","city":"Essen","lat":52.72258,"long":7.9371,"best_beer":"Stauder Premium Pils","best_beer_score":3.5927272727,"most_popular_beer":"Stauder Premium Pils","popularity":9.0,"n_beers":5.0,"avg_abv":5.74,"max_abv":7.5},{"brewery":"M\u00fcllerbr\u00e4u Pfaffenhofen","city":"Pfaffenhofen","lat":49.06444,"long":8.97639,"best_beer":"Wintersud","best_beer_score":2.9233333333,"most_popular_beer":"Black Barley","popularity":3.0,"n_beers":6.0,"avg_abv":5.6166666667,"max_abv":7.0},{"brewery":"RavenKraft GmbH","city":"N\u00fcrnberg","lat":49.45421,"long":11.07752,"best_beer":"Wanderer Black IPA","best_beer_score":3.045,"most_popular_beer":"Wanderer Black IPA","popularity":2.0,"n_beers":3.0,"avg_abv":6.2666666667,"max_abv":8.0},{"brewery":"Privatbrauerei Giessen","city":"Gie\u00dfen","lat":50.58727,"long":8.67554,"best_beer":"Giessener Pilsener","best_beer_score":2.87,"most_popular_beer":"Giessener Pilsener","popularity":2.0,"n_beers":4.0,"avg_abv":5.0,"max_abv":5.2},{"brewery":"Brauerei zum Stadtpark","city":"Hockenheim","lat":49.32334,"long":8.55194,"best_beer":"Stadtparkbr\u00e4u Hell","best_beer_score":2.9566666667,"most_popular_beer":"Stadtparkbr\u00e4u Hell","popularity":1.0,"n_beers":4.0,"avg_abv":5.025,"max_abv":7.0},{"brewery":"Gottsmannsgr\u00fcner Brauerei GmbH & Co. KG","city":"Berg","lat":50.55523,"long":6.94886,"best_beer":"Premium Pils","best_beer_score":3.05,"most_popular_beer":"Premium Pils","popularity":1.0,"n_beers":2.0,"avg_abv":5.1,"max_abv":5.4},{"brewery":"Holzkirchner Oberbr\u00e4u","city":"Holzkirchen","lat":49.78139,"long":9.68028,"best_beer":"Holzkirchner Festbier","best_beer_score":3.1333333333,"most_popular_beer":"Holzkirchner Festbier","popularity":1.0,"n_beers":4.0,"avg_abv":5.375,"max_abv":5.8},{"brewery":"Brauerei-Gasthof Drummer","city":"Leutenbach","lat":49.7095,"long":11.17224,"best_beer":"Drummer Dunkles Vollbier","best_beer_score":2.84,"most_popular_beer":"Drummer Dunkles Vollbier","popularity":2.0,"n_beers":2.0,"avg_abv":4.8,"max_abv":4.8},{"brewery":"Leipziger Familienbrauerei Ernst Bauer KG","city":"Leipzig","lat":51.33962,"long":12.37129,"best_beer":null,"best_beer_score":null,"most_popular_beer":null,"popularity":null,"n_beers":3.0,"avg_abv":5.3333333333,"max_abv":6.1},{"brewery":"Br\u00e4ust\u00fcberl Der Kleinbrauerei Rain","city":"Rain Am Lech","lat":48.6959655,"long":10.9277486,"best_beer":null,"best_beer_score":null,"most_popular_beer":null,"popularity":null,"n_beers":5.0,"avg_abv":5.52,"max_abv":7.8},{"brewery":"K\u00f6ssel Br\u00e4u","city":"Eisenberg","lat":50.9686,"long":11.90207,"best_beer":"Mariahilfer Vollbier","best_beer_score":3.214,"most_popular_beer":"Mariahilfer Vollbier","popularity":3.0,"n_beers":4.0,"avg_abv":6.125,"max_abv":10.6},{"brewery":"Superfreunde","city":"Berlin","lat":52.52437,"long":13.41053,"best_beer":"Till Death","best_beer_score":2.95,"most_popular_beer":"Super Ale","popularity":1.0,"n_beers":2.0,"avg_abv":5.7,"max_abv":5.9},{"brewery":"Idar-Obersteiner Bierspezialt\u00e4ten - Konfektionierungs GmbH","city":"Idar-Oberstein","lat":49.71443,"long":7.30776,"best_beer":"Sudmeister Spie\u00dfbraten","best_beer_score":2.8333333333,"most_popular_beer":"Sudmeister Spie\u00dfbraten","popularity":1.0,"n_beers":2.0,"avg_abv":5.2,"max_abv":5.5},{"brewery":"Hopfenh\u00e4cker","city":"M\u00fcnchen","lat":50.82114,"long":11.93226,"best_beer":"Block","best_beer_score":3.1266666667,"most_popular_beer":"IP Brothers","popularity":1.0,"n_beers":9.0,"avg_abv":5.7888888889,"max_abv":7.5},{"brewery":"Privat Brauerei Z\u00f6tler","city":"Rettenberg","lat":47.57428,"long":10.29173,"best_beer":"Z\u00f6tler Korbinian Dunkel","best_beer_score":3.8044117647,"most_popular_beer":"Z\u00f6tler Korbinian Dunkel","popularity":32.0,"n_beers":16.0,"avg_abv":5.15625,"max_abv":7.7},{"brewery":"Watzdorfer Traditions- und Spezialit\u00e4tenbrauerei GmbH","city":"Bad Blankenburg","lat":50.68189,"long":11.27369,"best_beer":"Watzdorfer Schwarzbier","best_beer_score":3.1866666667,"most_popular_beer":"Watzdorfer Schwarzbier","popularity":4.0,"n_beers":4.0,"avg_abv":4.975,"max_abv":5.1},{"brewery":"Brauerei Gebr\u00fcder R\u00f6hrl","city":"Straubing","lat":48.88126,"long":12.57385,"best_beer":"Straubinger Weisse","best_beer_score":3.388,"most_popular_beer":"Straubinger Weisse","popularity":3.0,"n_beers":5.0,"avg_abv":5.32,"max_abv":5.6},{"brewery":"Belgo (Brauerei Nemo Namenlos)","city":"Baden-W\u00fcrttemberg","lat":49.15861,"long":8.58083,"best_beer":"DNRG MGMT Club IPA","best_beer_score":2.83,"most_popular_beer":"Emdbrau Premium Lager","popularity":5.0,"n_beers":10.0,"avg_abv":4.64,"max_abv":6.0},{"brewery":"K\u00e4rrners Hausbrauerei","city":"Bad Orb","lat":50.22788,"long":9.34782,"best_beer":"Weisse","best_beer_score":2.6466666667,"most_popular_beer":"Schwarzbier","popularity":1.0,"n_beers":3.0,"avg_abv":4.8333333333,"max_abv":4.9},{"brewery":"Camba Bavaria","city":"Truchtlaching","lat":47.9584444,"long":12.5004194,"best_beer":"Black Shark","best_beer_score":3.958,"most_popular_beer":"Black Shark","popularity":28.0,"n_beers":46.0,"avg_abv":6.3847826087,"max_abv":11.8},{"brewery":"Ruppaner Br\u00e4u Gebr. Ruppaner","city":"Konstanz","lat":47.66033,"long":9.17582,"best_beer":"Ruppaner Hefe Weizen Dunkel","best_beer_score":3.0833333333,"most_popular_beer":"Ruppaner Hefe Weizen Dunkel","popularity":1.0,"n_beers":4.0,"avg_abv":5.2,"max_abv":5.7},{"brewery":"Brauhaus am Kreuzberg - Friedels Keller","city":"Hallerndorf","lat":49.75909,"long":10.97946,"best_beer":"Friedels Schlotfegerla","best_beer_score":3.368,"most_popular_beer":"Friedels Schlotfegerla","popularity":3.0,"n_beers":7.0,"avg_abv":7.4857142857,"max_abv":12.5},{"brewery":"Brauerei Rothmoos Anton Kirnberger","city":"Halfing-Rothmoos","lat":47.9542793,"long":12.235777,"best_beer":"Rothmooser Hefe-Wei\u00dfbier","best_beer_score":2.778,"most_popular_beer":"Rothmooser Hefe-Wei\u00dfbier","popularity":3.0,"n_beers":1.0,"avg_abv":5.2,"max_abv":5.2},{"brewery":"Brauerei Haberstumpf","city":"Trebgast","lat":50.06667,"long":11.55,"best_beer":null,"best_beer_score":null,"most_popular_beer":null,"popularity":null,"n_beers":8.0,"avg_abv":5.625,"max_abv":7.8},{"brewery":"Arcobr\u00e4u Gr\u00e4fliches Brauhaus","city":"Moos","lat":48.75149,"long":12.96112,"best_beer":"Arcobr\u00e4u Coronator","best_beer_score":3.8941176471,"most_popular_beer":"Arcobr\u00e4u Zwickl Lager","popularity":108.0,"n_beers":18.0,"avg_abv":4.8472222222,"max_abv":7.2},{"brewery":"Schlossbr\u00e4ust\u00fcberl Odelzhausen","city":"Odelzhausen","lat":48.30889,"long":11.19889,"best_beer":"Traditions Hell","best_beer_score":2.9633333333,"most_popular_beer":"Traditions Hell","popularity":1.0,"n_beers":1.0,"avg_abv":4.9,"max_abv":4.9},{"brewery":"Brauhaus Schinner","city":"Bayreuth","lat":49.94782,"long":11.57893,"best_beer":"Schinner Braunbier","best_beer_score":3.525,"most_popular_beer":"Schinner Edel Weisse","popularity":10.0,"n_beers":9.0,"avg_abv":5.3111111111,"max_abv":7.2},{"brewery":"Ottenbr\u00e4u Abensberg","city":"Abensberg","lat":48.81684,"long":11.8498,"best_beer":"Ottenbr\u00e4u Helles Lager","best_beer_score":3.0,"most_popular_beer":"Ottenbr\u00e4u Helles Lager","popularity":1.0,"n_beers":1.0,"avg_abv":5.0,"max_abv":5.0},{"brewery":"Brauerei Hebendanz","city":"Forchheim","lat":49.71754,"long":11.05877,"best_beer":"Hebendanz Annafest Bier","best_beer_score":3.595,"most_popular_beer":"Hebendanz Export Hell","popularity":6.0,"n_beers":9.0,"avg_abv":5.0111111111,"max_abv":6.1},{"brewery":"Augusta Br\u00e4u","city":"Augsburg","lat":48.37154,"long":10.89851,"best_beer":"Augusta Br\u00e4u Hunnen-Bock","best_beer_score":2.64,"most_popular_beer":"Augusta Br\u00e4u Schwarzbier","popularity":1.0,"n_beers":3.0,"avg_abv":6.0666666667,"max_abv":8.0},{"brewery":"Brauerei F\u00e4ssla","city":"Bamberg","lat":49.89873,"long":10.90067,"best_beer":"F\u00e4ssla Zwergla","best_beer_score":3.6548571429,"most_popular_beer":"F\u00e4ssla Zwergla","popularity":33.0,"n_beers":6.0,"avg_abv":5.8333333333,"max_abv":8.5},{"brewery":"Auxburg City Brewery GmbH","city":"Augsburg","lat":48.37154,"long":10.89851,"best_beer":"Fucking Rock & Roll Pale Ale","best_beer_score":2.6666666667,"most_popular_beer":"Fucking Rock & Roll Pale Ale","popularity":1.0,"n_beers":3.0,"avg_abv":5.1,"max_abv":5.3},{"brewery":"Brauerei Gilde","city":"Hannover","lat":52.37052,"long":9.73322,"best_beer":"Gilde Pilsener","best_beer_score":3.5712,"most_popular_beer":"Gilde Pilsener","popularity":23.0,"n_beers":8.0,"avg_abv":5.0375,"max_abv":6.2},{"brewery":"Wagner Br\u00e4u Kemmern e. K.","city":"Kemmern","lat":49.95486,"long":10.87784,"best_beer":"Wagner Br\u00e4u Bock","best_beer_score":3.02,"most_popular_beer":"Ungespundetes Lagerbier","popularity":2.0,"n_beers":3.0,"avg_abv":5.7333333333,"max_abv":6.6},{"brewery":"Berliner Berg Brauerei","city":"Berlin","lat":52.52437,"long":13.41053,"best_beer":"Berliner Berg Irish Stout","best_beer_score":3.5711111111,"most_popular_beer":"Berliner Berg Irish Stout","popularity":7.0,"n_beers":2.0,"avg_abv":4.45,"max_abv":4.5},{"brewery":"Braumanufaktur Forsthaus Templin","city":"Potsdam","lat":52.39886,"long":13.06566,"best_beer":"Potsdamer Stange","best_beer_score":3.6869230769,"most_popular_beer":"Potsdamer Stange","popularity":11.0,"n_beers":7.0,"avg_abv":4.8714285714,"max_abv":6.5},{"brewery":"Brauerei Georg Michael GmbH","city":"Weissenstadt","lat":50.10217,"long":11.88849,"best_beer":"Luchs Bier Dinkel","best_beer_score":2.9066666667,"most_popular_beer":"Luchs Bier Dinkel","popularity":1.0,"n_beers":1.0,"avg_abv":5.6,"max_abv":5.6},{"brewery":"Adam Br\u00e4u","city":"Bodenmais","lat":49.06667,"long":13.1,"best_beer":null,"best_beer_score":null,"most_popular_beer":null,"popularity":null,"n_beers":6.0,"avg_abv":5.5333333333,"max_abv":6.8},{"brewery":"Urban Chestnut Brewing Company - Hallertauer Brauerei","city":"Wolnzach","lat":48.6038,"long":11.62568,"best_beer":"Wolamot Doppelbock","best_beer_score":2.8125,"most_popular_beer":"Hallertauer Zuagroast","popularity":3.0,"n_beers":4.0,"avg_abv":5.85,"max_abv":7.5},{"brewery":"B\u00f6blinger Wichtel Hausbrauerei","city":"B\u00f6blingen","lat":48.68212,"long":9.01171,"best_beer":"Aktionsbier \"Wichtel Premium\"","best_beer_score":3.0,"most_popular_beer":"Wichtel Hefeweizen","popularity":1.0,"n_beers":3.0,"avg_abv":5.2666666667,"max_abv":5.4},{"brewery":"Gruthaus-Brauerei","city":"M\u00fcnster","lat":51.96236,"long":7.62571,"best_beer":"Bockwurst Bock","best_beer_score":3.21,"most_popular_beer":"Pumpernickel Porter","popularity":3.0,"n_beers":5.0,"avg_abv":6.22,"max_abv":8.0},{"brewery":"Warburger Brauerei GmbH","city":"Warburg","lat":51.49011,"long":9.14641,"best_beer":"Urtyp","best_beer_score":2.8533333333,"most_popular_beer":"Landbier","popularity":1.0,"n_beers":2.0,"avg_abv":5.0,"max_abv":5.0},{"brewery":"Privatbrauerei M. Ketterer GmbH & Co.","city":"Hornberg","lat":48.21068,"long":8.23275,"best_beer":"Ketterer Zwickel Pils","best_beer_score":3.1566666667,"most_popular_beer":"Ketterer Zwickel Pils","popularity":4.0,"n_beers":6.0,"avg_abv":6.3833333333,"max_abv":9.6},{"brewery":"Oechsner Ankerbr\u00e4u KG","city":"Ochsenfurt","lat":49.66429,"long":10.06227,"best_beer":"Oechsner Schwarz Bier","best_beer_score":3.252,"most_popular_beer":"Oechsner Schwarz Bier","popularity":3.0,"n_beers":7.0,"avg_abv":4.9857142857,"max_abv":6.5},{"brewery":"Brauerei H. Schmiedeknecht","city":"Herschdorf","lat":50.71168,"long":11.53736,"best_beer":"Herschdorfer Heller Bock","best_beer_score":2.9233333333,"most_popular_beer":"Herschdorfer Pils","popularity":1.0,"n_beers":3.0,"avg_abv":5.9,"max_abv":7.5},{"brewery":"Alpirsbacher Klosterbr\u00e4u","city":"Alpirsbach","lat":48.34507,"long":8.40197,"best_beer":"Alpirsbacher Klosterbr\u00e4u Pils","best_beer_score":3.835,"most_popular_beer":"Alpirsbacher Klosterbr\u00e4u Pils","popularity":38.0,"n_beers":22.0,"avg_abv":4.8636363636,"max_abv":7.7},{"brewery":"Brauerei Max Wolf GmbH","city":"Karlsruhe","lat":49.00937,"long":8.40444,"best_beer":"Wolf Hefe Dunkel","best_beer_score":3.0,"most_popular_beer":"Wolf Hefe Dunkel","popularity":1.0,"n_beers":2.0,"avg_abv":4.95,"max_abv":5.0},{"brewery":"Brauereigastst\u00e4tte Reindler GmbH & Co. KG","city":"Jochsberg bei Leutershausen","lat":49.29869,"long":10.41189,"best_beer":"Reindler Gold (Export)","best_beer_score":2.9133333333,"most_popular_beer":"Reindler Gold (Export)","popularity":1.0,"n_beers":1.0,"avg_abv":5.1,"max_abv":5.1},{"brewery":"Brauerei Maisach - Br\u00e4ust\u00fcberl Maisach","city":"Maisach (Oberbayern)","lat":48.2154148,"long":11.2178473,"best_beer":"Maisacher Pils","best_beer_score":3.0666666667,"most_popular_beer":"R\u00e4uber Knei\u00dfl","popularity":1.0,"n_beers":3.0,"avg_abv":5.1,"max_abv":5.5},{"brewery":"Felsen Br\u00e4u W. Glossner KG","city":"Thalmannsfeld","lat":49.0682234,"long":11.1522918,"best_beer":"M\u00e4rzen","best_beer_score":3.09,"most_popular_beer":"Hefeweizen","popularity":3.0,"n_beers":5.0,"avg_abv":4.68,"max_abv":5.4},{"brewery":"Braustolz GmbH","city":"Chemnitz","lat":50.8357,"long":12.92922,"best_beer":"Black Art Black Premium Beer","best_beer_score":3.3193333333,"most_popular_beer":"Black Art Gold","popularity":15.0,"n_beers":5.0,"avg_abv":5.02,"max_abv":5.5},{"brewery":"Hop's Brewing GmbH","city":"Hoppst\u00e4dten-Weiersbach","lat":49.61667,"long":7.2,"best_beer":"Red Devil IPA","best_beer_score":2.9766666667,"most_popular_beer":"Kiwi Ale","popularity":1.0,"n_beers":4.0,"avg_abv":6.575,"max_abv":8.2},{"brewery":"Schussenrieder Erlebnisbrauerei","city":"Bad Schussenried","lat":48.00468,"long":9.65741,"best_beer":"Original No 1","best_beer_score":3.4478571429,"most_popular_beer":"Original No 1","popularity":12.0,"n_beers":8.0,"avg_abv":5.2875,"max_abv":6.8},{"brewery":"Brauerei H\u00f6nig","city":"Litzendorf","lat":49.91444,"long":11.01028,"best_beer":"Prosth\u00f6rnla Spezial","best_beer_score":3.1783333333,"most_popular_beer":"Prosth\u00f6rnla Spezial","popularity":4.0,"n_beers":2.0,"avg_abv":6.3,"max_abv":7.2},{"brewery":"Wuppertaler Brauhaus GmbH","city":"Wuppertal","lat":51.25627,"long":7.14816,"best_beer":"Winterbock Dunkel","best_beer_score":3.296,"most_popular_beer":"Winterbock Dunkel","popularity":3.0,"n_beers":8.0,"avg_abv":5.275,"max_abv":7.0},