[{"brewery":"Mikkeller ApS","city":"K\u00f8benhavn","lat":55.67594,"long":12.56553,"best_beer":"Beer Geek Vanilla Shake - Bourbon Barrel-Aged","best_beer_score":4.5781927711,"most_popular_beer":"Beer Geek Brunch Weasel","popularity":2925.0,"n_beers":885.0,"avg_abv":7.8043163842,"max_abv":26.1},{"brewery":"Bryggeriet Dj\u00e6vlebryg ApS","city":"K\u00f8benhavn","lat":55.67594,"long":12.56553,"best_beer":"Gudel\u00f8s","best_beer_score":4.1208227848,"most_popular_beer":"Gudel\u00f8s","popularity":156.0,"n_beers":13.0,"avg_abv":7.2615384615,"max_abv":10.5},{"brewery":"Beer Here","city":"K\u00f8benhavn","lat":55.67594,"long":12.56553,"best_beer":"M\u00f8rke - Pumpernickel Porter","best_beer_score":4.1237634409,"most_popular_beer":"M\u00f8rke - Pumpernickel Porter","popularity":184.0,"n_beers":52.0,"avg_abv":7.0673076923,"max_abv":16.0},{"brewery":"\u00d8lfabrikken","city":"Roskilde","lat":55.64152,"long":12.08035,"best_beer":"\u00d8lfabrikken Porter","best_beer_score":4.304048913,"most_popular_beer":"\u00d8lfabrikken Porter","popularity":366.0,"n_beers":40.0,"avg_abv":7.7875,"max_abv":13.3},{"brewery":"Bryggeriet Apollo","city":"K\u00f8benhavn","lat":55.67594,"long":12.56553,"best_beer":"Multi Grain","best_beer_score":2.74,"most_popular_beer":"Pilsener","popularity":3.0,"n_beers":4.0,"avg_abv":5.45,"max_abv":6.5},{"brewery":"Kolding Bryglaug","city":"Kolding","lat":55.4904,"long":9.47216,"best_beer":"KB Grand Cru 2010 - Kriek","best_beer_score":3.0666666667,"most_popular_beer":"Lakrids #1 (Piratos)","popularity":1.0,"n_beers":8.0,"avg_abv":6.3625,"max_abv":7.0},{"brewery":"WarPigs Brewpub","city":"K\u00f8benhavn","lat":55.67594,"long":12.56553,"best_beer":"Lazurite","best_beer_score":4.1500314465,"most_popular_beer":"Lazurite","popularity":316.0,"n_beers":129.0,"avg_abv":6.9137984496,"max_abv":13.0},{"brewery":"N\u00f8rrebro Bryghus","city":"Hedehusene","lat":55.64951,"long":12.19827,"best_beer":"Little Korkny Ale (Cognac Barrel)","best_beer_score":4.24125,"most_popular_beer":"North Bridge Extreme","popularity":88.0,"n_beers":59.0,"avg_abv":7.3449152542,"max_abv":13.0},{"brewery":"Bryggeriet Vestfyen","city":"Assens","lat":55.27023,"long":9.90081,"best_beer":"Vestfyen Willemoes Stout","best_beer_score":3.3388888889,"most_popular_beer":"Vestfyen Willemoes Porter","popularity":8.0,"n_beers":36.0,"avg_abv":5.7055555556,"max_abv":9.8},{"brewery":"F\u00e6rgekroen","city":"K\u00f8benhavn","lat":55.67594,"long":12.56553,"best_beer":"Amber Lager","best_beer_score":2.6666666667,"most_popular_beer":"Amber Lager","popularity":1.0,"n_beers":4.0,"avg_abv":5.275,"max_abv":5.6},{"brewery":"Midtfyns Bryghus","city":"Broby","lat":56.26608,"long":10.06299,"best_beer":"Midtfyns Imperial Stout","best_beer_score":3.9225263158,"most_popular_beer":"Midtfyns Imperial Stout","popularity":93.0,"n_beers":25.0,"avg_abv":8.376,"max_abv":13.1},{"brewery":"Amager Bryghus","city":"Kastrup","lat":55.6340135,"long":12.6291992,"best_beer":"Amager \/ Arizona Wilderness Arizona Beast","best_beer_score":4.2252173913,"most_popular_beer":"Hr. Frederiksen","popularity":301.0,"n_beers":195.0,"avg_abv":8.0682564103,"max_abv":14.0},{"brewery":"Ceres Brewery (Royal Unibrew)","city":"\u00c5rhus","lat":56.15674,"long":10.21076,"best_beer":"Ceres Royal Stout (Ceres Extra Strong Stout)","best_beer_score":3.6946808511,"most_popular_beer":"Ceres Strong Ale Export","popularity":75.0,"n_beers":26.0,"avg_abv":5.5730769231,"max_abv":9.1},{"brewery":"To \u00d8l","city":"Frederiksberg","lat":55.67938,"long":12.53463,"best_beer":"Sort M\u00e6lk","best_beer_score":4.2569,"most_popular_beer":"Goliat","popularity":369.0,"n_beers":290.0,"avg_abv":7.5468965517,"max_abv":17.0},{"brewery":"Royal Unibrew A\/S","city":"Faxe","lat":55.25561,"long":12.11926,"best_beer":"Faxe Fest Bock","best_beer_score":3.3655,"most_popular_beer":"Faxe Premium","popularity":191.0,"n_beers":36.0,"avg_abv":5.1597222222,"max_abv":10.0},{"brewery":"MAD Beer","city":"K\u00f8benhavn","lat":55.67594,"long":12.56553,"best_beer":"Sour (Sur)","best_beer_score":4.1255172414,"most_popular_beer":"Salt","popularity":28.0,"n_beers":9.0,"avg_abv":6.3777777778,"max_abv":10.0},{"brewery":"Carlsberg Danmark A\/S","city":"K\u00f8benhavn","lat":55.67594,"long":12.56553,"best_beer":"Carls Porter","best_beer_score":3.64,"most_popular_beer":"Carlsberg Beer","popularity":1667.0,"n_beers":88.0,"avg_abv":5.7590909091,"max_abv":10.6},{"brewery":"Hornbeer","city":"Kirke Hyllinge","lat":55.7067551,"long":11.8985429,"best_beer":"The Fundamental Blackhorn","best_beer_score":3.9596774194,"most_popular_beer":"The Fundamental Blackhorn","popularity":60.0,"n_beers":41.0,"avg_abv":7.4317073171,"max_abv":12.0},{"brewery":"S\u00f8gaards Bryghus","city":"Aalborg","lat":57.048,"long":9.9187,"best_beer":"Julebuk","best_beer_score":3.8327272727,"most_popular_beer":"Julebuk","popularity":20.0,"n_beers":27.0,"avg_abv":6.2703703704,"max_abv":11.7},{"brewery":"Stronzo Brewing Co.","city":"K\u00f8benhavn","lat":55.67594,"long":12.56553,"best_beer":"Stronzo \/ All In 100% Viking","best_beer_score":3.5566666667,"most_popular_beer":"Swagger Juze","popularity":8.0,"n_beers":30.0,"avg_abv":8.6233333333,"max_abv":18.5},{"brewery":"Harboes Bryggeri A\/S","city":"Sk\u00e6lsk\u00f8r","lat":55.25058,"long":11.29352,"best_beer":"Bjorne","best_beer_score":3.3333333333,"most_popular_beer":"Harboe Bj\u00f8rnebryg (Bear Beer)","popularity":48.0,"n_beers":58.0,"avg_abv":5.2568965517,"max_abv":12.0},{"brewery":"Ghost Brewing","city":"K\u00f8benhavn","lat":55.67594,"long":12.56553,"best_beer":"Midnight Oil","best_beer_score":3.7157142857,"most_popular_beer":"Black Magic Vanilla Sky","popularity":5.0,"n_beers":18.0,"avg_abv":8.6338888889,"max_abv":12.2},{"brewery":"Dry & Bitter Brewing Company","city":"G\u00f8rl\u00f8se","lat":55.92791,"long":12.30081,"best_beer":"Christian Bale Ale","best_beer_score":3.6375,"most_popular_beer":"Hobo Chic IIPA","popularity":13.0,"n_beers":36.0,"avg_abv":6.6277777778,"max_abv":13.0},{"brewery":"Gourmetbryggeriet","city":"Roskilde","lat":55.64152,"long":12.08035,"best_beer":"Grain Barrel Stout","best_beer_score":3.604,"most_popular_beer":"Blue Mountain Stout","popularity":4.0,"n_beers":20.0,"avg_abv":6.88,"max_abv":11.0},{"brewery":"Thisted Bryghus","city":"Thisted","lat":56.95523,"long":8.69491,"best_beer":"Limfjordsporter","best_beer_score":3.9476223776,"most_popular_beer":"Limfjordsporter","popularity":141.0,"n_beers":40.0,"avg_abv":6.51,"max_abv":9.0},{"brewery":"\u00d8lkollektivet","city":"G\u00f8rl\u00f8se","lat":55.92791,"long":12.30081,"best_beer":"Bad Seed - Lazarus Resurrection IPA","best_beer_score":3.265,"most_popular_beer":"Bad Seed - Lazarus Resurrection IPA","popularity":2.0,"n_beers":2.0,"avg_abv":6.85,"max_abv":7.7},{"brewery":"Tuborgs Bryggerier A\/S","city":"K\u00f8benhavn","lat":55.67594,"long":12.56553,"best_beer":"Hvid Tuborg (White)","best_beer_score":3.245,"most_popular_beer":"Tuborg Pilsner Beer (Green \/ Gr\u00f8n)","popularity":301.0,"n_beers":24.0,"avg_abv":5.2291666667,"max_abv":8.2},{"brewery":"Croocked Moon Brewing","city":"K\u00f8benhavn","lat":55.67594,"long":12.56553,"best_beer":"Summertime Groove","best_beer_score":3.28,"most_popular_beer":"Regular Joe","popularity":2.0,"n_beers":16.0,"avg_abv":6.025,"max_abv":9.0},{"brewery":"Bryggeri Skovlyst","city":"V\u00e6rl\u00f8se","lat":55.78251,"long":12.36856,"best_beer":"N\u00e6ldebryg Havre Stout","best_beer_score":3.605,"most_popular_beer":"India Pale Ale","popularity":11.0,"n_beers":13.0,"avg_abv":6.0538461538,"max_abv":12.0},{"brewery":"WinterCoat","city":"Sabro","lat":56.21333,"long":10.03441,"best_beer":"WinterCoat Double Hop","best_beer_score":3.7282222222,"most_popular_beer":"WinterCoat Double Hop","popularity":43.0,"n_beers":7.0,"avg_abv":6.7428571429,"max_abv":8.4},{"brewery":"Flying Couch Brewing","city":"K\u00f8benhavn","lat":55.67594,"long":12.56553,"best_beer":"Dude","best_beer_score":3.4388888889,"most_popular_beer":"Dude","popularity":7.0,"n_beers":10.0,"avg_abv":7.38,"max_abv":12.0},{"brewery":"Krut's Karport","city":"K\u00f8benhavn","lat":55.67594,"long":12.56553,"best_beer":null,"best_beer_score":null,"most_popular_beer":null,"popularity":null,"n_beers":2.0,"avg_abv":4.9,"max_abv":5.4},{"brewery":"BrewPub K\u00f8benhavn","city":"K\u00f8benhavn","lat":55.67594,"long":12.56553,"best_beer":"Atlantic IPA","best_beer_score":3.4166666667,"most_popular_beer":"Amarillo","popularity":4.0,"n_beers":29.0,"avg_abv":6.0068965517,"max_abv":9.4},{"brewery":"Kissmeyer Beer","city":"Charlottenlund","lat":55.75238,"long":12.5745,"best_beer":"Kissmeyer No. 9 Witter Saison Du Fleur","best_beer_score":3.6,"most_popular_beer":"Kissmeyer No. 7 Honey Porter","popularity":27.0,"n_beers":19.0,"avg_abv":6.9315789474,"max_abv":13.0},{"brewery":"Det Lille Bryggeri","city":"Ringsted","lat":55.4426,"long":11.79011,"best_beer":"Barley Wine 2010","best_beer_score":3.6183333333,"most_popular_beer":"Lakrids Porter","popularity":6.0,"n_beers":52.0,"avg_abv":8.7615384615,"max_abv":16.0},{"brewery":"Indslev Bryggeri","city":"Nr. \u00c5by","lat":55.4365285,"long":9.8262662,"best_beer":"Ugly Duck Imperial Vanilla Coffee Porter","best_beer_score":3.737826087,"most_popular_beer":"Ugly Duck Imperial Vanilla Coffee Porter","popularity":21.0,"n_beers":23.0,"avg_abv":8.147826087,"max_abv":11.0},{"brewery":"Sams\u00f8 Bryghus","city":"Sams\u00f8","lat":55.88354305,"long":10.6114317095,"best_beer":null,"best_beer_score":null,"most_popular_beer":null,"popularity":null,"n_beers":21.0,"avg_abv":5.8142857143,"max_abv":7.0},{"brewery":"Carlsberg Breweries A\/S","city":"K\u00f8benhavn","lat":55.67594,"long":12.56553,"best_beer":"Skol Super","best_beer_score":2.8366666667,"most_popular_beer":"Skol","popularity":8.0,"n_beers":4.0,"avg_abv":5.575,"max_abv":9.0},{"brewery":"Fan\u00f8 Bryghus","city":"Fan\u00f8","lat":55.40483125,"long":8.4250169394,"best_beer":"Fan\u00f8 \/ Hoppin' Frog Natasha Rocks Denmark","best_beer_score":3.8769642857,"most_popular_beer":"Fan\u00f8 \/ Hoppin' Frog Natasha Rocks Denmark","popularity":54.0,"n_beers":31.0,"avg_abv":7.4290322581,"max_abv":11.0},{"brewery":"Munkebo Mikrobryg","city":"Kerteminde","lat":55.44903,"long":10.65769,"best_beer":"Ragnar\u00f6k Porter","best_beer_score":3.372,"most_popular_beer":"Megingjord","popularity":3.0,"n_beers":23.0,"avg_abv":7.0826086957,"max_abv":11.0},{"brewery":"\u00d8rb\u00e6k Bryggeri","city":"\u00d8rb\u00e6k","lat":55.6986629,"long":11.9204241,"best_beer":"Pale Ale","best_beer_score":3.5075,"most_popular_beer":"Fynsk For\u00e5r","popularity":15.0,"n_beers":21.0,"avg_abv":5.9238095238,"max_abv":12.0},{"brewery":"Herslev Bryghus","city":"Herslev","lat":55.5263865,"long":11.3160973,"best_beer":"Oktober Bock","best_beer_score":3.5071428571,"most_popular_beer":"\u00d8kologisk India Dark Ale","popularity":8.0,"n_beers":28.0,"avg_abv":6.2607142857,"max_abv":11.0},{"brewery":"Grauballe Bryghus - Gaardbryggeriet","city":"Silkeborg","lat":56.1697,"long":9.54508,"best_beer":"Grauballe Eneb\u00e6r Stout","best_beer_score":3.2783333333,"most_popular_beer":"Grauballe Eneb\u00e6r Stout","popularity":4.0,"n_beers":9.0,"avg_abv":7.4666666667,"max_abv":14.0},{"brewery":"Viborg Bryghus","city":"Viborg","lat":56.45319,"long":9.40201,"best_beer":"M\u00e5nedens Bryg Februar 2018 - Kyndelmisse Weizen","best_beer_score":3.1466666667,"most_popular_beer":"M\u00e5nedens Bryg Februar 2017 - Bock Bock","popularity":1.0,"n_beers":27.0,"avg_abv":6.4777777778,"max_abv":10.2},{"brewery":"Raasted & Randers Bryghus A\/S","city":"Randers","lat":56.4607,"long":10.03639,"best_beer":"Raasted Grill\u00f8l","best_beer_score":3.668,"most_popular_beer":"Raasted Imperial Stout","popularity":25.0,"n_beers":36.0,"avg_abv":6.9833333333,"max_abv":12.5},{"brewery":"Albani Bryggerierne (Royal Unibrew)","city":"Odense","lat":55.39594,"long":10.38831,"best_beer":"Schi\u00f8tz Gylden IPA","best_beer_score":3.322,"most_popular_beer":"Giraf Beer","popularity":10.0,"n_beers":19.0,"avg_abv":5.5684210526,"max_abv":9.0},{"brewery":"Svaneke Bryghuse","city":"Svaneke","lat":55.1355706,"long":15.1385735262,"best_beer":"Raskolnikov","best_beer_score":3.9632786885,"most_popular_beer":"Raskolnikov","popularity":59.0,"n_beers":21.0,"avg_abv":6.2333333333,"max_abv":8.0},{"brewery":"Bryggeriet Refsvindinge","city":"\u00d8rb\u00e6k","lat":55.6986629,"long":11.9204241,"best_beer":"Skibs\u00f8l","best_beer_score":3.3233333333,"most_popular_beer":"Ale Nr. 16","popularity":13.0,"n_beers":26.0,"avg_abv":5.4961538462,"max_abv":8.6},{"brewery":"Alefarm Brewing","city":"K\u00f8benhavn","lat":55.67594,"long":12.56553,"best_beer":"Funk Orchard","best_beer_score":3.709,"most_popular_beer":"Funk Orchard","popularity":8.0,"n_beers":44.0,"avg_abv":6.2,"max_abv":10.0},{"brewery":"Bryghuset Kragelund","city":"Silkeborg","lat":56.1697,"long":9.54508,"best_beer":null,"best_beer_score":null,"most_popular_beer":null,"popularity":null,"n_beers":23.0,"avg_abv":7.0826086957,"max_abv":11.0},{"brewery":"Klosterbryggeriet","city":"Skanderborg","lat":56.03434,"long":9.93177,"best_beer":"Klosterbryggeriet Christian 3 Kloster Stout","best_beer_score":2.5533333333,"most_popular_beer":"Klosterbryggeriet Christian 3 Kloster Stout","popularity":1.0,"n_beers":2.0,"avg_abv":7.6,"max_abv":8.0},{"brewery":"Bryggeriet Skands","city":"Br\u00f8ndby","lat":55.6455,"long":12.41008,"best_beer":"Skands Porter","best_beer_score":3.41,"most_popular_beer":"Skands Humlefryd","popularity":5.0,"n_beers":9.0,"avg_abv":5.9222222222,"max_abv":7.2},{"brewery":"Ugly Duck Brewing Co.","city":"N\u00f8rre Aaby","lat":55.46107,"long":9.8794,"best_beer":"Miami Vice","best_beer_score":3.62,"most_popular_beer":"Miami Vice","popularity":12.0,"n_beers":6.0,"avg_abv":7.2666666667,"max_abv":9.7},{"brewery":"Maribo Bryghus (Royal Unibrew)","city":"Maribo","lat":54.77662,"long":11.50017,"best_beer":"Maribo Den Bl\u00e5","best_beer_score":2.6,"most_popular_beer":"Maribo Slots Guld","popularity":6.0,"n_beers":23.0,"avg_abv":4.5434782609,"max_abv":8.0},{"brewery":"Tapperiet BRUS","city":"K\u00f8benhavn","lat":55.67594,"long":12.56553,"best_beer":"Jackie Wants A Black Eye","best_beer_score":3.285,"most_popular_beer":"Jackie Wants A Black Eye","popularity":2.0,"n_beers":7.0,"avg_abv":6.2142857143,"max_abv":7.5},{"brewery":"Fur Bryghus","city":"Fur","lat":56.82145525,"long":9.0018236628,"best_beer":"Porter","best_beer_score":3.3814285714,"most_popular_beer":"Bock","popularity":8.0,"n_beers":8.0,"avg_abv":6.475,"max_abv":9.5},{"brewery":"Rise Bryggeri","city":"\u00c6r\u00f8sk\u00f8bing","lat":54.88803,"long":10.41117,"best_beer":"\u00c6r\u00f8 Hertug Hans NO5","best_beer_score":3.5214285714,"most_popular_beer":"\u00c6r\u00f8 Hertug Hans NO5","popularity":5.0,"n_beers":11.0,"avg_abv":5.5090909091,"max_abv":7.0},{"brewery":"Warwick Bryghus Aps","city":"Varde","lat":55.62112,"long":8.48069,"best_beer":"Sankt Hans","best_beer_score":3.11,"most_popular_beer":"Sankt Hans","popularity":4.0,"n_beers":7.0,"avg_abv":6.4714285714,"max_abv":9.2},{"brewery":"Black Rooster Brewery","city":"Fredrikssund","lat":55.83956,"long":12.06896,"best_beer":"The Hoptimizer","best_beer_score":3.4528571429,"most_popular_beer":"The Hoptimizer","popularity":5.0,"n_beers":6.0,"avg_abv":6.15,"max_abv":6.7},{"brewery":"Skagen Bryghus","city":"Skagen","lat":57.72093,"long":10.58394,"best_beer":"Skagen Skawskum","best_beer_score":3.436,"most_popular_beer":"Skagen Skawskum","popularity":3.0,"n_beers":5.0,"avg_abv":6.06,"max_abv":7.5},{"brewery":"Stevns Bryghus","city":"Haarlev","lat":55.34936,"long":12.23382,"best_beer":"Tryggev\u00e6ldebryg Nr. 1","best_beer_score":2.7866666667,"most_popular_beer":"Tryggev\u00e6ldebryg Nr. 1","popularity":1.0,"n_beers":16.0,"avg_abv":6.59375,"max_abv":12.0},{"brewery":"Rocket Brewing Co.","city":"K\u00f8benhavn","lat":55.67594,"long":12.56553,"best_beer":"Zero Gravity","best_beer_score":3.614,"most_popular_beer":"Zero Gravity","popularity":8.0,"n_beers":23.0,"avg_abv":6.5608695652,"max_abv":9.0},{"brewery":"B\u00f8gedal Bryghus","city":"Vejle","lat":55.70927,"long":9.5357,"best_beer":"No. 136","best_beer_score":3.7607692308,"most_popular_beer":"No. 136","popularity":11.0,"n_beers":22.0,"avg_abv":6.7772727273,"max_abv":8.3},{"brewery":"Kongens Bryghus","city":"K\u00f8benhavn","lat":55.67594,"long":12.56553,"best_beer":"Santaastique!","best_beer_score":3.0833333333,"most_popular_beer":"Kongens Bryghus Gaase Hvid","popularity":2.0,"n_beers":4.0,"avg_abv":4.575,"max_abv":5.9},{"brewery":"Xbeeriment I\/S","city":"K\u00f8benhavn","lat":55.67594,"long":12.56553,"best_beer":"XBeeriment Hoppenheimer Imperial IPA","best_beer_score":3.9238709677,"most_popular_beer":"Xbeeriment Black Force One","popularity":111.0,"n_beers":21.0,"avg_abv":8.0047619048,"max_abv":11.0},{"brewery":"Bryggeriet S.C. Fuglsang","city":"Haderslev","lat":55.24943,"long":9.48771,"best_beer":"Fuglsang Early Bird","best_beer_score":3.4466666667,"most_popular_beer":"Fuglsang Early Bird","popularity":4.0,"n_beers":13.0,"avg_abv":5.3538461538,"max_abv":7.8},{"brewery":"Wiibroes Bryggeri","city":"Hellsinger","lat":56.03606,"long":12.6136,"best_beer":"Wiibroes Porter Imperial Stout","best_beer_score":3.6478571429,"most_popular_beer":"Wiibroe \u00c5rgangs\u00f8l","popularity":14.0,"n_beers":5.0,"avg_abv":6.74,"max_abv":10.6},{"brewery":"L\u00e6s\u00f8 Bryghus","city":"L\u00e6s\u00f8","lat":57.271898,"long":10.992758221,"best_beer":"L\u00e6s\u00f8 Porse","best_beer_score":2.81,"most_popular_beer":"L\u00e6s\u00f8 Pils","popularity":1.0,"n_beers":8.0,"avg_abv":6.2,"max_abv":7.9},{"brewery":"Hancock Bryggerierne","city":"Skive","lat":56.56699,"long":9.02707,"best_beer":"Hancock Black Lager","best_beer_score":3.2014285714,"most_popular_beer":"Hancock Old Gambrinus Beer Dark","popularity":5.0,"n_beers":6.0,"avg_abv":6.25,"max_abv":9.8},{"brewery":"Bryghuset Braunstein","city":"K\u00f8ge","lat":55.45802,"long":12.18214,"best_beer":"Braunstein Porter","best_beer_score":3.2925,"most_popular_beer":"Braunstein Organic Wheat","popularity":7.0,"n_beers":12.0,"avg_abv":6.7833333333,"max_abv":10.5},{"brewery":"Ebeltoft G\u00e5rdbryggeri","city":"Ebeltoft","lat":56.19442,"long":10.6821,"best_beer":"Skunk Jam","best_beer_score":3.236,"most_popular_beer":"Skunk Jam","popularity":3.0,"n_beers":9.0,"avg_abv":7.0333333333,"max_abv":9.8},{"brewery":"BrygBrygBryg","city":"K\u00f8benhavn","lat":55.67594,"long":12.56553,"best_beer":null,"best_beer_score":null,"most_popular_beer":null,"popularity":null,"n_beers":7.0,"avg_abv":6.5571428571,"max_abv":10.4},{"brewery":"Duelund Bryglade","city":"Kjellerup","lat":56.28581,"long":9.43528,"best_beer":"Knark Imperial Stout III","best_beer_score":2.8933333333,"most_popular_beer":"Knark Imperial Stout III","popularity":1.0,"n_beers":1.0,"avg_abv":7.4,"max_abv":7.4},{"brewery":"S\u00f8kildegaard","city":"Vipper\u00f8d","lat":55.66768,"long":11.73967,"best_beer":"Paps\u00f8 15K Belgisk Quadrupel","best_beer_score":3.3375,"most_popular_beer":"Paps\u00f8 15K Belgisk Quadrupel","popularity":2.0,"n_beers":2.0,"avg_abv":10.55,"max_abv":10.6},{"brewery":"JK Holtmann","city":"Kastrup","lat":55.6340135,"long":12.6291992,"best_beer":"Treehuggin' IPA","best_beer_score":2.7733333333,"most_popular_beer":"Treehuggin' IPA","popularity":1.0,"n_beers":1.0,"avg_abv":6.6,"max_abv":6.6},{"brewery":"Aarhus Bryghus","city":"Viby","lat":55.54872,"long":12.02391,"best_beer":"Black Ice","best_beer_score":3.195,"most_popular_beer":"Black Ice","popularity":2.0,"n_beers":7.0,"avg_abv":7.0,"max_abv":9.0},{"brewery":"Br\u00f8ckhouse Aps","city":"Hiller\u00f8d","lat":55.92791,"long":12.30081,"best_beer":"Br\u00f8ckhouse Jule\u00f6l","best_beer_score":3.485,"most_popular_beer":"Br\u00f8ckhouse Esrum Kloster","popularity":5.0,"n_beers":22.0,"avg_abv":7.2863636364,"max_abv":13.5},{"brewery":"Nibe Bryghus","city":"Nibe","lat":56.9815,"long":9.63917,"best_beer":"Rudolf Julebryg","best_beer_score":3.04,"most_popular_beer":"Rudolf Julebryg","popularity":2.0,"n_beers":3.0,"avg_abv":6.6666666667,"max_abv":7.0},{"brewery":"Bryghuset M\u00f8n","city":"Stege","lat":54.98704,"long":12.28461,"best_beer":"Sommerspirets Lakrids Stout","best_beer_score":3.526,"most_popular_beer":"Sommerspirets Lakrids Stout","popularity":3.0,"n_beers":4.0,"avg_abv":5.075,"max_abv":5.5},{"brewery":"Vejle Bryghus","city":"Vejle","lat":55.70927,"long":9.5357,"best_beer":"Imperial Stout (Cognac Barrel)","best_beer_score":3.8422222222,"most_popular_beer":"Imperial Stout (Cognac Barrel)","popularity":7.0,"n_beers":4.0,"avg_abv":6.575,"max_abv":11.0},{"brewery":"Humleland Bryggeriet","city":"Riskkov","lat":56.15674,"long":10.21076,"best_beer":"Morgenf\u00e6tteren","best_beer_score":2.9933333333,"most_popular_beer":"Morgenf\u00e6tteren","popularity":1.0,"n_beers":2.0,"avg_abv":7.85,"max_abv":8.2},{"brewery":"Trolden Bryghus ApS","city":"Kolding","lat":55.4904,"long":9.47216,"best_beer":"Brinksgaards Marsk Sten\u00f8l","best_beer_score":2.9966666667,"most_popular_beer":"IPA","popularity":1.0,"n_beers":2.0,"avg_abv":5.45,"max_abv":5.9},{"brewery":"Halsn\u00e6s Bryghus","city":"Hundested","lat":55.96397,"long":11.85044,"best_beer":"Fabritius Pale Ale","best_beer_score":3.0,"most_popular_beer":"R\u00f8de Ran","popularity":1.0,"n_beers":7.0,"avg_abv":5.9,"max_abv":7.6},{"brewery":"Mikkeller Baghaven","city":"K\u00f8benhavn","lat":55.67594,"long":12.56553,"best_beer":"Granadilla","best_beer_score":3.488,"most_popular_beer":"Granadilla","popularity":3.0,"n_beers":9.0,"avg_abv":7.0666666667,"max_abv":8.8},{"brewery":"Heimdal-Bryg","city":"Sm\u00f8rum","lat":55.74232,"long":12.30276,"best_beer":"Heimdal Hugin","best_beer_score":2.9,"most_popular_beer":"Heimdal Hugin","popularity":1.0,"n_beers":1.0,"avg_abv":5.1,"max_abv":5.1},{"brewery":"Gypsy Inc.","city":"K\u00f8benhavn","lat":55.67594,"long":12.56553,"best_beer":"Soft Focus","best_beer_score":3.72,"most_popular_beer":"Tipsy Gypsy","popularity":15.0,"n_beers":5.0,"avg_abv":5.0,"max_abv":6.2},{"brewery":"\u00d8lsnedkeren","city":"K\u00f8benhavn","lat":55.67594,"long":12.56553,"best_beer":"Den Sorte Panter","best_beer_score":3.0833333333,"most_popular_beer":"Den Sorte Panter","popularity":1.0,"n_beers":4.0,"avg_abv":6.05,"max_abv":8.8},{"brewery":"Stensbogaard Bryghus","city":"Ringe","lat":55.23828,"long":10.4786,"best_beer":"English Dark Stout","best_beer_score":3.435,"most_popular_beer":"India Pale Ale","popularity":5.0,"n_beers":11.0,"avg_abv":5.9090909091,"max_abv":7.8},{"brewery":"Bad Seed Brewing","city":"K\u00f8benhavn","lat":55.67594,"long":12.56553,"best_beer":"Double Lazarus","best_beer_score":2.8333333333,"most_popular_beer":"Double Lazarus","popularity":1.0,"n_beers":1.0,"avg_abv":7.5,"max_abv":7.5},{"brewery":"Brygv\u00e6rket","city":"Hobro","lat":56.64306,"long":9.79029,"best_beer":"Herlig Humle","best_beer_score":3.0,"most_popular_beer":"Herlig Humle","popularity":2.0,"n_beers":4.0,"avg_abv":5.25,"max_abv":6.0},{"brewery":"United Beverage Nordic","city":"Eg\u00e5","lat":56.2150605,"long":10.2236812,"best_beer":"Mad Viking Pillage the Village","best_beer_score":3.1166666667,"most_popular_beer":"Mad Viking Pillage the Village","popularity":1.0,"n_beers":1.0,"avg_abv":11.0,"max_abv":11.0},{"brewery":"Bryg-Syndikatet","city":"Auning","lat":56.43079,"long":10.37818,"best_beer":"Agenten","best_beer_score":3.3275,"most_popular_beer":"Agenten","popularity":2.0,"n_beers":5.0,"avg_abv":8.28,"max_abv":11.5},{"brewery":"Gundestrup Mejeri- og Bryghus","city":"North Skerninge","lat":55.07297815,"long":10.4537083069,"best_beer":null,"best_beer_score":null,"most_popular_beer":null,"popularity":null,"n_beers":4.0,"avg_abv":6.0,"max_abv":7.0},{"brewery":"Howling Monkey","city":"Odense","lat":55.39594,"long":10.38831,"best_beer":"Gluten Appetit","best_beer_score":2.9233333333,"most_popular_beer":"Gluten Appetit","popularity":1.0,"n_beers":1.0,"avg_abv":4.9,"max_abv":4.9},{"brewery":"Gamma Brewing Co.","city":"G\u00f8rl\u00f8se","lat":55.92791,"long":12.30081,"best_beer":"Gamma Hop Sweat IPA","best_beer_score":2.99,"most_popular_beer":"Ionize","popularity":1.0,"n_beers":4.0,"avg_abv":7.525,"max_abv":8.0},{"brewery":"Dansk Mj\u00f8d A\/S","city":"Billund","lat":55.73349,"long":9.10785,"best_beer":"Viking Blod","best_beer_score":4.0738095238,"most_popular_beer":"Viking Blod","popularity":61.0,"n_beers":3.0,"avg_abv":16.0333333333,"max_abv":19.0},{"brewery":"Musikbryggeriet DaCapo","city":"Viby Sj\u00e6lland","lat":55.54872,"long":12.02391,"best_beer":"Maestoso","best_beer_score":3.134,"most_popular_beer":"Maestoso","popularity":3.0,"n_beers":1.0,"avg_abv":8.2,"max_abv":8.2},{"brewery":"Penyllan Brewery","city":"Allinge","lat":55.2746124,"long":14.799119,"best_beer":null,"best_beer_score":null,"most_popular_beer":null,"popularity":null,"n_beers":1.0,"avg_abv":6.0,"max_abv":6.0},{"brewery":"K\u00f8lster Malt og \u00d8l","city":"Humleb\u00e6k","lat":55.9618,"long":12.5341,"best_beer":"Humleb\u00e6k'n","best_beer_score":3.0533333333,"most_popular_beer":"Humleb\u00e6k'n","popularity":1.0,"n_beers":1.0,"avg_abv":5.7,"max_abv":5.7},{"brewery":"Coisbo Beer ApS","city":"Vissenbjerg","lat":55.38482,"long":10.13784,"best_beer":"FOUR: Russian Imperial Stout","best_beer_score":3.39,"most_popular_beer":"FOUR: Russian Imperial Stout","popularity":3.0,"n_beers":1.0,"avg_abv":10.0,"max_abv":10.0},{"brewery":"Vesterbro Bryghus","city":"K\u00f8benhavn","lat":55.67594,"long":12.56553,"best_beer":"Amber Lager","best_beer_score":2.4666666667,"most_popular_beer":"Amber Lager","popularity":1.0,"n_beers":1.0,"avg_abv":5.2,"max_abv":5.2},{"brewery":"R\u00e6kker M\u00f8lle Bryghus","city":"R\u00e6kker M\u00f8lle","lat":56.0211447,"long":8.5376203,"best_beer":null,"best_beer_score":null,"most_popular_beer":null,"popularity":null,"n_beers":2.0,"avg_abv":4.55,"max_abv":4.6},{"brewery":"L\u00f8kken Bryghus","city":"L\u00f8kken","lat":57.37047,"long":9.71466,"best_beer":"L\u00f8kken Stygge Krumpen","best_beer_score":3.0,"most_popular_beer":"L\u00f8kken Witbier","popularity":1.0,"n_beers":3.0,"avg_abv":5.4333333333,"max_abv":6.0},{"brewery":"Den Gale Brygger","city":"Jerslev","lat":57.28500595,"long":10.0912021897,"best_beer":"Gl. B\u00e5dsmands Porter","best_beer_score":3.1,"most_popular_beer":"Gl. B\u00e5dsmands Porter","popularity":2.0,"n_beers":2.0,"avg_abv":6.85,"max_abv":8.1},{"brewery":"Baldersbr\u00f8nde Bryggeri A\/S","city":"Hedehusene","lat":55.64951,"long":12.19827,"best_beer":"Balder M\u00f8rk Ale","best_beer_score":2.6666666667,"most_popular_beer":"Balder M\u00f8rk Ale","popularity":1.0,"n_beers":1.0,"avg_abv":4.6,"max_abv":4.6},{"brewery":"People Like Us","city":"Br\u00f8ndby","lat":55.6455,"long":12.41008,"best_beer":"Covfefe Bourbon BA","best_beer_score":3.1,"most_popular_beer":"Covfefe Bourbon BA","popularity":1.0,"n_beers":1.0,"avg_abv":10.3,"max_abv":10.3},{"brewery":"Ribe Bryghus","city":"Ribe","lat":55.33051,"long":8.76966,"best_beer":"Ribe Blond Ale","best_beer_score":2.99,"most_popular_beer":"Ribe Blond Ale","popularity":1.0,"n_beers":2.0,"avg_abv":5.85,"max_abv":6.0},{"brewery":"Roskilde \u00d8l","city":"Viby Sj\u00e6lland","lat":55.54872,"long":12.02391,"best_beer":"Roskilde Eneb\u00e6r Ale","best_beer_score":2.6933333333,"most_popular_beer":"Roskilde Eneb\u00e6r Ale","popularity":1.0,"n_beers":1.0,"avg_abv":5.8,"max_abv":5.8},{"brewery":"Hr. Skov","city":"Bl\u00e5vand","lat":55.555888,"long":8.1347402,"best_beer":null,"best_beer_score":null,"most_popular_beer":null,"popularity":null,"n_beers":1.0,"avg_abv":10.1,"max_abv":10.1},{"brewery":"Slotsbryggeriet Gavn\u00f8","city":"N\u00e6stved","lat":55.22992,"long":11.76092,"best_beer":"Gavn\u00f8 Pale Ale","best_beer_score":2.7933333333,"most_popular_beer":"Gavn\u00f8 Pale Ale","popularity":1.0,"n_beers":1.0,"avg_abv":6.2,"max_abv":6.2},{"brewery":"K\u00f8lsters Tolv Haner","city":"K\u00f8benhavn","lat":55.67594,"long":12.56553,"best_beer":"Dobbel Op Hop","best_beer_score":2.9233333333,"most_popular_beer":"Dobbel Op Hop","popularity":1.0,"n_beers":1.0,"avg_abv":7.1,"max_abv":7.1},{"brewery":"Two Face Brewing","city":"Aalborg","lat":57.048,"long":9.9187,"best_beer":null,"best_beer_score":null,"most_popular_beer":null,"popularity":null,"n_beers":1.0,"avg_abv":7.5,"max_abv":7.5}]