[{"brewery":"The Flying Dutchman Nomad Brewing Company","city":"Vantaa","lat":60.29414,"long":25.04099,"best_beer":"Tree Hugging Wood Chopping Mother Loving IPA","best_beer_score":3.6166666667,"most_popular_beer":"Tree Hugging Wood Chopping Mother Loving IPA","popularity":10.0,"n_beers":12.0,"avg_abv":6.1,"max_abv":9.5},{"brewery":"Panimo Hiisi","city":"Jyv\u00e4skyl\u00e4","lat":62.24147,"long":25.72088,"best_beer":"Hiisi Aarni","best_beer_score":3.265,"most_popular_beer":"Hiisi \/ Donut Island Sour Fuzz","popularity":2.0,"n_beers":28.0,"avg_abv":5.9,"max_abv":10.5},{"brewery":"Oy Sinebrychoff Ab","city":"Kerava","lat":60.40338,"long":25.105,"best_beer":"Sinebrychoff Porter","best_beer_score":4.1561003421,"most_popular_beer":"Sinebrychoff Porter","popularity":875.0,"n_beers":36.0,"avg_abv":4.5277777778,"max_abv":8.0},{"brewery":"Suomenlinnan Panimo Sveaborgs Bryggeri","city":"Helsinki","lat":60.16952,"long":24.93545,"best_beer":"Helsinki Portteri","best_beer_score":3.334,"most_popular_beer":"Helsinki Portteri","popularity":8.0,"n_beers":15.0,"avg_abv":4.9733333333,"max_abv":6.0},{"brewery":"Vakka-Suomen Panimo","city":"Uusikaupunki","lat":60.80043,"long":21.40841,"best_beer":"Prykmestar Savu Kataja","best_beer_score":3.7208,"most_popular_beer":"Prykmestar Savu Kataja","popularity":23.0,"n_beers":20.0,"avg_abv":5.63,"max_abv":9.0},{"brewery":"Saimaan Juomatehdas","city":"Lappeenranta","lat":61.05871,"long":28.18871,"best_beer":"Brewer's Special American Red Ale","best_beer_score":3.16,"most_popular_beer":"Luostari Dubbel","popularity":7.0,"n_beers":31.0,"avg_abv":4.9741935484,"max_abv":8.0},{"brewery":"Hartwall Helsinki Panimo","city":"Helsinki","lat":60.16952,"long":24.93545,"best_beer":"Polar Monkeys White Collar Golden Ale","best_beer_score":3.392,"most_popular_beer":"Lapin Kulta Premium Lager","popularity":50.0,"n_beers":39.0,"avg_abv":5.0641025641,"max_abv":8.0},{"brewery":"Panimoravintola Beer Hunter's","city":"Pori","lat":61.48333,"long":21.78333,"best_beer":"Mufloni S\u00e4ppi APA","best_beer_score":3.5128571429,"most_popular_beer":"Mufloni CCCCC IPA","popularity":6.0,"n_beers":13.0,"avg_abv":6.5,"max_abv":10.0},{"brewery":"Malmg\u00e5rdin Panimo","city":"Malmg\u00e5rd","lat":60.16952,"long":24.93545,"best_beer":"Huvila X-Porter","best_beer_score":3.9255263158,"most_popular_beer":"Arctic Circle Ale","popularity":145.0,"n_beers":38.0,"avg_abv":6.4710526316,"max_abv":10.4},{"brewery":"Nokian Panimo","city":"Nokia","lat":61.46667,"long":23.5,"best_beer":"Keisari Luomu","best_beer_score":3.1883333333,"most_popular_beer":"Keisari Kellari","popularity":8.0,"n_beers":16.0,"avg_abv":4.775,"max_abv":6.5},{"brewery":"Hopping Brewsters","city":"Akaa","lat":61.16667,"long":23.86667,"best_beer":"Thunder Chief","best_beer_score":2.9666666667,"most_popular_beer":"Porco Bianco","popularity":1.0,"n_beers":10.0,"avg_abv":5.88,"max_abv":8.6},{"brewery":"Takatalo & Tompuri Brewing","city":"Ravijoki","lat":60.5665058,"long":27.5089535,"best_beer":"Kaski Kylm\u00e4msavulager","best_beer_score":3.084,"most_popular_beer":"Kaski Kylm\u00e4msavulager","popularity":3.0,"n_beers":3.0,"avg_abv":4.8666666667,"max_abv":5.0},{"brewery":"Panimo Honkavuori","city":"Joensuu","lat":62.60118,"long":29.76316,"best_beer":"Honkavuoren Valo","best_beer_score":2.7166666667,"most_popular_beer":"Honkavuoren Y\u00f6 Oatmeal Stout","popularity":1.0,"n_beers":2.0,"avg_abv":4.5,"max_abv":4.5},{"brewery":"Stallhagens Bryggeri Ab","city":"Godby","lat":60.2296942,"long":19.9878284,"best_beer":"Stallhagen US Red Ale","best_beer_score":3.254,"most_popular_beer":"Stallhagen Baltic Porter (Winter Porter)","popularity":12.0,"n_beers":34.0,"avg_abv":5.5029411765,"max_abv":7.5},{"brewery":"Stadin Panimo","city":"Helsinki","lat":60.16952,"long":24.93545,"best_beer":"Stadin American Lager","best_beer_score":3.56125,"most_popular_beer":"American Barley Wine","popularity":6.0,"n_beers":37.0,"avg_abv":5.6918918919,"max_abv":9.5},{"brewery":"Olutravintola Teerenpeli","city":"Lahti","lat":60.98267,"long":25.66151,"best_beer":"Teerenpeli Vauhtiveikko","best_beer_score":3.4233333333,"most_popular_beer":"Teerenpeli Hippaheikki","popularity":14.0,"n_beers":22.0,"avg_abv":5.2409090909,"max_abv":7.7},{"brewery":"Panimoravintola Plevna Koskipanimo","city":"Tampere","lat":61.49911,"long":23.78712,"best_beer":"Siperia Imperial Stout","best_beer_score":3.94,"most_popular_beer":"Siperia Imperial Stout","popularity":15.0,"n_beers":23.0,"avg_abv":5.5043478261,"max_abv":8.0},{"brewery":"Lammin Sahti Oy","city":"Lammi","lat":61.08333,"long":25.01667,"best_beer":"Lammin Sahtia","best_beer_score":3.3731818182,"most_popular_beer":"Lammin Kataja Olut","popularity":114.0,"n_beers":7.0,"avg_abv":6.0571428571,"max_abv":7.5},{"brewery":"Panimoravintola Bruuveri","city":"Helsinki","lat":60.16952,"long":24.93545,"best_beer":"Bruuveri Django & Steven Pale Ale","best_beer_score":3.25,"most_popular_beer":"Bruuveri Kev\u00e4t Ipeloinen","popularity":2.0,"n_beers":7.0,"avg_abv":5.1142857143,"max_abv":5.2},{"brewery":"Maku Brewing","city":"Tuusula","lat":60.40368,"long":25.02638,"best_beer":"Maku IPA","best_beer_score":3.55625,"most_popular_beer":"Maku IPA","popularity":6.0,"n_beers":11.0,"avg_abv":5.8636363636,"max_abv":9.2},{"brewery":"Mallaskosken Panimo","city":"Sein\u00e4joki","lat":62.79446,"long":22.82822,"best_beer":"Black Imperial Rye","best_beer_score":3.15,"most_popular_beer":"Kuohu Valioluokka Pale Ale","popularity":3.0,"n_beers":9.0,"avg_abv":5.7333333333,"max_abv":11.4},{"brewery":"Laitilan Wirvoitusjuomatehdas","city":"Laitila","lat":60.87575,"long":21.69765,"best_beer":"Laitilan Imperiaali","best_beer_score":3.2516666667,"most_popular_beer":"Kukko Pils III","popularity":14.0,"n_beers":21.0,"avg_abv":5.3119047619,"max_abv":9.2},{"brewery":"Olvi Oyj","city":"Iisalmi","lat":63.55915,"long":27.19067,"best_beer":"Olvi APA","best_beer_score":2.905,"most_popular_beer":"Olvi Sandels 4,7%","popularity":22.0,"n_beers":32.0,"avg_abv":4.809375,"max_abv":8.5},{"brewery":"Alahovin Viinitila Oy","city":"Kuopio","lat":62.89238,"long":27.67703,"best_beer":"Vanhan Tornin Tumma Olut","best_beer_score":2.5,"most_popular_beer":"Alahovin IPA","popularity":1.0,"n_beers":5.0,"avg_abv":4.7,"max_abv":4.7},{"brewery":"Bryggeri Helsinki","city":"Helsinki","lat":60.16952,"long":24.93545,"best_beer":"Bryggeri IPA","best_beer_score":3.51375,"most_popular_beer":"Bryggeri IPA","popularity":6.0,"n_beers":21.0,"avg_abv":5.9857142857,"max_abv":10.0},{"brewery":"Fat Lizard Brewing Co.","city":"Espoo","lat":60.2052,"long":24.6522,"best_beer":"Ankle Slapper","best_beer_score":3.0266666667,"most_popular_beer":"101 California Pale Ale","popularity":1.0,"n_beers":7.0,"avg_abv":5.9142857143,"max_abv":8.0},{"brewery":"Rekolan Panimo","city":"Fiskars","lat":60.1315683,"long":23.5419273,"best_beer":"Rekolan Amerikan Eno","best_beer_score":3.0,"most_popular_beer":"Rekolan Amerikan Serkku","popularity":3.0,"n_beers":11.0,"avg_abv":5.0727272727,"max_abv":6.7},{"brewery":"Rock Paper Scissors (RPS) - Indie Brewery","city":"Kuopio","lat":62.89238,"long":27.67703,"best_beer":"Indie Pale Ale","best_beer_score":2.8575,"most_popular_beer":"Indie Pale Ale","popularity":2.0,"n_beers":1.0,"avg_abv":4.7,"max_abv":4.7},{"brewery":"Iso-Kallan Panimo Oy","city":"Vaaraslahti","lat":63.3662448,"long":26.7162382,"best_beer":"Saison","best_beer_score":3.2,"most_popular_beer":"Saison","popularity":2.0,"n_beers":11.0,"avg_abv":5.6,"max_abv":8.5},{"brewery":"Cool Head Brew","city":"Tuusula","lat":60.40368,"long":25.02638,"best_beer":"Sour Head Maracuj\u00e1","best_beer_score":3.0333333333,"most_popular_beer":"Sour Head Maracuj\u00e1","popularity":1.0,"n_beers":4.0,"avg_abv":5.875,"max_abv":10.0},{"brewery":"Radbrew","city":"Kaarina","lat":60.40724,"long":22.36904,"best_beer":"Ivy Mike","best_beer_score":3.0,"most_popular_beer":"Buster-Jangle","popularity":1.0,"n_beers":7.0,"avg_abv":6.2857142857,"max_abv":8.5},{"brewery":"Pyynikin K\u00e4sity\u00f6l\u00e4ispanimo","city":"Tampere","lat":61.49911,"long":23.78712,"best_beer":"Papan Vanillastout","best_beer_score":3.32,"most_popular_beer":"Papan Vanillastout","popularity":3.0,"n_beers":27.0,"avg_abv":5.9651851852,"max_abv":13.0},{"brewery":"Panimoravintola Koulu","city":"Turku","lat":60.45148,"long":22.26869,"best_beer":"Koulu Yliopettaja","best_beer_score":3.0033333333,"most_popular_beer":"Koulu Lehtori","popularity":2.0,"n_beers":6.0,"avg_abv":5.6666666667,"max_abv":7.2},{"brewery":"Tornion Panimo","city":"Tornio","lat":65.84811,"long":24.14662,"best_beer":"Arctic Pale Ale","best_beer_score":2.87,"most_popular_beer":"Arctic Lager","popularity":1.0,"n_beers":4.0,"avg_abv":5.225,"max_abv":5.5},{"brewery":"Diamond Beer Brewing Company","city":"Helsinki","lat":60.16952,"long":24.93545,"best_beer":"Diamond Red Neck","best_beer_score":3.146,"most_popular_beer":"Diamond Red Neck","popularity":3.0,"n_beers":7.0,"avg_abv":5.2714285714,"max_abv":6.5},{"brewery":"Olutpaja","city":"P\u00e4lk\u00e4ne","lat":61.33424,"long":24.27197,"best_beer":"Silkkitie","best_beer_score":2.5266666667,"most_popular_beer":"Silkkitie","popularity":1.0,"n_beers":1.0,"avg_abv":4.2,"max_abv":4.2},{"brewery":"Pihamaan Panimo","city":"Heinola","lat":61.20564,"long":26.03811,"best_beer":"Pihamaan Tuittu","best_beer_score":2.79,"most_popular_beer":"Pihamaan Hupakko","popularity":1.0,"n_beers":2.0,"avg_abv":5.4,"max_abv":5.4},{"brewery":"Bar Teerenpeli","city":"Helsinki","lat":60.16952,"long":24.93545,"best_beer":"Teerenpeli Hippaheikki T.E.S.B.","best_beer_score":2.9875,"most_popular_beer":"Teerenpeli Hippaheikki T.E.S.B.","popularity":6.0,"n_beers":1.0,"avg_abv":4.7,"max_abv":4.7},{"brewery":"Bruuveri","city":"Helsinki","lat":60.16952,"long":24.93545,"best_beer":"Lentomestari","best_beer_score":3.23,"most_popular_beer":"Lentomestari","popularity":2.0,"n_beers":3.0,"avg_abv":7.9,"max_abv":8.6},{"brewery":"Espoon Oma Panimo","city":"Espoo","lat":60.2052,"long":24.6522,"best_beer":"Cheers From Keilaniemi","best_beer_score":2.8533333333,"most_popular_beer":"Cheers from Otaniemi","popularity":1.0,"n_beers":3.0,"avg_abv":5.0666666667,"max_abv":5.5},{"brewery":"Vallilan Panimo","city":"Helsinki","lat":60.16952,"long":24.93545,"best_beer":null,"best_beer_score":null,"most_popular_beer":null,"popularity":null,"n_beers":1.0,"avg_abv":2.6,"max_abv":2.6},{"brewery":"Hollolan Hirvi","city":"Hollolan","lat":61.0521767,"long":25.4323558392,"best_beer":"KiviSahti","best_beer_score":3.0133333333,"most_popular_beer":"Ameriikan Hirvi","popularity":1.0,"n_beers":4.0,"avg_abv":5.8,"max_abv":7.0},{"brewery":"Mathildedalin Kyl\u00e4panimo","city":"Mathildedal","lat":60.45148,"long":22.26869,"best_beer":"Mathilda","best_beer_score":3.145,"most_popular_beer":"Mathilda","popularity":2.0,"n_beers":4.0,"avg_abv":5.0,"max_abv":6.9},{"brewery":"Ruosniemen Panimo","city":"Pori","lat":61.48333,"long":21.78333,"best_beer":"Vuorineuvos","best_beer_score":3.336,"most_popular_beer":"Ruosniemen Sihteeri","popularity":3.0,"n_beers":9.0,"avg_abv":6.3777777778,"max_abv":9.5},{"brewery":"Open Water Brewery","city":"Lemland","lat":60.055716,"long":20.1220703,"best_beer":"Galaxy Sessions","best_beer_score":2.7766666667,"most_popular_beer":"Galaxy Sessions","popularity":1.0,"n_beers":1.0,"avg_abv":4.7,"max_abv":4.7},{"brewery":"Finlandia Sahti Ky","city":"Matku, Forssa","lat":60.9613059,"long":23.5065864,"best_beer":"Finlandia Sahti","best_beer_score":3.262,"most_popular_beer":"Finlandia Sahti","popularity":8.0,"n_beers":2.0,"avg_abv":9.0,"max_abv":10.0},{"brewery":"Mustan Virran Panimo","city":"Savonlinna","lat":61.8699,"long":28.87999,"best_beer":"Mustan Virran St Olaf Pale Ale","best_beer_score":2.6966666667,"most_popular_beer":"Mustan Virran St Olaf Pale Ale","popularity":1.0,"n_beers":1.0,"avg_abv":4.5,"max_abv":4.5},{"brewery":"Rousal Brygghus","city":"Rosala","lat":59.8526436,"long":22.4186935,"best_beer":"Chai Porter","best_beer_score":2.9266666667,"most_popular_beer":"Ale","popularity":1.0,"n_beers":2.0,"avg_abv":5.05,"max_abv":5.7},{"brewery":"Humalove Brewing","city":"Helsinki","lat":60.16952,"long":24.93545,"best_beer":"Humalove \/ Atom Tank BBF Series III: You're so Wild Honey","best_beer_score":3.1666666667,"most_popular_beer":"Humalove Arabica Moo","popularity":2.0,"n_beers":5.0,"avg_abv":6.84,"max_abv":10.5},{"brewery":"Mallaskuun Panimo","city":"Lapua","lat":62.96927,"long":23.0088,"best_beer":"Mallaskuun Oatmeal Stout","best_beer_score":2.84,"most_popular_beer":"Mallaskuun Oatmeal Stout","popularity":1.0,"n_beers":1.0,"avg_abv":3.8,"max_abv":3.8},{"brewery":"Hailuodon Panimo","city":"Hailuoto","lat":65.009,"long":24.71385,"best_beer":"Markkinaolut","best_beer_score":2.7333333333,"most_popular_beer":"Markkinaolut","popularity":1.0,"n_beers":1.0,"avg_abv":4.7,"max_abv":4.7},{"brewery":"Lapin Kulta","city":"Tornio","lat":65.84811,"long":24.14662,"best_beer":"Lapin Kulta IV B","best_beer_score":2.9166666667,"most_popular_beer":"Lapin Kulta IV A","popularity":20.0,"n_beers":4.0,"avg_abv":6.175,"max_abv":8.0},{"brewery":"Rocking Bear Brewers","city":"Pori","lat":61.48333,"long":21.78333,"best_beer":"Vanhakoivisto Vehn\u00e4","best_beer_score":2.4866666667,"most_popular_beer":"Vanhakoivisto Vehn\u00e4","popularity":1.0,"n_beers":1.0,"avg_abv":4.5,"max_abv":4.5},{"brewery":"Linden Brewery Oy","city":"Rauma","lat":61.12724,"long":21.51127,"best_beer":"American Pale Ale","best_beer_score":2.6866666667,"most_popular_beer":"American Pale Ale","popularity":1.0,"n_beers":1.0,"avg_abv":4.7,"max_abv":4.7},{"brewery":"Lidl Suomi Ky","city":"Vantaa","lat":60.29414,"long":25.04099,"best_beer":"Meid\u00e4n Veikko Suomalainen Ale","best_beer_score":2.6666666667,"most_popular_beer":"Meid\u00e4n Veikko Suomalainen Ale","popularity":1.0,"n_beers":1.0,"avg_abv":4.7,"max_abv":4.7},{"brewery":"Top Fuel Beer Company","city":"Lojo","lat":60.24859,"long":24.06534,"best_beer":"Hoplite Pale Ale","best_beer_score":2.5066666667,"most_popular_beer":"Hoplite Pale Ale","popularity":1.0,"n_beers":1.0,"avg_abv":4.7,"max_abv":4.7},{"brewery":"Finn Spring Oy","city":"Syk\u00e4r\u00e4inen","lat":63.9,"long":24.5,"best_beer":"Rainbow Kotikalja","best_beer_score":2.56,"most_popular_beer":"Rainbow Kotikalja","popularity":1.0,"n_beers":1.0,"avg_abv":0.9,"max_abv":0.9}]