[{"brewery":"Legenda S\u00f6rf\u0151zde","city":"Budapest","lat":47.49835,"long":19.04045,"best_beer":"Brettannia Brut Sour Ale","best_beer_score":3.458,"most_popular_beer":"Brutal Bitter","popularity":5.0,"n_beers":58.0,"avg_abv":6.3431034483,"max_abv":12.0},{"brewery":"HopTop Brewery","city":"Budapest","lat":47.49835,"long":19.04045,"best_beer":"Green Zone","best_beer_score":3.2833333333,"most_popular_beer":"Green Zone","popularity":4.0,"n_beers":10.0,"avg_abv":5.86,"max_abv":8.0},{"brewery":"Hopfanatic Brewery","city":"Kiskunhalas","lat":46.43402,"long":19.48479,"best_beer":"No Hop Limit","best_beer_score":3.688125,"most_popular_beer":"No Hop Limit","popularity":14.0,"n_beers":24.0,"avg_abv":8.0208333333,"max_abv":15.0},{"brewery":"F\u00f3ti K\u00e9zm\u0171ves S\u00f6rf\u0151zde","city":"F\u00f3t","lat":47.6177,"long":19.1887,"best_beer":"Winternacht","best_beer_score":3.501,"most_popular_beer":"Kemenysepro","popularity":11.0,"n_beers":17.0,"avg_abv":6.0088235294,"max_abv":12.0},{"brewery":"Brau Union Hung\u00e1ria S\u00f6rgy\u00e1rak \/ Soprony Brewery","city":"Sopron","lat":47.68501,"long":16.59049,"best_beer":"Soproni \u00d3vatos Duhaj IPA","best_beer_score":3.47625,"most_popular_beer":"Soproni","popularity":54.0,"n_beers":15.0,"avg_abv":4.1066666667,"max_abv":7.1},{"brewery":"P\u00e9csi S\u00f6rf\u00f6zde","city":"P\u00e9cs","lat":46.0725,"long":18.23083,"best_beer":"Szalon Barna","best_beer_score":3.2571428571,"most_popular_beer":"Szalon Sor","popularity":12.0,"n_beers":20.0,"avg_abv":3.85,"max_abv":5.8},{"brewery":"G\u00f3lem S\u00f6rf\u0151zde","city":"Budapest","lat":47.49835,"long":19.04045,"best_beer":"S\u00f6t\u00e9t Bunk\u00f3","best_beer_score":3.42625,"most_popular_beer":"S\u00f6t\u00e9t Bunk\u00f3","popularity":6.0,"n_beers":2.0,"avg_abv":5.9,"max_abv":6.5},{"brewery":"Bigfoot S\u00f6rf\u0151zde","city":"Domony","lat":47.65552,"long":19.43229,"best_beer":"2222","best_beer_score":3.3116666667,"most_popular_beer":"Ale Capone","popularity":7.0,"n_beers":11.0,"avg_abv":5.3454545455,"max_abv":6.5},{"brewery":"Synthesis Brewlab","city":"Budapest","lat":47.49835,"long":19.04045,"best_beer":"Zodiak IPA","best_beer_score":3.282,"most_popular_beer":"Zodiak IPA","popularity":3.0,"n_beers":4.0,"avg_abv":6.325,"max_abv":8.2},{"brewery":"FIRST The Craft Beer Co.","city":"Budapest","lat":47.49835,"long":19.04045,"best_beer":"FIRST India Pale Ale","best_beer_score":3.15,"most_popular_beer":"FIRST India Pale Ale","popularity":2.0,"n_beers":19.0,"avg_abv":5.2631578947,"max_abv":8.5},{"brewery":"Dreher Brewery","city":"Budapest","lat":47.49835,"long":19.04045,"best_beer":"Dreher Bak","best_beer_score":3.6719230769,"most_popular_beer":"Dreher Classic","popularity":86.0,"n_beers":35.0,"avg_abv":3.56,"max_abv":7.3},{"brewery":"UGAR Brewery","city":"T\u00f6r\u00f6kszentmikl\u00f3s","lat":47.18333,"long":20.41667,"best_beer":"Euphoria - Fruit Sour","best_beer_score":3.09,"most_popular_beer":"Str\u00f3man - New England IPA","popularity":1.0,"n_beers":11.0,"avg_abv":5.7181818182,"max_abv":8.0},{"brewery":"B\u00e9k\u00e9sszentandr\u00e1si Serf\u0151zde (Agro Flott Bt.)","city":"B\u00e9k\u00e9sszentandr\u00e1s","lat":46.86667,"long":20.48333,"best_beer":"Black Rose","best_beer_score":3.5246153846,"most_popular_beer":"Black Rose","popularity":11.0,"n_beers":14.0,"avg_abv":5.9714285714,"max_abv":9.0},{"brewery":"Csak a j\u00f3 s\u00f6r!","city":"Budapest","lat":47.49835,"long":19.04045,"best_beer":"Albino Rasta","best_beer_score":3.2125,"most_popular_beer":"Albino Rasta","popularity":2.0,"n_beers":2.0,"avg_abv":6.25,"max_abv":6.5},{"brewery":"Rothbeer Brewery","city":"Nagykov\u00e1csi","lat":47.65,"long":19.01667,"best_beer":"T\u00e1voli Galaxis","best_beer_score":3.6821052632,"most_popular_beer":"T\u00e1voli Galaxis","popularity":17.0,"n_beers":13.0,"avg_abv":6.4,"max_abv":7.5},{"brewery":"MONYO Brewing Co.","city":"Budapest","lat":47.49835,"long":19.04045,"best_beer":"Balkezes Hopster Nyilv\u00e1n IPA","best_beer_score":3.7671428571,"most_popular_beer":"Flying Rabbit AIPA","popularity":10.0,"n_beers":38.0,"avg_abv":7.1842105263,"max_abv":13.0},{"brewery":"Maltman","city":"Budapest","lat":47.49835,"long":19.04045,"best_beer":"American Wheat Ale","best_beer_score":3.0566666667,"most_popular_beer":"American Single Hop IPA","popularity":1.0,"n_beers":6.0,"avg_abv":4.95,"max_abv":5.5},{"brewery":"Hedon S\u00f6rf\u0151zde","city":"Budapest","lat":47.49835,"long":19.04045,"best_beer":"Credo","best_beer_score":3.5971428571,"most_popular_beer":"Credo","popularity":5.0,"n_beers":6.0,"avg_abv":5.1833333333,"max_abv":6.0},{"brewery":"Reketye S\u00f6rf\u0151zde","city":"Nagytarcsa","lat":47.53128,"long":19.28343,"best_beer":"Lacto Acid Gose","best_beer_score":3.07,"most_popular_beer":"BUPA Budapest Pale Ale","popularity":1.0,"n_beers":8.0,"avg_abv":5.4375,"max_abv":8.0},{"brewery":"Horizont S\u00f6r\u00f6k","city":"Budapest","lat":47.49835,"long":19.04045,"best_beer":"India Pale Ale","best_beer_score":3.5955555556,"most_popular_beer":"India Pale Ale","popularity":7.0,"n_beers":21.0,"avg_abv":5.8952380952,"max_abv":10.5},{"brewery":"Borsodi Brewery","city":"B\u00f5cs","lat":48.0385461,"long":20.9716444,"best_beer":"Borsodi Bivaly","best_beer_score":2.9906666667,"most_popular_beer":"Borsodi","popularity":31.0,"n_beers":13.0,"avg_abv":3.8,"max_abv":6.5},{"brewery":"Mad Scientist Beer","city":"Budapest","lat":47.49835,"long":19.04045,"best_beer":"Smooth Hoperator","best_beer_score":3.564,"most_popular_beer":"Jam 72","popularity":4.0,"n_beers":26.0,"avg_abv":6.7961538462,"max_abv":13.2},{"brewery":"BREW!Studio","city":"Budapest","lat":47.49835,"long":19.04045,"best_beer":"Hara'punk Son Of A Bitch Imperial IPA","best_beer_score":3.12,"most_popular_beer":"Hara'punk Son Of A Bitch Imperial IPA","popularity":2.0,"n_beers":2.0,"avg_abv":6.35,"max_abv":8.2},{"brewery":"Brew Your Mind","city":"Szeksz\u00e1rd","lat":46.35014,"long":18.70905,"best_beer":"Parallel Dimension","best_beer_score":3.3875,"most_popular_beer":"Parallel Dimension","popularity":2.0,"n_beers":9.0,"avg_abv":6.5333333333,"max_abv":8.2},{"brewery":"Dimbo Lab","city":"Budapest","lat":47.49835,"long":19.04045,"best_beer":"Black Currant Sour Milkshake Gose","best_beer_score":2.98,"most_popular_beer":"Black Currant Sour Milkshake Gose","popularity":1.0,"n_beers":1.0,"avg_abv":6.2,"max_abv":6.2},{"brewery":"Cervisia Kft. - Gy\u0151rz\u00e1molyi Serf\u0151zde","city":"Gy\u0151rz\u00e1moly","lat":47.7404316,"long":17.5788417,"best_beer":"Bors Anonymus","best_beer_score":3.27,"most_popular_beer":"Bors Sherwood Ale","popularity":10.0,"n_beers":8.0,"avg_abv":6.4375,"max_abv":7.5},{"brewery":"K\u00eds\u00e9rleti Ny\u00fal","city":"Budapest","lat":47.49835,"long":19.04045,"best_beer":"Feh\u00e9r Ny\u00fal Russian Imperial Stout","best_beer_score":2.9466666667,"most_popular_beer":"Feh\u00e9r Ny\u00fal IPA","popularity":2.0,"n_beers":4.0,"avg_abv":6.75,"max_abv":8.6},{"brewery":"Balkezes","city":"Budapest","lat":47.49835,"long":19.04045,"best_beer":"GreyJoy","best_beer_score":3.2,"most_popular_beer":"GreyJoy","popularity":3.0,"n_beers":4.0,"avg_abv":8.025,"max_abv":9.0},{"brewery":"Stari S\u00f6rfozde","city":"Tapolca","lat":46.88152,"long":17.44117,"best_beer":"Stari \u00cdr V\u00f6r\u00f6s","best_beer_score":2.9675,"most_popular_beer":"Stari \u00cdr V\u00f6r\u00f6s","popularity":2.0,"n_beers":3.0,"avg_abv":4.2,"max_abv":6.0},{"brewery":"Zip's Brewhouse","city":"Miskolc","lat":48.10306,"long":20.77806,"best_beer":"Bohemian Bamba","best_beer_score":2.9633333333,"most_popular_beer":"Bohemian Bamba","popularity":1.0,"n_beers":1.0,"avg_abv":4.5,"max_abv":4.5},{"brewery":"Rizmajer S\u00f6rf\u00f6zde","city":"Budapest","lat":47.49835,"long":19.04045,"best_beer":null,"best_beer_score":null,"most_popular_beer":null,"popularity":null,"n_beers":2.0,"avg_abv":6.5,"max_abv":6.5},{"brewery":"Beerfort S\u00f6rf\u0151zde","city":"Le\u00e1nyv\u00e1r","lat":47.6816948,"long":18.7710262,"best_beer":"IPA","best_beer_score":2.8833333333,"most_popular_beer":"IPA","popularity":1.0,"n_beers":2.0,"avg_abv":7.25,"max_abv":8.0},{"brewery":"Ilzer S\u00f6rgyar","city":"Monor","lat":47.35133,"long":19.44733,"best_beer":"Ilzer Superior","best_beer_score":2.89,"most_popular_beer":"Ilzer Sz\u00fcrt B\u00fazas\u00f6r","popularity":2.0,"n_beers":5.0,"avg_abv":4.88,"max_abv":5.0},{"brewery":"Gyerty\u00e1nos S\u00f6rf\u0151zde","city":"Miskolc","lat":48.10306,"long":20.77806,"best_beer":null,"best_beer_score":null,"most_popular_beer":null,"popularity":null,"n_beers":1.0,"avg_abv":5.5,"max_abv":5.5},{"brewery":"Kissler S\u00f6rf\u0151zde","city":"Domb\u00f3v\u00e1r","lat":46.37657,"long":18.13696,"best_beer":"Ninkasi","best_beer_score":2.9075,"most_popular_beer":"Ninkasi","popularity":2.0,"n_beers":1.0,"avg_abv":5.3,"max_abv":5.3},{"brewery":"Etyeki S\u00f6rmanufakt\u00fara","city":"Etyek-Botpuszta","lat":47.44794,"long":18.75328,"best_beer":"Etyek-IPA","best_beer_score":3.13,"most_popular_beer":"Etyek-IPA","popularity":1.0,"n_beers":1.0,"avg_abv":6.5,"max_abv":6.5},{"brewery":"Kapucinus S\u00f6rf\u0151zde","city":"Magyarhertelend","lat":46.0725,"long":18.23083,"best_beer":"Kapucinus Szepl\u0151telen","best_beer_score":2.93,"most_popular_beer":"Kapucinus Szepl\u0151telen","popularity":2.0,"n_beers":2.0,"avg_abv":5.75,"max_abv":7.2},{"brewery":"J\u00e4ger S\u00f6rf\u0151zde","city":"Orgov\u00e1ny","lat":46.75087,"long":19.47259,"best_beer":"Alakor Bios\u00f6r","best_beer_score":2.91,"most_popular_beer":"Alakor Bios\u00f6r","popularity":1.0,"n_beers":1.0,"avg_abv":4.3,"max_abv":4.3},{"brewery":"Rampa Kft.","city":"J\u00e1szd\u00f3zsa","lat":47.5661,"long":20.01534,"best_beer":"K\u00f6leses F\u00e9lbarna S\u00f6r Dupla","best_beer_score":3.126,"most_popular_beer":"K\u00f6leses F\u00e9lbarna S\u00f6r Dupla","popularity":3.0,"n_beers":1.0,"avg_abv":5.0,"max_abv":5.0},{"brewery":"Szarvasi K\u00e9zm\u0171ves S\u00f6rf\u0151zde","city":"Szarvas","lat":46.86667,"long":20.55,"best_beer":"K\u00fcl\u00f6nleges Vil\u00e1gos Fav\u00e1g\u00f3","best_beer_score":2.875,"most_popular_beer":"K\u00fcl\u00f6nleges Vil\u00e1gos Fav\u00e1g\u00f3","popularity":2.0,"n_beers":1.0,"avg_abv":5.1,"max_abv":5.1},{"brewery":"Kecskem\u00e9ti S\u00f6rmanufakt\u00fara","city":"Kecskem\u00e9t","lat":46.90618,"long":19.69128,"best_beer":null,"best_beer_score":null,"most_popular_beer":null,"popularity":null,"n_beers":1.0,"avg_abv":4.5,"max_abv":4.5}]