[{"brewery":"Birrificio Artigianale Lilium","city":"Signa (FI)","lat":43.7806931,"long":11.0964527,"best_beer":null,"best_beer_score":null,"most_popular_beer":null,"popularity":null,"n_beers":12.0,"avg_abv":6.3083333333,"max_abv":11.0},{"brewery":"La Caverna del Mastro Birraio","city":"Acireale","lat":37.60886,"long":15.16577,"best_beer":"Rossa","best_beer_score":2.7166666667,"most_popular_beer":"Bionda","popularity":2.0,"n_beers":4.0,"avg_abv":5.0,"max_abv":5.2},{"brewery":"Via Priula","city":"San Pellegrino Terme (BG)","lat":45.8382476,"long":9.6652356,"best_beer":"Dubec","best_beer_score":2.8933333333,"most_popular_beer":"Dubec","popularity":1.0,"n_beers":4.0,"avg_abv":6.325,"max_abv":8.5},{"brewery":"Gem's Brew Pub","city":"Lazise (VR)","lat":45.5052005,"long":10.7330245,"best_beer":"Rossa Gem\u0092s","best_beer_score":2.25,"most_popular_beer":"Rossa Gem\u0092s","popularity":1.0,"n_beers":1.0,"avg_abv":6.5,"max_abv":6.5},{"brewery":"Vento Forte","city":"Bracciano (RM)","lat":42.1010951,"long":12.1738573,"best_beer":"Follower","best_beer_score":3.6671428571,"most_popular_beer":"Follower","popularity":5.0,"n_beers":10.0,"avg_abv":6.18,"max_abv":10.5},{"brewery":"Birra Amiata","city":"Arcidosso (GR)","lat":42.87162,"long":11.53599,"best_beer":"Contessa","best_beer_score":3.9121176471,"most_popular_beer":"Contessa","popularity":83.0,"n_beers":33.0,"avg_abv":6.2515151515,"max_abv":11.0},{"brewery":"Birreria San Gabriel","city":"Busco Di Ponte Di Piave (TV)","lat":45.78114,"long":12.49442,"best_beer":"San Gabriel Ambra Rossa Di Treviso","best_beer_score":3.3285714286,"most_popular_beer":"San Gabriel Ambra Rossa Di Treviso","popularity":12.0,"n_beers":7.0,"avg_abv":5.3285714286,"max_abv":5.5},{"brewery":"Birreria Pedavena","city":"Pedavena (BL)","lat":46.0396242,"long":11.8804327,"best_beer":"Superior Pils","best_beer_score":3.15,"most_popular_beer":"Pedavena Birra Delle Dolomiti","popularity":30.0,"n_beers":16.0,"avg_abv":5.80625,"max_abv":8.0},{"brewery":"Birrificio Artigianale Zimella","city":"Bagno Di Reggio Emilia","lat":44.6497636,"long":10.746090677,"best_beer":"Carbone","best_beer_score":2.73,"most_popular_beer":"Carbone","popularity":1.0,"n_beers":2.0,"avg_abv":5.4,"max_abv":5.8},{"brewery":"Birrificio L'Olmaia","city":"S. Albino - Montepulciano (SI)","lat":43.09998,"long":11.78704,"best_beer":"BK","best_beer_score":3.5669230769,"most_popular_beer":"L'Olmaia La 5","popularity":15.0,"n_beers":10.0,"avg_abv":6.0,"max_abv":8.0},{"brewery":"Birra Cerqua","city":"Bologna","lat":44.49381,"long":11.33875,"best_beer":null,"best_beer_score":null,"most_popular_beer":null,"popularity":null,"n_beers":17.0,"avg_abv":5.6,"max_abv":6.6},{"brewery":"Paul-Bricius & Company","city":"Vittoria (RG)","lat":36.9514957,"long":14.5304867,"best_beer":"PB & C All Grain Special Ale","best_beer_score":3.1116666667,"most_popular_beer":"PB & C Red Strong Ale","popularity":4.0,"n_beers":3.0,"avg_abv":6.8333333333,"max_abv":7.0},{"brewery":"Birra Moretti (Heineken)","city":"Udine","lat":46.0693,"long":13.23715,"best_beer":"Birra Moretti La Rossa","best_beer_score":3.6296260786,"most_popular_beer":"Birra Moretti","popularity":1401.0,"n_beers":21.0,"avg_abv":5.3404761905,"max_abv":8.0},{"brewery":"Pian Della Mussa Acque Minerali","city":"Balme","lat":45.30192,"long":7.21937,"best_beer":"Bionda Di Montagna","best_beer_score":2.8633333333,"most_popular_beer":"Bionda Di Montagna","popularity":1.0,"n_beers":2.0,"avg_abv":5.4,"max_abv":5.7},{"brewery":"Birrificio Menaresta","city":"Carate Brianza (MI)","lat":45.6765494,"long":9.2371619,"best_beer":"22 La Verguenza","best_beer_score":3.76,"most_popular_beer":"2 Di Picche","popularity":6.0,"n_beers":14.0,"avg_abv":5.6142857143,"max_abv":7.5},{"brewery":"Grado Plato","city":"Chieri (TO)","lat":45.0138842,"long":7.8223544,"best_beer":"Cantus Caeli","best_beer_score":3.7530769231,"most_popular_beer":"Chocarrubica","popularity":81.0,"n_beers":13.0,"avg_abv":6.7307692308,"max_abv":10.5},{"brewery":"Castello Di Udine S.p.A.","city":"San Giorgio di Nogaro","lat":45.82745,"long":13.21088,"best_beer":"Castello Rossa","best_beer_score":3.2023529412,"most_popular_beer":"Castello Birra Italiana \/ Friulana Blonda","popularity":91.0,"n_beers":29.0,"avg_abv":5.0517241379,"max_abv":6.7},{"brewery":"Birrificio Angelo Poretti","city":"Induno Olona","lat":45.84571,"long":8.84056,"best_beer":"6 Luppoli Bock Rossa","best_beer_score":3.104,"most_popular_beer":"4 Luppoli Originale","popularity":3.0,"n_beers":20.0,"avg_abv":5.785,"max_abv":7.0},{"brewery":"LoverBeer","city":"Marentino (TO)","lat":45.058032,"long":7.8746227,"best_beer":"Nebiulin-a","best_beer_score":4.0505882353,"most_popular_beer":"Madamin","popularity":166.0,"n_beers":19.0,"avg_abv":6.7421052632,"max_abv":8.5},{"brewery":"Birra Peroni Industriale S.p.A.","city":"Roma","lat":41.98822,"long":13.06799,"best_beer":"Gran Riserva Doppio Malto","best_beer_score":3.29,"most_popular_beer":"Peroni Nastro Azzurro","popularity":2090.0,"n_beers":15.0,"avg_abv":4.92,"max_abv":8.0},{"brewery":"Black Barrels Beer","city":"Torino (TO)","lat":45.09622,"long":7.366,"best_beer":"Yellow Doctor","best_beer_score":4.0372727273,"most_popular_beer":"Yellow Doctor","popularity":9.0,"n_beers":3.0,"avg_abv":5.9666666667,"max_abv":6.5},{"brewery":"Birrificio Hibu","city":"Cornate D'Adda (MI)","lat":45.6466993,"long":9.4659391,"best_beer":"Trhibu","best_beer_score":3.5571428571,"most_popular_beer":"Trhibu","popularity":5.0,"n_beers":12.0,"avg_abv":6.5583333333,"max_abv":9.5},{"brewery":"Birrificio Lariano","city":"Dolzago (LC)","lat":45.76698,"long":9.339345,"best_beer":"Red Nuance","best_beer_score":3.1666666667,"most_popular_beer":"Falesia","popularity":5.0,"n_beers":45.0,"avg_abv":5.78,"max_abv":9.0},{"brewery":"Birrificio Barley","city":"Maracalagonis (CA)","lat":39.28534,"long":9.229446,"best_beer":"BB Dexi","best_beer_score":3.7957142857,"most_popular_beer":"BB10","popularity":22.0,"n_beers":17.0,"avg_abv":7.6411764706,"max_abv":10.0},{"brewery":"Pratorosso","city":"Settala (MI)","lat":45.4544127,"long":9.3867659,"best_beer":"Rossa","best_beer_score":3.258,"most_popular_beer":"Gaita","popularity":4.0,"n_beers":8.0,"avg_abv":6.9625,"max_abv":10.0},{"brewery":"Birrificio Del Ducato","city":"Roncole Verdi Di Busseto (PR)","lat":44.9794,"long":10.04331,"best_beer":"Baciami Lipsia (Kiss My Lips)","best_beer_score":4.101875,"most_popular_beer":"Verdi Imperial Stout","popularity":289.0,"n_beers":52.0,"avg_abv":6.5923076923,"max_abv":13.0},{"brewery":"Br'hant","city":"Pietragalla (PZ)","lat":40.7475222,"long":15.8806483,"best_beer":"Ninco Nanco","best_beer_score":2.53,"most_popular_beer":"Ninco Nanco","popularity":1.0,"n_beers":3.0,"avg_abv":6.8333333333,"max_abv":8.0},{"brewery":"Rienzbr\u00e4u","city":"Brunico - Bruneck (BZ)","lat":46.794706,"long":11.9297925,"best_beer":null,"best_beer_score":null,"most_popular_beer":null,"popularity":null,"n_beers":12.0,"avg_abv":5.7333333333,"max_abv":7.5},{"brewery":"Naxos Beer Company S.R.L.","city":"Mazara Del Vallo (TP)","lat":37.6537292,"long":12.5886912,"best_beer":"Naxos Lager Beer","best_beer_score":2.3566666667,"most_popular_beer":"Naxos Lager Beer","popularity":1.0,"n_beers":1.0,"avg_abv":5.2,"max_abv":5.2},{"brewery":"CR\/AK Brewery","city":"Campodarsego","lat":45.49815,"long":11.92194,"best_beer":"NEIPA","best_beer_score":3.6914285714,"most_popular_beer":"Guerilla","popularity":6.0,"n_beers":37.0,"avg_abv":7.2810810811,"max_abv":13.0},{"brewery":"Birrificio Antoniano","city":"Localit\u00e0 Produttiva Ronchi","lat":45.60489,"long":10.79518,"best_beer":"Birra Antoniana Marechiaro","best_beer_score":3.3436363636,"most_popular_beer":"Birra Antoniana","popularity":17.0,"n_beers":18.0,"avg_abv":5.4666666667,"max_abv":7.2},{"brewery":"Birrificio Montelupo","city":"Montelupo Fiorentino","lat":43.72958,"long":11.00997,"best_beer":"Turbone","best_beer_score":2.9566666667,"most_popular_beer":"Castello 1203","popularity":6.0,"n_beers":7.0,"avg_abv":5.1857142857,"max_abv":8.5},{"brewery":"Birrificio Montegioco","city":"Montegioco (Al)","lat":44.841776,"long":8.9630083,"best_beer":"Quarta Runa","best_beer_score":3.9911290323,"most_popular_beer":"Demon Hunter","popularity":73.0,"n_beers":23.0,"avg_abv":7.4565217391,"max_abv":11.0},{"brewery":"Birrificio Le Baladin","city":"Piozzo","lat":44.51384,"long":7.89254,"best_beer":"Xyauy\u00f9 Barrel","best_beer_score":4.3772413793,"most_popular_beer":"Baladin Nora","popularity":356.0,"n_beers":70.0,"avg_abv":8.3057142857,"max_abv":14.0},{"brewery":"Oldo","city":"Reggio nell'Emilia","lat":44.69825,"long":10.63125,"best_beer":"Trentalegni","best_beer_score":3.176,"most_popular_beer":"Trentalegni","popularity":3.0,"n_beers":5.0,"avg_abv":6.0,"max_abv":7.0},{"brewery":"Canediguerra","city":"Alessandria (AL)","lat":44.9129225,"long":8.615321,"best_beer":"Double IPA","best_beer_score":3.625,"most_popular_beer":"American IPA","popularity":6.0,"n_beers":17.0,"avg_abv":5.9411764706,"max_abv":9.5},{"brewery":"Mostodolce","city":"Prato (Po)","lat":43.880598,"long":11.0969262,"best_beer":"Martellina","best_beer_score":3.6845454545,"most_popular_beer":"Martellina","popularity":9.0,"n_beers":14.0,"avg_abv":5.3214285714,"max_abv":7.3},{"brewery":"Buskers Beer","city":"Roma","lat":41.98822,"long":13.06799,"best_beer":"Peacemaker","best_beer_score":2.8166666667,"most_popular_beer":"Peacemaker","popularity":1.0,"n_beers":14.0,"avg_abv":6.5571428571,"max_abv":8.9},{"brewery":"Microbirrificio Un Terzo","city":"Candelo (BI)","lat":45.5462084,"long":8.1125991,"best_beer":null,"best_beer_score":null,"most_popular_beer":null,"popularity":null,"n_beers":14.0,"avg_abv":6.8071428571,"max_abv":13.0},{"brewery":"Birracrua","city":"Vicenza","lat":45.54672,"long":11.5475,"best_beer":null,"best_beer_score":null,"most_popular_beer":null,"popularity":null,"n_beers":7.0,"avg_abv":5.8714285714,"max_abv":7.0},{"brewery":"Soralama'","city":"Vaie Torino","lat":45.102344,"long":7.289413,"best_beer":"Slurp!","best_beer_score":3.2271428571,"most_popular_beer":"Slurp!","popularity":5.0,"n_beers":10.0,"avg_abv":6.07,"max_abv":8.1},{"brewery":"Ivan Borsato Birraio","city":"Camal\u00f2 Treviso","lat":45.7519328,"long":12.1702049,"best_beer":null,"best_beer_score":null,"most_popular_beer":null,"popularity":null,"n_beers":2.0,"avg_abv":5.25,"max_abv":5.5},{"brewery":"Birrificio Civale","city":"Spinetta Marengo (AL)","lat":44.8861753,"long":8.6829041,"best_beer":"Tempore","best_beer_score":3.6016666667,"most_popular_beer":"Tempore","popularity":4.0,"n_beers":9.0,"avg_abv":5.9222222222,"max_abv":7.5},{"brewery":"Birrificio Della Granda","city":"Lagnasco","lat":44.62504,"long":7.55483,"best_beer":"SpirituAle","best_beer_score":3.155,"most_popular_beer":"La Granda Xtra IPA","popularity":2.0,"n_beers":14.0,"avg_abv":6.7357142857,"max_abv":12.5},{"brewery":"Birrificio Artigianale The Wall","city":"Venegono Inferiore","lat":45.73569,"long":8.89545,"best_beer":"Fire Witch","best_beer_score":3.255,"most_popular_beer":"Fire Witch","popularity":2.0,"n_beers":6.0,"avg_abv":6.7333333333,"max_abv":8.7},{"brewery":"White Pony Microbrewery","city":"Piove di Sacco","lat":45.31735,"long":12.00941,"best_beer":"The Oracle","best_beer_score":4.0677777778,"most_popular_beer":"Zumbi","popularity":26.0,"n_beers":59.0,"avg_abv":11.1084745763,"max_abv":16.0},{"brewery":"Birrificio Svevo","city":"Bari","lat":41.12066,"long":16.86982,"best_beer":"Closse Roma","best_beer_score":3.0275,"most_popular_beer":"Closse Roma","popularity":2.0,"n_beers":6.0,"avg_abv":6.6833333333,"max_abv":7.5},{"brewery":"Terza Rima","city":"Ancona (AN)","lat":43.6170137,"long":13.5170982,"best_beer":"Dannata","best_beer_score":2.9166666667,"most_popular_beer":"Impetuosa","popularity":1.0,"n_beers":8.0,"avg_abv":6.7625,"max_abv":9.0},{"brewery":"Birra dell'Eremo","city":"Foligno (PG)","lat":42.9561825,"long":12.703334,"best_beer":"Fiera","best_beer_score":3.362,"most_popular_beer":"Fiera","popularity":8.0,"n_beers":11.0,"avg_abv":6.2363636364,"max_abv":10.8},{"brewery":"Heineken Italia SpA","city":"Milano","lat":45.46427,"long":9.18951,"best_beer":"Ichnusa Non Filtrata","best_beer_score":2.9638461538,"most_popular_beer":"Ichnusa","popularity":50.0,"n_beers":14.0,"avg_abv":5.3928571429,"max_abv":9.0},{"brewery":"Bi-Du","city":"Olgiate Comasco","lat":45.78436,"long":8.96816,"best_beer":"Di Bi-Du","best_beer_score":3.0675,"most_popular_beer":"Black Mamba","popularity":2.0,"n_beers":8.0,"avg_abv":6.05,"max_abv":9.0},{"brewery":"Amarcord Birra Artigianale Italiana","city":"Rimini","lat":44.05755,"long":12.56528,"best_beer":"AMA Mora","best_beer_score":3.8811111111,"most_popular_beer":"AMA Bionda","popularity":93.0,"n_beers":32.0,"avg_abv":6.54375,"max_abv":10.0},{"brewery":"Rebel's Microbrewery","city":"Roma","lat":41.98822,"long":13.06799,"best_beer":"Tropical Bomb","best_beer_score":3.4371428571,"most_popular_beer":"Tropical Bomb","popularity":5.0,"n_beers":9.0,"avg_abv":5.7444444444,"max_abv":8.0},{"brewery":"Birrificio Artigiano - Orzo Bruno","city":"Pisa","lat":43.70853,"long":10.4036,"best_beer":"Yeti","best_beer_score":2.8333333333,"most_popular_beer":"Birra Al Farro","popularity":2.0,"n_beers":6.0,"avg_abv":6.5166666667,"max_abv":8.0},{"brewery":"Birrificio Lungo Sorso","city":"Nole (TO)","lat":45.243991,"long":7.5727518,"best_beer":null,"best_beer_score":null,"most_popular_beer":null,"popularity":null,"n_beers":13.0,"avg_abv":6.5461538462,"max_abv":9.0},{"brewery":"Birranova","city":"Triggianello (BA)","lat":40.9259624,"long":17.1684286,"best_beer":"Linfa","best_beer_score":3.0375,"most_popular_beer":"Linfa","popularity":2.0,"n_beers":12.0,"avg_abv":6.8833333333,"max_abv":10.0},{"brewery":"White Dog Brewery","city":"Rocchetta Di Guiglia (MO)","lat":44.4201382,"long":10.941148,"best_beer":"White Dog Boot Hill","best_beer_score":3.195,"most_popular_beer":"Porter Wagoner","popularity":3.0,"n_beers":7.0,"avg_abv":5.7285714286,"max_abv":7.0},{"brewery":"BABB Srl","city":"Manerbio (BS)","lat":45.355777,"long":10.13517,"best_beer":"Rubinia","best_beer_score":2.7625,"most_popular_beer":"Omnia","popularity":2.0,"n_beers":6.0,"avg_abv":6.0,"max_abv":7.0},{"brewery":"Brauerei Antonius","city":"V\u00f6ls Am Schlern - Fi\u00e8 Allo Sciliar","lat":46.517598,"long":11.5026136,"best_beer":null,"best_beer_score":null,"most_popular_beer":null,"popularity":null,"n_beers":6.0,"avg_abv":4.35,"max_abv":5.0},{"brewery":"Birrificio Artigianale Foglie D\u00b4Erba","city":"Forni Di Sopra (UD)","lat":46.4202272,"long":12.5855959,"best_beer":"Hopfelia","best_beer_score":3.6957142857,"most_popular_beer":"Hopfelia","popularity":5.0,"n_beers":11.0,"avg_abv":7.7272727273,"max_abv":12.5},{"brewery":"'A Magara","city":"Nocera Terinese","lat":39.03474,"long":16.16737,"best_beer":"Trupija","best_beer_score":3.0466666667,"most_popular_beer":"Jumara","popularity":2.0,"n_beers":6.0,"avg_abv":6.2666666667,"max_abv":8.0},{"brewery":"Agribirrificio Luppolajo","city":"Castel Goffredo (MN)","lat":45.2952784,"long":10.4729815,"best_beer":"Bucolica","best_beer_score":2.9566666667,"most_popular_beer":"Rosae","popularity":1.0,"n_beers":4.0,"avg_abv":6.1,"max_abv":8.0},{"brewery":"Birra Toccalmatto","city":"Fidenza (PR)","lat":44.866522,"long":10.0611939,"best_beer":"Zona Cesarini","best_beer_score":3.9912087912,"most_popular_beer":"Zona Cesarini","popularity":89.0,"n_beers":53.0,"avg_abv":7.7169811321,"max_abv":12.0},{"brewery":"Brasseria Della Fonte Di Cesaroni Samuele","city":"Pienza (SI)","lat":43.0765459,"long":11.6789076,"best_beer":"Imperial Stout Raven & Demise","best_beer_score":3.3225,"most_popular_beer":"Imperial Stout Raven & Demise","popularity":2.0,"n_beers":3.0,"avg_abv":7.2,"max_abv":10.0},{"brewery":"Birrificio Lodigiano","city":"Casalpusterlengo (LO)","lat":45.1793292,"long":9.6483958,"best_beer":"La Garibaldina","best_beer_score":2.5,"most_popular_beer":"Oktober Chest","popularity":2.0,"n_beers":2.0,"avg_abv":7.25,"max_abv":7.5},{"brewery":"Birrificio e birreria Turbacci","city":"Mentana","lat":42.03539,"long":12.64413,"best_beer":"Quinn","best_beer_score":3.0533333333,"most_popular_beer":"Strong Ale","popularity":1.0,"n_beers":13.0,"avg_abv":6.4384615385,"max_abv":10.0},{"brewery":"La Petrognola","city":"Piazza Al Serchio (LU)","lat":44.183484,"long":10.3009238,"best_beer":"La Petrognola Ambrata AL Farro","best_beer_score":3.5828571429,"most_popular_beer":"La Petrognola Ambrata AL Farro","popularity":5.0,"n_beers":15.0,"avg_abv":6.24,"max_abv":8.0},{"brewery":"Birrifico San Gimignano","city":"San Gimignano (SI)","lat":43.4677993,"long":11.0432115,"best_beer":"Durovernum","best_beer_score":2.9233333333,"most_popular_beer":"Errante","popularity":1.0,"n_beers":6.0,"avg_abv":5.75,"max_abv":8.0},{"brewery":"Hordeum","city":"Novara (NO)","lat":45.4464036,"long":8.619655,"best_beer":"Iside","best_beer_score":3.0066666667,"most_popular_beer":"Iside","popularity":1.0,"n_beers":11.0,"avg_abv":6.6090909091,"max_abv":8.7},{"brewery":"Birradamare SRL","city":"Fiumicino","lat":41.77093,"long":12.23662,"best_beer":"'Na Biretta Nera","best_beer_score":3.6242857143,"most_popular_beer":"'Na Biretta Nera","popularity":12.0,"n_beers":13.0,"avg_abv":5.9461538462,"max_abv":10.0},{"brewery":"Theresianer HTS 1892 Spa","city":"Nervesa Della Battaglia, Treviso","lat":45.8253685,"long":12.2092015,"best_beer":"Strong Ale","best_beer_score":3.5986666667,"most_popular_beer":"Vienna","popularity":35.0,"n_beers":9.0,"avg_abv":5.9111111111,"max_abv":8.5},{"brewery":"Birrificio Italiano","city":"Lurago Marinone (CO)","lat":45.705775,"long":8.981338,"best_beer":"V\u00f9d\u00f9","best_beer_score":3.9730769231,"most_popular_beer":"Tipopils","popularity":106.0,"n_beers":27.0,"avg_abv":5.8481481481,"max_abv":9.5},{"brewery":"Rome Brewing Company","city":"Roma","lat":41.98822,"long":13.06799,"best_beer":"Starbess Strong Ale","best_beer_score":3.2775,"most_popular_beer":"Starbess Strong Ale","popularity":2.0,"n_beers":2.0,"avg_abv":14.2,"max_abv":16.0},{"brewery":"Birra Menabrea SpA","city":"Biella","lat":45.56304,"long":8.05796,"best_beer":"Menabrea Ambrata","best_beer_score":3.1823140496,"most_popular_beer":"Menabrea 1846","popularity":151.0,"n_beers":12.0,"avg_abv":5.025,"max_abv":7.5},{"brewery":"Brew Farmer","city":"Collebeato (BS)","lat":45.5813147,"long":10.2102711,"best_beer":"Tropicana","best_beer_score":2.4666666667,"most_popular_beer":"Tropicana","popularity":1.0,"n_beers":6.0,"avg_abv":5.1166666667,"max_abv":6.2},{"brewery":"Birrificio Troll","city":"Vernante (CN)","lat":44.245027,"long":7.533834,"best_beer":"Da\u00f9","best_beer_score":3.64,"most_popular_beer":"Shangrila","popularity":40.0,"n_beers":12.0,"avg_abv":7.6833333333,"max_abv":12.0},{"brewery":"Birrificio Del Forte","city":"Pietrasanta (LU)","lat":43.9589031,"long":10.2332031,"best_beer":"Meridiano \u00d8","best_beer_score":3.38,"most_popular_beer":"Meridiano \u00d8","popularity":3.0,"n_beers":6.0,"avg_abv":5.75,"max_abv":8.0},{"brewery":"Extraomnes","city":"Marnate (VA)","lat":45.62855,"long":8.90916,"best_beer":"Extraomnes \/ Stillwater Migdal Bavel","best_beer_score":4.0056451613,"most_popular_beer":"Extraomnes \/ Stillwater Migdal Bavel","popularity":60.0,"n_beers":33.0,"avg_abv":7.9912121212,"max_abv":13.5},{"brewery":"Birrificio Gjulia Agricola Artigianale Friulana","city":"Cividale del Friuli","lat":46.09019,"long":13.42861,"best_beer":"Ambrata Ovest Amber Ale","best_beer_score":3.248,"most_popular_beer":"IPA (Italia Pale Ale) Gjulia","popularity":6.0,"n_beers":7.0,"avg_abv":6.0714285714,"max_abv":8.0},{"brewery":"BirrOne","city":"Isola Vicentina (VI)","lat":45.6286685,"long":11.4431478,"best_beer":"Brusca","best_beer_score":3.175,"most_popular_beer":"Scubi","popularity":2.0,"n_beers":10.0,"avg_abv":5.4,"max_abv":7.5},{"brewery":"Mister B","city":"San Giorgio di Mantova (MN)","lat":45.1805304,"long":10.8717887,"best_beer":"Bamba","best_beer_score":3.1666666667,"most_popular_beer":"Mister B Bomba","popularity":3.0,"n_beers":9.0,"avg_abv":5.6888888889,"max_abv":8.2},{"brewery":"Birrificio Lambrate","city":"Milano","lat":45.46427,"long":9.18951,"best_beer":"Quarantot","best_beer_score":3.8707692308,"most_popular_beer":"Ghisa","popularity":20.0,"n_beers":27.0,"avg_abv":6.3296296296,"max_abv":11.0},{"brewery":"Birrificio Timilia","city":"Catania (CT)","lat":37.5022355,"long":15.08738,"best_beer":null,"best_beer_score":null,"most_popular_beer":null,"popularity":null,"n_beers":6.0,"avg_abv":5.3666666667,"max_abv":6.5},{"brewery":"Birrificio Felice","city":"San Felice del Benaco","lat":45.58276,"long":10.5538,"best_beer":"Delle Erbe","best_beer_score":2.64,"most_popular_beer":"Delle Erbe","popularity":1.0,"n_beers":4.0,"avg_abv":6.125,"max_abv":8.5},{"brewery":"Birrificio La Casa Di Cura","city":"Crognaleto (TE)","lat":42.587941,"long":13.48959,"best_beer":"Neuro","best_beer_score":2.75,"most_popular_beer":"Neuro","popularity":1.0,"n_beers":8.0,"avg_abv":7.2875,"max_abv":10.2},{"brewery":"Birrificio Emiliano","city":"Anzola Dell'emilia","lat":44.546367,"long":11.194608,"best_beer":"Jorgo Stout","best_beer_score":2.7,"most_popular_beer":"Jorgo Stout","popularity":1.0,"n_beers":1.0,"avg_abv":5.3,"max_abv":5.3},{"brewery":"Gassl Br\u00e4u","city":"Chiusa - Klausen (BZ)","lat":46.6427301,"long":11.5725738,"best_beer":null,"best_beer_score":null,"most_popular_beer":null,"popularity":null,"n_beers":5.0,"avg_abv":5.88,"max_abv":7.8},{"brewery":"Microbirrificio Birra Elvo","city":"Graglia (BI)","lat":45.558562,"long":7.978019,"best_beer":"Heller Bock","best_beer_score":3.0,"most_popular_beer":"Heller Bock","popularity":1.0,"n_beers":6.0,"avg_abv":6.0333333333,"max_abv":7.5},{"brewery":"Birrificio Pontino","city":"Latina (LT)","lat":46.42899,"long":11.53942,"best_beer":"Olim Palus IPA","best_beer_score":3.2575,"most_popular_beer":"More Uxorio","popularity":2.0,"n_beers":10.0,"avg_abv":6.46,"max_abv":9.0},{"brewery":"Brewfist","city":"Codogno (LO)","lat":45.16187,"long":9.70216,"best_beer":"Spaghetti Western - Grappa Barrel-Aged","best_beer_score":3.9689473684,"most_popular_beer":"Brewfist \/ Prairie Artisan Ales Spaghetti Western","popularity":632.0,"n_beers":37.0,"avg_abv":7.6135135135,"max_abv":14.5},{"brewery":"Birrificio San Michele","city":"Sant'Ambrogio di Torino","lat":45.09622,"long":7.366,"best_beer":"Aida","best_beer_score":3.318,"most_popular_beer":"Aida","popularity":3.0,"n_beers":13.0,"avg_abv":6.1,"max_abv":10.5},{"brewery":"Birra Godog","city":"Jesi","lat":43.52142,"long":13.24368,"best_beer":null,"best_beer_score":null,"most_popular_beer":null,"popularity":null,"n_beers":13.0,"avg_abv":5.9846153846,"max_abv":8.3},{"brewery":"Birrificio Finalese","city":"Finale Ligure Savona","lat":44.1689049,"long":8.3436524,"best_beer":null,"best_beer_score":null,"most_popular_beer":null,"popularity":null,"n_beers":10.0,"avg_abv":5.57,"max_abv":7.2},{"brewery":"Abbazia delle Tre Fontane","city":"Roma","lat":41.98822,"long":13.06799,"best_beer":"Birra Dei Monaci","best_beer_score":3.9433333333,"most_popular_beer":"Tre Fontane Tripel","popularity":79.0,"n_beers":2.0,"avg_abv":8.5,"max_abv":8.5},{"brewery":"Archea Brewey","city":"Firenze","lat":43.77925,"long":11.24626,"best_beer":"Melyssa","best_beer_score":3.5133333333,"most_popular_beer":"Hydra","popularity":7.0,"n_beers":5.0,"avg_abv":6.6,"max_abv":8.0},{"brewery":"Mastri Birrai Umbri","city":"Giano Dell'Umbria (PG)","lat":42.8334672,"long":12.5777111,"best_beer":"Cotta 21","best_beer_score":3.316875,"most_popular_beer":"Cotta 74","popularity":16.0,"n_beers":13.0,"avg_abv":6.0923076923,"max_abv":7.5},{"brewery":"Birrificio Del Golfo","city":"La Spezia","lat":44.103,"long":9.82375,"best_beer":"Skiara","best_beer_score":2.9666666667,"most_popular_beer":"Aloa Pacific IPA","popularity":1.0,"n_beers":4.0,"avg_abv":5.25,"max_abv":6.2},{"brewery":"K & L Birrificio Artigianale","city":"Santorso","lat":45.73383,"long":11.38785,"best_beer":"XHamster Beer","best_beer_score":3.3266666667,"most_popular_beer":"Special 3","popularity":1.0,"n_beers":8.0,"avg_abv":6.25,"max_abv":8.5},{"brewery":"Piccolo Birrificio Clandestino","city":"Livorno","lat":43.54427,"long":10.32615,"best_beer":"Cinque E Cinque","best_beer_score":3.558,"most_popular_beer":"PBC Montinera","popularity":3.0,"n_beers":10.0,"avg_abv":6.37,"max_abv":10.5},{"brewery":"Birrificio Artigianale Sognandobirra","city":"Oderzo","lat":45.78114,"long":12.49442,"best_beer":"Hoppitergium","best_beer_score":2.8533333333,"most_popular_beer":"Hoppitergium","popularity":1.0,"n_beers":6.0,"avg_abv":5.4333333333,"max_abv":6.8},{"brewery":"Birra Tenute Collesi SRL","city":"Apecchio (PU)","lat":43.558554,"long":12.420951,"best_beer":"Imper Ale Ubi Rossa","best_beer_score":3.7731372549,"most_popular_beer":"Imper Ale Ubi Rossa","popularity":49.0,"n_beers":10.0,"avg_abv":6.99,"max_abv":9.0},{"brewery":"Cervisia","city":"Serra Ricc\u00f2 (GE)","lat":44.5187134,"long":8.9516232,"best_beer":"Camallo IPA","best_beer_score":2.4675,"most_popular_beer":"Camallo IPA","popularity":2.0,"n_beers":1.0,"avg_abv":6.4,"max_abv":6.4},{"brewery":"Beba","city":"Villar Perosa (TO)","lat":44.9190563,"long":7.2502858,"best_beer":"Birra Di Natale","best_beer_score":3.741,"most_popular_beer":"Birra Di Natale","popularity":8.0,"n_beers":9.0,"avg_abv":6.0111111111,"max_abv":8.5},{"brewery":"Il Beerbante","city":"Colorno (PR)","lat":44.9265322,"long":10.377117,"best_beer":null,"best_beer_score":null,"most_popular_beer":null,"popularity":null,"n_beers":9.0,"avg_abv":5.9777777778,"max_abv":7.8},{"brewery":"Societ\u00e0 Agricola Colleverde","city":"Mercatale di Sassocorvaro","lat":43.7811928,"long":12.4862977,"best_beer":"La Cotta Marin\u00e9ra","best_beer_score":3.204,"most_popular_beer":"La Cotta Marin\u00e9ra","popularity":3.0,"n_beers":6.0,"avg_abv":5.2166666667,"max_abv":6.5},{"brewery":"Birrificio Bresciano Montenetto","city":"Brescia","lat":45.53558,"long":10.21472,"best_beer":"Lapy","best_beer_score":2.8133333333,"most_popular_beer":"Maddalena","popularity":4.0,"n_beers":3.0,"avg_abv":6.6,"max_abv":8.5},{"brewery":"Carlsberg Italia S.p.A.","city":"Lainate (MI)","lat":45.5717302,"long":9.028461,"best_beer":"Poretti 6 Luppoli Bock Rossa","best_beer_score":3.4838461538,"most_popular_beer":"Poretti Originale Chiara 4 Luppoli","popularity":35.0,"n_beers":21.0,"avg_abv":5.8047619048,"max_abv":7.0},{"brewery":"Birrificio Gambol\u00f2","city":"Gambol\u00f2 (PV)","lat":45.2590302,"long":8.8590602,"best_beer":"Dark Age","best_beer_score":2.9666666667,"most_popular_beer":"Dark Age","popularity":1.0,"n_beers":9.0,"avg_abv":5.9666666667,"max_abv":11.5},{"brewery":"Birrificio Di Cagliari","city":"Cagliari (CA)","lat":39.2169525,"long":9.1128513,"best_beer":"Santu Miali","best_beer_score":2.9166666667,"most_popular_beer":"Poetto","popularity":2.0,"n_beers":2.0,"avg_abv":5.85,"max_abv":6.5},{"brewery":"Birra Del Borgo","city":"Borgorose (Ri)","lat":42.1933543,"long":13.2338183,"best_beer":"Duchessic Ale","best_beer_score":4.1366096866,"most_popular_beer":"My Antonia (Birra Del Borgo & Dogfish Head)","popularity":396.0,"n_beers":67.0,"avg_abv":6.9253731343,"max_abv":16.0},{"brewery":"Croce Di Malto","city":"Trecate","lat":45.43399,"long":8.7364,"best_beer":"Piedi Neri","best_beer_score":3.6371428571,"most_popular_beer":"TripleXXX","popularity":9.0,"n_beers":9.0,"avg_abv":6.6777777778,"max_abv":8.1},{"brewery":"Birrificio Del Levante - Leone D'Oro","city":"Bitritto (BA)","lat":41.044532,"long":16.825185,"best_beer":"Eccellente - Serie Strong (Nastro Verde)","best_beer_score":3.1566666667,"most_popular_beer":"Nera Di Fichi - Imperial","popularity":1.0,"n_beers":4.0,"avg_abv":8.525,"max_abv":9.7},{"brewery":"Dodici Dodici Malto e Luppolo","city":"Lodi","lat":45.30989,"long":9.50085,"best_beer":"Palaboine","best_beer_score":2.8966666667,"most_popular_beer":"Mai Pora","popularity":1.0,"n_beers":4.0,"avg_abv":5.2,"max_abv":5.5},{"brewery":"BiRen Birrificio Renazzese","city":"Dosso (FE)","lat":44.7674471,"long":11.3337766,"best_beer":"BiRen Charlotte","best_beer_score":2.9166666667,"most_popular_beer":"BiRen Charlotte","popularity":1.0,"n_beers":2.0,"avg_abv":5.05,"max_abv":5.1},{"brewery":"Birrificio Sant'Andrea","city":"Vercelli (VC)","lat":45.3251557,"long":8.4227666,"best_beer":"Slaves & Bulldozers","best_beer_score":3.17,"most_popular_beer":"La Rossa Del Gallo","popularity":5.0,"n_beers":15.0,"avg_abv":6.2266666667,"max_abv":10.5},{"brewery":"Stavio","city":"Roma","lat":41.98822,"long":13.06799,"best_beer":null,"best_beer_score":null,"most_popular_beer":null,"popularity":null,"n_beers":13.0,"avg_abv":5.7384615385,"max_abv":9.2},{"brewery":"Birrificio Degli Archi","city":"Viareggio","lat":43.86693,"long":10.2502,"best_beer":"Regia","best_beer_score":3.1425,"most_popular_beer":"Regia","popularity":2.0,"n_beers":3.0,"avg_abv":5.7666666667,"max_abv":6.0},{"brewery":"Birrificio Ostiense Artigianale (BOA)","city":"Ostia Lido - Roma","lat":41.753654,"long":12.2857442224,"best_beer":"'na Biretta Nera","best_beer_score":3.7263636364,"most_popular_beer":"'na Biretta Rossa","popularity":21.0,"n_beers":7.0,"avg_abv":5.9,"max_abv":7.5},{"brewery":"Birra Arduini","city":"Cattolica","lat":43.96182,"long":12.73631,"best_beer":"Viola Bionda","best_beer_score":3.2928571429,"most_popular_beer":"Viola Bionda","popularity":5.0,"n_beers":3.0,"avg_abv":6.3666666667,"max_abv":6.9},{"brewery":"Vetra","city":"Caronno Pertusella (VA)","lat":45.59449385,"long":9.0465972135,"best_beer":"Vetra IPA","best_beer_score":2.9033333333,"most_popular_beer":"Vetra IPA","popularity":1.0,"n_beers":10.0,"avg_abv":5.87,"max_abv":7.7},{"brewery":"Birrificio Del Lago","city":"Sarnico Bergamo","lat":45.6701431,"long":9.9635127,"best_beer":"B. Mamba","best_beer_score":2.8433333333,"most_popular_beer":"Brasca","popularity":1.0,"n_beers":5.0,"avg_abv":5.58,"max_abv":6.5},{"brewery":"Birra Follina","city":"Follina (TV)","lat":45.951609,"long":12.119604,"best_beer":"La Follinetta","best_beer_score":3.0966666667,"most_popular_beer":"La Follinetta","popularity":1.0,"n_beers":3.0,"avg_abv":6.3333333333,"max_abv":8.0},{"brewery":"Corte Pilone","city":"Castellucchio (MN)","lat":45.147276,"long":10.648485,"best_beer":null,"best_beer_score":null,"most_popular_beer":null,"popularity":null,"n_beers":5.0,"avg_abv":5.08,"max_abv":5.6},{"brewery":"Tarricone S.p.A.","city":"Balvano (PZ)","lat":40.650315,"long":15.514161,"best_beer":"Birra Eko","best_beer_score":2.7266666667,"most_popular_beer":"Birra Morena Standard","popularity":6.0,"n_beers":6.0,"avg_abv":4.3666666667,"max_abv":5.8},{"brewery":"Birrificio Bacherotti","city":"Citt\u00e0 della Pieve (PG)","lat":42.9527338,"long":12.004326,"best_beer":"Giulia","best_beer_score":3.0725,"most_popular_beer":"Fluido 3\/5","popularity":4.0,"n_beers":4.0,"avg_abv":5.55,"max_abv":7.9},{"brewery":"Birrificio San Quirico","city":"San Quirico D'Orcia (SI)","lat":43.0593353,"long":11.6044087,"best_beer":"Giulitta","best_beer_score":2.97,"most_popular_beer":"Chiara","popularity":1.0,"n_beers":6.0,"avg_abv":5.25,"max_abv":6.0},{"brewery":"Hop Skin","city":"Curno","lat":45.68876,"long":9.60872,"best_beer":"American Sunset","best_beer_score":3.0,"most_popular_beer":"American Sunset","popularity":1.0,"n_beers":5.0,"avg_abv":5.5,"max_abv":7.0},{"brewery":"Officina Della Birra","city":"Bresso (MI)","lat":45.53668,"long":9.1877303,"best_beer":"Innah IPA","best_beer_score":2.8775,"most_popular_beer":"La Rossa Dell'Officina","popularity":2.0,"n_beers":8.0,"avg_abv":5.325,"max_abv":6.0},{"brewery":"Birrificio 26 Nero","city":"Poggibonsi (SI)","lat":43.4650284,"long":11.1483367,"best_beer":"Fedora","best_beer_score":2.7666666667,"most_popular_beer":"Fedora","popularity":1.0,"n_beers":9.0,"avg_abv":5.7111111111,"max_abv":8.3},{"brewery":"Birrificio La Piazza","city":"Torino (TO)","lat":45.09622,"long":7.366,"best_beer":"Chellerina","best_beer_score":2.7733333333,"most_popular_beer":"Turner","popularity":1.0,"n_beers":11.0,"avg_abv":5.5272727273,"max_abv":7.5},{"brewery":"Maltovivo","city":"Ponte (BN)","lat":41.214732,"long":14.6963272,"best_beer":"Noscia","best_beer_score":3.3471428571,"most_popular_beer":"Noscia","popularity":5.0,"n_beers":6.0,"avg_abv":6.3,"max_abv":7.6},{"brewery":"Befed","city":"Concesio (BS)","lat":45.605184,"long":10.216967,"best_beer":"Rossa Tipo Bock","best_beer_score":2.518,"most_popular_beer":"Rossa Tipo Bock","popularity":3.0,"n_beers":2.0,"avg_abv":5.9,"max_abv":6.5},{"brewery":"Birrificio Dada","city":"Correggio (RE)","lat":44.770561,"long":10.7797829,"best_beer":"Gatto Mao","best_beer_score":3.25,"most_popular_beer":"Gatto Mao","popularity":3.0,"n_beers":7.0,"avg_abv":5.6285714286,"max_abv":7.5},{"brewery":"Birrificio Otus","city":"Seriate (BG)","lat":45.6845152,"long":9.7183764,"best_beer":"O.Seven5","best_beer_score":2.5833333333,"most_popular_beer":"O.Seven5","popularity":1.0,"n_beers":1.0,"avg_abv":7.0,"max_abv":7.0},{"brewery":"L'Inconsueto - Birrificio Bustese","city":"Borsano Di Busto Arsizio (VA)","lat":45.5875604,"long":8.8542087,"best_beer":null,"best_beer_score":null,"most_popular_beer":null,"popularity":null,"n_beers":12.0,"avg_abv":5.8,"max_abv":8.0},{"brewery":"Birrificio Valcavallina","city":"Endine Gaiano (BG)","lat":45.792486,"long":9.969058,"best_beer":"Dark Side","best_beer_score":3.245,"most_popular_beer":"Alba Rossa","popularity":2.0,"n_beers":10.0,"avg_abv":5.45,"max_abv":8.6},{"brewery":"La Vallescura","city":"Piozzano","lat":44.92533,"long":9.49559,"best_beer":"Pociuo","best_beer_score":2.9333333333,"most_popular_beer":"Pociuo","popularity":1.0,"n_beers":1.0,"avg_abv":6.0,"max_abv":6.0},{"brewery":"Birrificio Mazap\u00e8gul","city":"Civitella Di Romagna (FC)","lat":43.83546,"long":11.96016,"best_beer":null,"best_beer_score":null,"most_popular_beer":null,"popularity":null,"n_beers":15.0,"avg_abv":5.68,"max_abv":8.0},{"brewery":"Birrificio Ritual Lab","city":"Formello","lat":42.06246,"long":12.39435,"best_beer":"Tupamaros","best_beer_score":3.402,"most_popular_beer":"Tupamaros","popularity":3.0,"n_beers":5.0,"avg_abv":6.22,"max_abv":8.0},{"brewery":"Bibibir","city":"Castellalto","lat":42.67705,"long":13.82101,"best_beer":"White IPA","best_beer_score":3.29,"most_popular_beer":"White IPA","popularity":2.0,"n_beers":15.0,"avg_abv":7.4466666667,"max_abv":11.4},{"brewery":"MC77 Birrificio Artigianale","city":"Caccamo di Serrapetrona (MC)","lat":43.1472936,"long":13.2086672,"best_beer":"Velvet Suit","best_beer_score":3.0833333333,"most_popular_beer":"Ape Regina","popularity":1.0,"n_beers":10.0,"avg_abv":5.54,"max_abv":7.2},{"brewery":"Birreria Blues","city":"Cividate Al Piano (BG)","lat":45.554879,"long":9.83096,"best_beer":"Blues Bionda Doppio Malto","best_beer_score":2.55,"most_popular_beer":"Blues Bionda Doppio Malto","popularity":1.0,"n_beers":4.0,"avg_abv":7.0,"max_abv":9.0},{"brewery":"Lucky Brews","city":"Montecchio Maggiore","lat":45.50369,"long":11.412,"best_beer":"JAPA","best_beer_score":3.08,"most_popular_beer":"JAPA","popularity":4.0,"n_beers":4.0,"avg_abv":6.025,"max_abv":7.5},{"brewery":"Microbirrificio Lara","city":"Tertenia","lat":39.69518,"long":9.57878,"best_beer":"Eja Rossa","best_beer_score":3.12,"most_popular_beer":"Rubja","popularity":2.0,"n_beers":14.0,"avg_abv":5.5571428571,"max_abv":9.0},{"brewery":"BAdeF","city":"Passirano (BS)","lat":45.599487,"long":10.0649179,"best_beer":"D'Ora","best_beer_score":2.7,"most_popular_beer":"Petra","popularity":1.0,"n_beers":7.0,"avg_abv":5.6571428571,"max_abv":7.0},{"brewery":"Dom Byron Beer","city":"Clusone","lat":45.88663,"long":9.94646,"best_beer":"Icarus","best_beer_score":2.7866666667,"most_popular_beer":"Icarus","popularity":1.0,"n_beers":1.0,"avg_abv":4.8,"max_abv":4.8},{"brewery":"Birrificio Legnone","city":"Dubino (SO)","lat":46.1533428,"long":9.4615119,"best_beer":"Milf Passion","best_beer_score":2.5666666667,"most_popular_beer":"Spiga Di Legno","popularity":1.0,"n_beers":2.0,"avg_abv":6.0,"max_abv":7.0},{"brewery":"Prodel S.r.l","city":"Maida (Cz)","lat":38.82811,"long":16.31344,"best_beer":"Birra Del Vecchio Calabrese","best_beer_score":3.2846153846,"most_popular_beer":"Birra Del Vecchio Calabrese","popularity":11.0,"n_beers":2.0,"avg_abv":4.55,"max_abv":4.7},{"brewery":"Giratempopub","city":"Sant'albano Stura","lat":44.508934,"long":7.722333,"best_beer":"Yule","best_beer_score":2.8833333333,"most_popular_beer":"Albina","popularity":1.0,"n_beers":10.0,"avg_abv":5.98,"max_abv":8.5},{"brewery":"Birrificio F.lli Trami","city":"Capriano Del Colle (BS)","lat":45.4548691,"long":10.1303478,"best_beer":"Bleis","best_beer_score":2.7766666667,"most_popular_beer":"Bleis","popularity":1.0,"n_beers":6.0,"avg_abv":5.7,"max_abv":7.3},{"brewery":"Birrificio Sorrento","city":"Massa Lubrense Napoli","lat":40.6110361,"long":14.3450889,"best_beer":"Elea","best_beer_score":2.8833333333,"most_popular_beer":"Elea","popularity":1.0,"n_beers":4.0,"avg_abv":6.05,"max_abv":7.5},{"brewery":"Birrificio Leonessa","city":"Botticino (BS)","lat":45.5432619,"long":10.3231835,"best_beer":"Bacco Perbacco","best_beer_score":2.5733333333,"most_popular_beer":"Bacco Perbacco","popularity":1.0,"n_beers":1.0,"avg_abv":6.0,"max_abv":6.0},{"brewery":"I Due Mastri","city":"Prato","lat":46.37364,"long":13.30659,"best_beer":"Guru Pale Ale","best_beer_score":3.4057142857,"most_popular_beer":"Guru Pale Ale","popularity":5.0,"n_beers":4.0,"avg_abv":4.875,"max_abv":6.5},{"brewery":"Bad Guy Brewery","city":"Pavia","lat":45.19205,"long":9.15917,"best_beer":"Rocket Queen","best_beer_score":2.84,"most_popular_beer":"Notte Imbecille","popularity":1.0,"n_beers":7.0,"avg_abv":5.6,"max_abv":7.5},{"brewery":"Birra Ofelia","city":"Sovizzo","lat":45.52669,"long":11.4461,"best_beer":"Uill Iu Bai","best_beer_score":3.0,"most_popular_beer":"Diversamente Bionda","popularity":1.0,"n_beers":4.0,"avg_abv":5.075,"max_abv":5.6},{"brewery":"Brauhotel Martinerhof","city":"St. Martin in Passeier","lat":46.78392,"long":11.22727,"best_beer":null,"best_beer_score":null,"most_popular_beer":null,"popularity":null,"n_beers":2.0,"avg_abv":5.5,"max_abv":6.0},{"brewery":"Birrificio Apuano","city":"Massa (MS)","lat":44.0359323,"long":10.1395519,"best_beer":"Lupus","best_beer_score":2.8066666667,"most_popular_beer":"Lupus","popularity":1.0,"n_beers":18.0,"avg_abv":5.7277777778,"max_abv":8.5},{"brewery":"Birrificio Artigianale Math","city":"San Donato (FI)","lat":43.6187816,"long":10.9686097,"best_beer":"La 68","best_beer_score":3.0333333333,"most_popular_beer":"La 68","popularity":1.0,"n_beers":5.0,"avg_abv":6.4,"max_abv":8.0},{"brewery":"Free Lions Brewery","city":"Tuscania","lat":42.41889,"long":11.86846,"best_beer":"MADdek\u00e8","best_beer_score":3.105,"most_popular_beer":"MADdek\u00e8","popularity":4.0,"n_beers":4.0,"avg_abv":6.225,"max_abv":8.2},{"brewery":"Sidrobirrificio Melchiori","city":"Termon (TN)","lat":46.2699123,"long":11.0354207,"best_beer":"Roen","best_beer_score":2.8466666667,"most_popular_beer":"Roen","popularity":1.0,"n_beers":1.0,"avg_abv":5.3,"max_abv":5.3},{"brewery":"Birrificio Artigianale Gedeone","city":"Costa Vescovato","lat":44.81615,"long":8.92695,"best_beer":null,"best_beer_score":null,"most_popular_beer":null,"popularity":null,"n_beers":12.0,"avg_abv":5.75,"max_abv":7.5},{"brewery":"Birrificio Artigianale Gilac","city":"Val Della Torre (TO)","lat":45.155147,"long":7.445015,"best_beer":"Asia","best_beer_score":2.8333333333,"most_popular_beer":"Sophie","popularity":2.0,"n_beers":5.0,"avg_abv":5.9,"max_abv":8.0},{"brewery":"Birrificio Doppio Malto","city":"Erba (CO)","lat":45.80958,"long":9.231242,"best_beer":"Mahogany","best_beer_score":3.205,"most_popular_beer":"Mahogany","popularity":6.0,"n_beers":7.0,"avg_abv":5.8285714286,"max_abv":7.0},{"brewery":"Birrificio La Mata","city":"Solarolo","lat":44.35892,"long":11.84661,"best_beer":null,"best_beer_score":null,"most_popular_beer":null,"popularity":null,"n_beers":11.0,"avg_abv":5.1818181818,"max_abv":7.8},{"brewery":"Interbrau S.p.A","city":"Ronchi di Villafranca Padovana (PD)","lat":45.24409,"long":11.90271,"best_beer":"Thomas Hardy - The Historical Ale 2016","best_beer_score":4.02125,"most_popular_beer":"Thomas Hardy's Ale (2015 -)","popularity":11.0,"n_beers":4.0,"avg_abv":12.525,"max_abv":13.0},{"brewery":"Birrificio L'Orso Verde","city":"Busto Arsizio (VA)","lat":45.6119057,"long":8.8520522,"best_beer":"BackDoorBitter","best_beer_score":3.186,"most_popular_beer":"BackDoorBitter","popularity":3.0,"n_beers":8.0,"avg_abv":5.9375,"max_abv":8.0},{"brewery":"Il Quarto D'Ora Granata","city":"Rovello Porro","lat":45.6521,"long":9.0394,"best_beer":"Hildegard","best_beer_score":2.4433333333,"most_popular_beer":"Hildegard","popularity":1.0,"n_beers":1.0,"avg_abv":5.6,"max_abv":5.6},{"brewery":"Jungle Juice Brewing","city":"Roma","lat":41.98822,"long":13.06799,"best_beer":"Baba Jaga","best_beer_score":3.01,"most_popular_beer":"Jellyfish","popularity":2.0,"n_beers":5.0,"avg_abv":5.84,"max_abv":7.0},{"brewery":"Az. Agr. Cameli Di Cameli Cheti","city":"Bassetto","lat":45.7576103,"long":8.8765441,"best_beer":"Giulia","best_beer_score":2.89,"most_popular_beer":"Giulia","popularity":5.0,"n_beers":3.0,"avg_abv":4.7666666667,"max_abv":5.2},{"brewery":"Ca' del Brado","city":"Rastignano (BO)","lat":44.4429957,"long":11.3561198,"best_beer":"Invernomuto","best_beer_score":3.3975,"most_popular_beer":"Nessun Dorma","popularity":2.0,"n_beers":13.0,"avg_abv":7.3769230769,"max_abv":7.9},{"brewery":"Birrificio Artigianale Ex Fabrica","city":"Grazzano Visconti","lat":44.9339025,"long":9.6713405,"best_beer":"Oro Nero","best_beer_score":2.73,"most_popular_beer":"Rozza","popularity":2.0,"n_beers":6.0,"avg_abv":5.3666666667,"max_abv":7.0},{"brewery":"Birrificio Herba Monstrum","city":"Galbiate","lat":45.81635,"long":9.37902,"best_beer":"Zulu IPA","best_beer_score":2.8466666667,"most_popular_beer":"Tatanka Mani","popularity":1.0,"n_beers":6.0,"avg_abv":5.1666666667,"max_abv":7.7},{"brewery":"Az. Agricola Alturis (Birra Toz)","city":"Cividale del Friuli","lat":46.09019,"long":13.42861,"best_beer":"Toz","best_beer_score":2.704,"most_popular_beer":"Toz","popularity":3.0,"n_beers":1.0,"avg_abv":4.8,"max_abv":4.8},{"brewery":"Birrificio Indipendente Elav","city":"Comun Nuovo (BG)","lat":45.6229111,"long":9.6631272,"best_beer":"Dark Metal","best_beer_score":3.7764285714,"most_popular_beer":"Dark Metal","popularity":26.0,"n_beers":22.0,"avg_abv":6.3772727273,"max_abv":11.0},{"brewery":"Birra Mastino","city":"San Martino Buon Albergo","lat":45.42083,"long":11.09562,"best_beer":"Hop.E","best_beer_score":3.125,"most_popular_beer":"Hop.E","popularity":2.0,"n_beers":3.0,"avg_abv":6.7,"max_abv":9.0},{"brewery":"Microbirrificio Opperbacco","city":"Notaresco (TE)","lat":42.654145,"long":13.894698,"best_beer":"10 E Lode","best_beer_score":3.7018181818,"most_popular_beer":"TriplIpa","popularity":16.0,"n_beers":15.0,"avg_abv":7.0866666667,"max_abv":13.0},{"brewery":"Birrificio Di Como","city":"Como","lat":45.80819,"long":9.0832,"best_beer":"Baluba","best_beer_score":3.6659090909,"most_popular_beer":"Baluba","popularity":20.0,"n_beers":9.0,"avg_abv":6.0777777778,"max_abv":6.9},{"brewery":"Birra Flea","city":"Gualdo Tadino","lat":43.22941,"long":12.77862,"best_beer":"Bastola","best_beer_score":3.1866666667,"most_popular_beer":"Costanza","popularity":5.0,"n_beers":6.0,"avg_abv":5.6666666667,"max_abv":6.1},{"brewery":"Panil","city":"Torrechiara","lat":44.656766,"long":10.2781141,"best_beer":"Panil Barriqu\u00e9e (Italy Version)","best_beer_score":4.1308982036,"most_popular_beer":"Panil Barriqu\u00e9e (Sour Version)","popularity":463.0,"n_beers":18.0,"avg_abv":6.8055555556,"max_abv":9.2},{"brewery":"Birrificio Le Springo","city":"Quartu Sant'Elena (CA)","lat":39.21333075,"long":9.3448935365,"best_beer":"60914","best_beer_score":2.8666666667,"most_popular_beer":"60914","popularity":1.0,"n_beers":6.0,"avg_abv":5.35,"max_abv":6.2},{"brewery":"Almond '22","city":"Pescara","lat":42.4584,"long":14.20283,"best_beer":"Pink IPA","best_beer_score":3.4645977011,"most_popular_beer":"Pink IPA","popularity":85.0,"n_beers":16.0,"avg_abv":6.7125,"max_abv":10.0},{"brewery":"Birrificio Freccia","city":"Formigosa (MN)","lat":45.1221248,"long":10.861787,"best_beer":"Extra 2009","best_beer_score":2.8566666667,"most_popular_beer":"Extra 2009","popularity":1.0,"n_beers":1.0,"avg_abv":9.5,"max_abv":9.5},{"brewery":"Retorto Birrificio Artigianale","city":"Podenzano","lat":44.95484,"long":9.68315,"best_beer":"Daughter Of Autumn","best_beer_score":3.5954545455,"most_popular_beer":"Daughter Of Autumn","popularity":9.0,"n_beers":8.0,"avg_abv":6.65,"max_abv":12.0},{"brewery":"Birrificio Geco","city":"Cornaredo (MI)","lat":45.5016851,"long":9.025746,"best_beer":"Pecora Nera","best_beer_score":3.1957142857,"most_popular_beer":"Pecora Nera","popularity":5.0,"n_beers":4.0,"avg_abv":5.225,"max_abv":6.6},{"brewery":"Birrificio Artigianale Curtense","city":"Monterotondo","lat":42.05159,"long":12.61969,"best_beer":"Brixia Ambrata","best_beer_score":2.9,"most_popular_beer":"Brixia Ambrata","popularity":1.0,"n_beers":5.0,"avg_abv":5.6,"max_abv":6.6},{"brewery":"Brunz Birreria Artigianale","city":"Empoli","lat":43.71795,"long":10.94758,"best_beer":"Da Vinci IPA","best_beer_score":3.135,"most_popular_beer":"Da Vinci IPA","popularity":2.0,"n_beers":5.0,"avg_abv":5.84,"max_abv":6.5},{"brewery":"Big Up","city":"Fiorenzuola d'Arda","lat":44.92435,"long":9.91329,"best_beer":"Clark Kent","best_beer_score":2.5266666667,"most_popular_beer":"Clark Kent","popularity":1.0,"n_beers":1.0,"avg_abv":4.7,"max_abv":4.7},{"brewery":"Birrificio Rurale","city":"Desio (MI)","lat":45.6183103,"long":9.2081245,"best_beer":"Terzo Miglio","best_beer_score":3.7505882353,"most_popular_beer":"Terzo Miglio","popularity":15.0,"n_beers":12.0,"avg_abv":5.6083333333,"max_abv":8.5},{"brewery":"Birra Di Meni","city":"Cavasso Nuovo (PN)","lat":46.196556,"long":12.7703076,"best_beer":"Comat\u00e2rs","best_beer_score":3.3966666667,"most_popular_beer":"Comat\u00e2rs","popularity":4.0,"n_beers":14.0,"avg_abv":7.0928571429,"max_abv":13.0},{"brewery":"La Moncer\u00e0","city":"Montignoso","lat":44.02405,"long":10.17259,"best_beer":"Topina","best_beer_score":2.5666666667,"most_popular_beer":"Pecore Nere","popularity":1.0,"n_beers":2.0,"avg_abv":6.0,"max_abv":7.0},{"brewery":"Alina S.R.L.","city":"Vimercate","lat":45.61545,"long":9.36801,"best_beer":"Oro Di Milano Riserva Speciale","best_beer_score":3.41125,"most_popular_beer":"Oro Di Milano Doppio Malto","popularity":16.0,"n_beers":3.0,"avg_abv":6.6,"max_abv":8.2},{"brewery":"La Buttiga","city":"Piacenza","lat":45.05242,"long":9.69342,"best_beer":"Psycho","best_beer_score":3.128,"most_popular_beer":"Psycho","popularity":3.0,"n_beers":5.0,"avg_abv":5.98,"max_abv":7.1},{"brewery":"Birra Venezia","city":"Venezia (VE)","lat":45.4371908,"long":12.3345898,"best_beer":"Birra Venezia Bianca","best_beer_score":3.4144444444,"most_popular_beer":"Birra Venezia Bionda","popularity":10.0,"n_beers":4.0,"avg_abv":6.175,"max_abv":8.6},{"brewery":"Monsters Factory & Co.","city":"Lanciano","lat":42.22718,"long":14.39024,"best_beer":null,"best_beer_score":null,"most_popular_beer":null,"popularity":null,"n_beers":1.0,"avg_abv":6.0,"max_abv":6.0},{"brewery":"Rubiu","city":"Sant'antioco","lat":39.0648291,"long":8.4562962,"best_beer":null,"best_beer_score":null,"most_popular_beer":null,"popularity":null,"n_beers":5.0,"avg_abv":5.94,"max_abv":7.9},{"brewery":"Target 2000 S.p.A.","city":"Riccione (RN)","lat":43.99942,"long":12.65689,"best_beer":"Italian Red IPA","best_beer_score":3.006,"most_popular_beer":"Italian Red IPA","popularity":3.0,"n_beers":5.0,"avg_abv":5.82,"max_abv":6.1},{"brewery":"Brasseria Nervina","city":"Apricale","lat":43.88033,"long":7.65993,"best_beer":"Cave","best_beer_score":2.6433333333,"most_popular_beer":"Cave","popularity":1.0,"n_beers":2.0,"avg_abv":5.0,"max_abv":5.5},{"brewery":"Birrificio Valscura","city":"Sarone Di Caneva (PN)","lat":45.9933791,"long":12.4633406,"best_beer":"Valscura","best_beer_score":2.9266666667,"most_popular_beer":"Valscura","popularity":1.0,"n_beers":1.0,"avg_abv":7.0,"max_abv":7.0},{"brewery":"Etnia Birra Italiana","city":"Pavia","lat":45.19205,"long":9.15917,"best_beer":"Double Blanche","best_beer_score":2.9266666667,"most_popular_beer":"Etnia Blond","popularity":1.0,"n_beers":4.0,"avg_abv":5.15,"max_abv":7.0},{"brewery":"East Side Brewery","city":"Latina (LT)","lat":46.42899,"long":11.53942,"best_beer":"Sunnyside","best_beer_score":3.422,"most_popular_beer":"Sunnyside","popularity":3.0,"n_beers":7.0,"avg_abv":6.3142857143,"max_abv":7.6},{"brewery":"Birrificio Torino","city":"Torino (TO)","lat":45.09622,"long":7.366,"best_beer":null,"best_beer_score":null,"most_popular_beer":null,"popularity":null,"n_beers":12.0,"avg_abv":5.9083333333,"max_abv":7.5},{"brewery":"Birrificio La Stecciaia","city":"Rapolano Terme (SI)","lat":43.2872509,"long":11.6029268,"best_beer":null,"best_beer_score":null,"most_popular_beer":null,"popularity":null,"n_beers":7.0,"avg_abv":5.9,"max_abv":7.0},{"brewery":"Birrificio P3 Brewing Company","city":"Sassari (SS)","lat":40.7232643,"long":8.5610074,"best_beer":"Turkunara","best_beer_score":3.22,"most_popular_beer":"50 Nodi","popularity":4.0,"n_beers":6.0,"avg_abv":6.2666666667,"max_abv":8.0},{"brewery":"Il Chiostro","city":"Nocera Inferiore","lat":40.7454,"long":14.64542,"best_beer":"Sorba","best_beer_score":3.08,"most_popular_beer":"Golden Ale","popularity":2.0,"n_beers":5.0,"avg_abv":6.7,"max_abv":8.0},{"brewery":"Birrificio Il Mastio","city":"Urbisaglia","lat":43.19304,"long":13.37474,"best_beer":"Rifle","best_beer_score":2.8633333333,"most_popular_beer":"Rifle","popularity":1.0,"n_beers":1.0,"avg_abv":5.5,"max_abv":5.5},{"brewery":"J63 Birrificio Agricolo Artigianale","city":"Cenaia (PI)","lat":43.6067221,"long":10.5333341,"best_beer":"JBlack","best_beer_score":2.84,"most_popular_beer":"JBlack","popularity":1.0,"n_beers":2.0,"avg_abv":6.6,"max_abv":8.0},{"brewery":"Birrificio Artigianale Acelum","city":"Castelcucco","lat":45.83024,"long":11.88296,"best_beer":"Deliria","best_beer_score":2.7466666667,"most_popular_beer":"Duse","popularity":1.0,"n_beers":2.0,"avg_abv":7.75,"max_abv":9.0},{"brewery":"Artebirraia","city":"Rasai Di Seren Del Grappa (BL)","lat":45.996651,"long":11.8582919,"best_beer":"Chiara","best_beer_score":3.4575,"most_popular_beer":"Ambrata","popularity":6.0,"n_beers":5.0,"avg_abv":4.98,"max_abv":5.8},{"brewery":"Hammer","city":"Villa D'Adda (BG)","lat":45.71398,"long":9.461649,"best_beer":"Wave Runner","best_beer_score":3.9223076923,"most_popular_beer":"Wave Runner","popularity":11.0,"n_beers":9.0,"avg_abv":6.4666666667,"max_abv":9.0},{"brewery":"Birra Nustrana","city":"Viano (RE)","lat":44.5437293,"long":10.6216195,"best_beer":null,"best_beer_score":null,"most_popular_beer":null,"popularity":null,"n_beers":1.0,"avg_abv":5.2,"max_abv":5.2},{"brewery":"Fabbrica Birra Busalla","city":"Savignone","lat":44.56435,"long":8.98726,"best_beer":"Castagnasca","best_beer_score":2.6166666667,"most_popular_beer":"Ambra","popularity":1.0,"n_beers":3.0,"avg_abv":6.3333333333,"max_abv":7.0},{"brewery":"Birrificio Artigianale Karma","city":"Alvignano (TO)","lat":41.244718,"long":14.335627,"best_beer":"Amber Doll","best_beer_score":3.4416666667,"most_popular_beer":"Lemonale","popularity":8.0,"n_beers":13.0,"avg_abv":6.0384615385,"max_abv":8.5},{"brewery":"Birra dei Borgia","city":"Civita Castellana (VT)","lat":42.295226,"long":12.40917,"best_beer":"Borgia Blanche D'\u00e9tienne","best_beer_score":2.9166666667,"most_popular_beer":"Borgia Blanche D'\u00e9tienne","popularity":1.0,"n_beers":2.0,"avg_abv":5.85,"max_abv":7.0},{"brewery":"Homo Luppolo","city":"Sgurgola (FR)","lat":41.6709477,"long":13.1489087,"best_beer":"Let It Be","best_beer_score":2.9166666667,"most_popular_beer":"Let It Be","popularity":1.0,"n_beers":1.0,"avg_abv":5.4,"max_abv":5.4},{"brewery":"La Fenice","city":"Orzinuovi (BS)","lat":45.403976,"long":9.921564,"best_beer":"Avarizia","best_beer_score":2.6166666667,"most_popular_beer":"Accidia","popularity":1.0,"n_beers":2.0,"avg_abv":7.0,"max_abv":9.0},{"brewery":"San Biagio","city":"Nocera Umbra","lat":43.114,"long":12.78925,"best_beer":"Gaudens","best_beer_score":3.3142857143,"most_popular_beer":"Gaudens","popularity":5.0,"n_beers":4.0,"avg_abv":5.6,"max_abv":7.0},{"brewery":"Piccolo Birrificio","city":"Apricale (IM)","lat":43.8803889,"long":7.6602096,"best_beer":"Seson","best_beer_score":3.8880555556,"most_popular_beer":"Chiostro","popularity":36.0,"n_beers":8.0,"avg_abv":5.5125,"max_abv":6.5},{"brewery":"Vapori Di Birra","city":"Sasso Pisano (PI)","lat":43.167501,"long":10.8649229,"best_beer":"Thera","best_beer_score":2.61,"most_popular_beer":"Thera","popularity":1.0,"n_beers":1.0,"avg_abv":7.0,"max_abv":7.0},{"brewery":"Birra Salvadega","city":"Sondrio (SO)","lat":46.1709447,"long":9.8767107,"best_beer":null,"best_beer_score":null,"most_popular_beer":null,"popularity":null,"n_beers":5.0,"avg_abv":6.14,"max_abv":8.0},{"brewery":"Che L'Inse","city":"Campomorone","lat":44.50954,"long":8.88502,"best_beer":"Geans","best_beer_score":2.5266666667,"most_popular_beer":"Geans","popularity":1.0,"n_beers":1.0,"avg_abv":5.5,"max_abv":5.5},{"brewery":"Birrificio Maivisto","city":"Botta Di Sedrina (BG)","lat":45.7670744,"long":9.6145413,"best_beer":null,"best_beer_score":null,"most_popular_beer":null,"popularity":null,"n_beers":8.0,"avg_abv":5.7125,"max_abv":7.2},{"brewery":"Bad Guy Brewery","city":"Cava Manara (PV)","lat":45.1401734,"long":9.1068597,"best_beer":"Anastasia","best_beer_score":2.7466666667,"most_popular_beer":"Anastasia","popularity":1.0,"n_beers":4.0,"avg_abv":5.35,"max_abv":6.0},{"brewery":"Birra Morgana","city":"Morgano","lat":45.6433975,"long":12.1126279,"best_beer":null,"best_beer_score":null,"most_popular_beer":null,"popularity":null,"n_beers":5.0,"avg_abv":5.16,"max_abv":6.0},{"brewery":"Yblon","city":"Ragusa (RG)","lat":36.9219828,"long":14.7213455,"best_beer":"Juta","best_beer_score":2.84,"most_popular_beer":"B-Zona","popularity":1.0,"n_beers":4.0,"avg_abv":5.275,"max_abv":5.8},{"brewery":"Birrificio Sagrin","city":"Calamandrana (AT)","lat":44.7370162,"long":8.3341542,"best_beer":null,"best_beer_score":null,"most_popular_beer":null,"popularity":null,"n_beers":4.0,"avg_abv":5.875,"max_abv":8.5},{"brewery":"Birrificio Fiorentino","city":"Firenze","lat":43.77925,"long":11.24626,"best_beer":"Lager","best_beer_score":2.9375,"most_popular_beer":"Lager","popularity":2.0,"n_beers":3.0,"avg_abv":6.1666666667,"max_abv":7.0},{"brewery":"Endorama","city":"Grassobbio (BG)","lat":45.6572304,"long":9.7231068,"best_beer":"Milkyman Stout","best_beer_score":2.8666666667,"most_popular_beer":"Midnight Stand","popularity":1.0,"n_beers":3.0,"avg_abv":4.4666666667,"max_abv":5.9},{"brewery":"Birra Salento","city":"Leverano (LE)","lat":40.2894249,"long":17.9994144,"best_beer":null,"best_beer_score":null,"most_popular_beer":null,"popularity":null,"n_beers":2.0,"avg_abv":4.3,"max_abv":4.6},{"brewery":"Birrificio Artigianale Viadanese","city":"Viadana","lat":44.93553,"long":10.51898,"best_beer":"Rubina","best_beer_score":2.8633333333,"most_popular_beer":"Birra Chiara","popularity":2.0,"n_beers":4.0,"avg_abv":5.925,"max_abv":6.3},{"brewery":"Brasserie Lacu","city":"Moscufo (PE)","lat":42.4281437,"long":14.0543087,"best_beer":"Biere D'Abbaye Lacu","best_beer_score":3.7469387755,"most_popular_beer":"Biere D'Abbaye Lacu","popularity":47.0,"n_beers":1.0,"avg_abv":6.3,"max_abv":6.3},{"brewery":"Birrificio\u00a0Cittavecchia","city":"Sgonico (Ts)","lat":45.72043265,"long":13.7734457335,"best_beer":"Karnera","best_beer_score":3.2433333333,"most_popular_beer":"Formidable","popularity":4.0,"n_beers":4.0,"avg_abv":5.9,"max_abv":8.0},{"brewery":"Bad Brewer","city":"Riccione (RN)","lat":43.99942,"long":12.65689,"best_beer":"Amber Ale","best_beer_score":3.06,"most_popular_beer":"Pale Ale","popularity":4.0,"n_beers":3.0,"avg_abv":5.2666666667,"max_abv":6.0},{"brewery":"Revertis","city":"Caiolo (SO)","lat":46.149994,"long":9.814548,"best_beer":"Revertis 31","best_beer_score":3.0133333333,"most_popular_beer":"Revertis 3+2","popularity":1.0,"n_beers":4.0,"avg_abv":5.75,"max_abv":7.0},{"brewery":"Maltus Faber","city":"Genova","lat":44.40478,"long":8.94439,"best_beer":"Extra Brune","best_beer_score":3.7233333333,"most_popular_beer":"Extra Brune","popularity":4.0,"n_beers":11.0,"avg_abv":7.4545454545,"max_abv":10.0},{"brewery":"Birra Turan","city":"Montefiascone","lat":42.54255,"long":12.03192,"best_beer":"Sfumatura","best_beer_score":3.425,"most_popular_beer":"Sfumatura","popularity":4.0,"n_beers":4.0,"avg_abv":6.075,"max_abv":7.2},{"brewery":"Stradaregina","city":"Vigevano","lat":45.31407,"long":8.85437,"best_beer":"Sourflowers Blend 02 Robinia","best_beer_score":3.11,"most_popular_beer":"Framboisette","popularity":2.0,"n_beers":5.0,"avg_abv":6.14,"max_abv":8.2},{"brewery":"Toscana Tipica Birra Del Linchetto","city":"Lucca","lat":43.84369,"long":10.50447,"best_beer":"Birra Del Linchetto Birra Dark","best_beer_score":3.2566666667,"most_popular_beer":"Birra Del Linchetto Lager","popularity":1.0,"n_beers":3.0,"avg_abv":6.5,"max_abv":8.0},{"brewery":"Birrificio Artigianale BioNoc'","city":"Mezzano","lat":46.15393,"long":11.80876,"best_beer":"BioNoc' LIPA","best_beer_score":2.9433333333,"most_popular_beer":"BioNoc' Nociva","popularity":1.0,"n_beers":5.0,"avg_abv":5.26,"max_abv":6.0},{"brewery":"Birrificio Sette Colli","city":"Settimo (CS)","lat":39.3774916,"long":16.2146142,"best_beer":null,"best_beer_score":null,"most_popular_beer":null,"popularity":null,"n_beers":3.0,"avg_abv":5.9333333333,"max_abv":7.2},{"brewery":"Q Beer","city":"Milano","lat":45.46427,"long":9.18951,"best_beer":"Q Red","best_beer_score":2.45,"most_popular_beer":"Q Lager","popularity":1.0,"n_beers":2.0,"avg_abv":5.4,"max_abv":6.0},{"brewery":"M\u2019Anis","city":"Montebelluna","lat":45.77504,"long":12.04904,"best_beer":"M'Anis 7.3","best_beer_score":3.13,"most_popular_beer":"M'Anis 7.3","popularity":2.0,"n_beers":5.0,"avg_abv":6.06,"max_abv":8.6},{"brewery":"Birra Anima Craft Beer","city":"Castelleto","lat":45.6215781,"long":12.451698,"best_beer":"Leonardo","best_beer_score":3.316,"most_popular_beer":"Dante","popularity":3.0,"n_beers":6.0,"avg_abv":6.3833333333,"max_abv":7.8},{"brewery":"Birrificio Mukkeller","city":"Porto Sant'Elpidio (MC)","lat":43.23024,"long":13.68819,"best_beer":"Corva Nera","best_beer_score":2.9233333333,"most_popular_beer":"Mu Pils","popularity":1.0,"n_beers":6.0,"avg_abv":6.2166666667,"max_abv":8.3},{"brewery":"Birrificio Pausa Cafe","city":"Saluzzo (TO)","lat":44.6446052,"long":7.4926009,"best_beer":"Pausa P.I.L.S.","best_beer_score":3.7493103448,"most_popular_beer":"Tosta","popularity":28.0,"n_beers":8.0,"avg_abv":7.75,"max_abv":12.5},{"brewery":"B.A.V.","city":"Maerne","lat":45.52313,"long":12.15477,"best_beer":"Dingo","best_beer_score":2.91,"most_popular_beer":"Strike","popularity":1.0,"n_beers":6.0,"avg_abv":5.2833333333,"max_abv":7.7},{"brewery":"Birreria Artigianale Il Bovaro","city":"Firenze","lat":43.77925,"long":11.24626,"best_beer":null,"best_beer_score":null,"most_popular_beer":null,"popularity":null,"n_beers":5.0,"avg_abv":6.4,"max_abv":9.0},{"brewery":"Birrificio BQ","city":"Milano","lat":45.46427,"long":9.18951,"best_beer":"BQ Strummer","best_beer_score":2.9166666667,"most_popular_beer":"BQ Strummer","popularity":1.0,"n_beers":2.0,"avg_abv":7.65,"max_abv":8.0},{"brewery":"Statale Nove","city":"Crespellano (BO)","lat":44.52960015,"long":11.1461012497,"best_beer":"Levante","best_beer_score":3.22,"most_popular_beer":"Levante","popularity":3.0,"n_beers":5.0,"avg_abv":5.78,"max_abv":7.5},{"brewery":"Birrificio Chevalier","city":"Diano Marina (IM)","lat":43.910324,"long":8.079251,"best_beer":"Templier","best_beer_score":2.81,"most_popular_beer":"Templier","popularity":2.0,"n_beers":1.0,"avg_abv":5.0,"max_abv":5.0},{"brewery":"La Birra Di Frascati","city":"Frascati (RM)","lat":41.8082452,"long":12.6803684,"best_beer":null,"best_beer_score":null,"most_popular_beer":null,"popularity":null,"n_beers":3.0,"avg_abv":6.3,"max_abv":8.0},{"brewery":"Birrificio Barchessa Di Villa Pola","city":"Barcon Di Vedelago (TV)","lat":45.72264335,"long":12.0126612208,"best_beer":"Monfenera","best_beer_score":2.76,"most_popular_beer":"Pola Pils","popularity":1.0,"n_beers":4.0,"avg_abv":5.075,"max_abv":6.4},{"brewery":"Birra Nursia","city":"Norcia","lat":42.79105,"long":13.096,"best_beer":"Birra Nursia Extra","best_beer_score":3.737,"most_popular_beer":"Birra Nursia Extra","popularity":8.0,"n_beers":2.0,"avg_abv":8.0,"max_abv":10.0},{"brewery":"Cerevisia Vetus","city":"Ceccano","lat":41.57236,"long":13.32901,"best_beer":"Legio XX","best_beer_score":2.5966666667,"most_popular_beer":"BiB\u00ec","popularity":1.0,"n_beers":2.0,"avg_abv":5.4,"max_abv":6.1},{"brewery":"Birrificio Maiella","city":"Pretoro","lat":42.21923,"long":14.14248,"best_beer":"Emigrante","best_beer_score":3.136,"most_popular_beer":"Emigrante","popularity":3.0,"n_beers":2.0,"avg_abv":5.6,"max_abv":6.7},{"brewery":"Notertr\u00e9","city":"Pompiano","lat":45.43116,"long":9.9891,"best_beer":"3orrison","best_beer_score":2.7633333333,"most_popular_beer":"Marl3y","popularity":1.0,"n_beers":3.0,"avg_abv":5.5666666667,"max_abv":6.8},{"brewery":"Birrificio Itineris","city":"Civita Castellana (VT)","lat":42.295226,"long":12.40917,"best_beer":"Falisca","best_beer_score":3.2966666667,"most_popular_beer":"Cassia","popularity":2.0,"n_beers":2.0,"avg_abv":7.1,"max_abv":8.7},{"brewery":"Docks","city":"Rivergaro (PC)","lat":44.9102508,"long":9.5965212,"best_beer":"EureKa","best_beer_score":2.6766666667,"most_popular_beer":"EureKa","popularity":1.0,"n_beers":1.0,"avg_abv":5.8,"max_abv":5.8},{"brewery":"Birrificio La Fucina","city":"Pescolanciano","lat":41.67972,"long":14.33658,"best_beer":null,"best_beer_score":null,"most_popular_beer":null,"popularity":null,"n_beers":4.0,"avg_abv":6.1,"max_abv":8.0},{"brewery":"Birrificio Amerino","city":"Terni (TR)","lat":42.5641417,"long":12.6405466,"best_beer":"Northup","best_beer_score":2.9333333333,"most_popular_beer":"Edo 15","popularity":1.0,"n_beers":4.0,"avg_abv":6.25,"max_abv":7.5},{"brewery":"La Gastaldia","city":"Pieve Di Soligo (TV)","lat":45.89836,"long":12.17128,"best_beer":"Haka","best_beer_score":2.96,"most_popular_beer":"Haka","popularity":1.0,"n_beers":4.0,"avg_abv":5.95,"max_abv":7.5},{"brewery":"Opificio Brassicolo Del Carrobiolo","city":"Monza","lat":45.58005,"long":9.27246,"best_beer":"O.G. 1111","best_beer_score":3.7555555556,"most_popular_beer":"O.G. 1111","popularity":16.0,"n_beers":10.0,"avg_abv":7.78,"max_abv":13.0},{"brewery":"Birrificio Sguaraunda","city":"Pagazzano (BG)","lat":45.534277,"long":9.671157,"best_beer":"La Bergamasca Rossa","best_beer_score":2.4266666667,"most_popular_beer":"La Bergamasca Nera Affumicata","popularity":1.0,"n_beers":3.0,"avg_abv":6.3333333333,"max_abv":7.1},{"brewery":"Birra Due Tocchi","city":"Parabiago (MI)","lat":45.5586107,"long":8.9478877,"best_beer":"Sbronx","best_beer_score":2.7633333333,"most_popular_beer":"Sbronx","popularity":1.0,"n_beers":1.0,"avg_abv":5.0,"max_abv":5.0},{"brewery":"32 Via dei birrai","city":"Pederobba","lat":45.87567,"long":11.94977,"best_beer":"Oppale","best_beer_score":3.4476470588,"most_popular_beer":"Oppale","popularity":15.0,"n_beers":5.0,"avg_abv":6.66,"max_abv":8.4},{"brewery":"De Tacchi","city":"Grantortino Di Gazzo (PD)","lat":45.19999,"long":10.57839,"best_beer":"Biancoperla - Special Pale Ale","best_beer_score":3.3333333333,"most_popular_beer":"Maranello - Special Amber Beer","popularity":2.0,"n_beers":3.0,"avg_abv":5.3666666667,"max_abv":5.8},{"brewery":"Zago S.r.l.","city":"Prata Di Pordenone (PN)","lat":45.8933112,"long":12.5962937,"best_beer":"HY Cuv\u00e9e","best_beer_score":3.1916666667,"most_popular_beer":"HY Cuv\u00e9e","popularity":4.0,"n_beers":5.0,"avg_abv":10.1,"max_abv":11.0},{"brewery":"Birrificio Balanders'","city":"Sellero (BS)","lat":46.0559889,"long":10.3439901,"best_beer":"Monega","best_beer_score":2.7566666667,"most_popular_beer":"Monega","popularity":1.0,"n_beers":1.0,"avg_abv":5.0,"max_abv":5.0},{"brewery":"Les Bieres du Grand St. Bernard","city":"\u00c9troubles","lat":45.82082,"long":7.23137,"best_beer":"Blou","best_beer_score":3.2175,"most_popular_beer":"Blou","popularity":2.0,"n_beers":2.0,"avg_abv":5.3,"max_abv":5.6},{"brewery":"B94","city":"Lecce","lat":40.35481,"long":18.17244,"best_beer":"Dellacava","best_beer_score":2.7733333333,"most_popular_beer":"Dellacava","popularity":1.0,"n_beers":3.0,"avg_abv":6.4,"max_abv":7.2},{"brewery":"Birrificio Artigianale Kamun","city":"Predosa (AL)","lat":44.751349,"long":8.655449,"best_beer":"Kamun Nocturna","best_beer_score":3.1483333333,"most_popular_beer":"Kamun Nocturna","popularity":4.0,"n_beers":6.0,"avg_abv":5.1333333333,"max_abv":6.0},{"brewery":"Vecchia Orsa","city":"Crevalcore (BO)","lat":44.72057,"long":11.149804,"best_beer":"Saison","best_beer_score":3.18,"most_popular_beer":"Saison","popularity":3.0,"n_beers":3.0,"avg_abv":6.1666666667,"max_abv":8.0},{"brewery":"Birrificio Il Conte Gelo","city":"Vigevano (PV)","lat":45.3170942,"long":8.858603,"best_beer":"Kamchakta","best_beer_score":2.81,"most_popular_beer":"Gragnola","popularity":1.0,"n_beers":4.0,"avg_abv":7.125,"max_abv":9.8},{"brewery":"Brauerei Forst AG","city":"Merano","lat":46.66817,"long":11.15953,"best_beer":"Sixtus","best_beer_score":3.6263333333,"most_popular_beer":"Forst Premium","popularity":64.0,"n_beers":7.0,"avg_abv":5.1714285714,"max_abv":6.5},{"brewery":"Vecchio Birraio","city":"Marsango Di Campo San Martino (PD)","lat":45.5490988,"long":11.8404032,"best_beer":"Sausa Pils","best_beer_score":2.66,"most_popular_beer":"Sausa Pils","popularity":1.0,"n_beers":4.0,"avg_abv":5.675,"max_abv":6.5},{"brewery":"Birra Napoleon","city":"Portoferraio","lat":42.81233,"long":10.31297,"best_beer":"2 Mulini","best_beer_score":2.5833333333,"most_popular_beer":"2 Mulini","popularity":1.0,"n_beers":1.0,"avg_abv":5.0,"max_abv":5.0},{"brewery":"Sauris AgriBeer S.a.s","city":"Sauris (UD)","lat":46.46624,"long":12.70852,"best_beer":"Zahre Affumicata","best_beer_score":2.8766666667,"most_popular_beer":"Zahre Canapa","popularity":2.0,"n_beers":4.0,"avg_abv":5.5,"max_abv":6.0},{"brewery":"Picobrew","city":"Cisliano (MI)","lat":45.444669,"long":8.990243,"best_beer":"Big Up","best_beer_score":2.7333333333,"most_popular_beer":"Big Up","popularity":1.0,"n_beers":1.0,"avg_abv":6.2,"max_abv":6.2},{"brewery":"Birra Bellazzi","city":"San Lazzaro di Savena","lat":44.4705,"long":11.40851,"best_beer":"Alley Hop","best_beer_score":3.2166666667,"most_popular_beer":"Calabrifornia","popularity":1.0,"n_beers":6.0,"avg_abv":6.4166666667,"max_abv":8.5},{"brewery":"Birrificio 7Sensi","city":"Abbiategrasso (MI)","lat":45.398733,"long":8.9162299,"best_beer":"Prospettiva","best_beer_score":2.5433333333,"most_popular_beer":"Prospettiva","popularity":1.0,"n_beers":1.0,"avg_abv":5.5,"max_abv":5.5},{"brewery":"Centrale Della Birra","city":"Cremona","lat":45.13325,"long":10.02129,"best_beer":"Barb\u00f9","best_beer_score":2.7766666667,"most_popular_beer":"Barb\u00f9","popularity":1.0,"n_beers":3.0,"avg_abv":5.5,"max_abv":6.0},{"brewery":"Birrificio B.O.A. (Birrificio Ostiense Artigianale)","city":"Lido Di Ostia (RM)","lat":41.7325672,"long":12.2787587,"best_beer":"Birrificio Del Ducato L'Ultima Luna","best_beer_score":3.41375,"most_popular_beer":"Birrificio Del Ducato L'Ultima Luna","popularity":6.0,"n_beers":4.0,"avg_abv":7.625,"max_abv":13.0},{"brewery":"Limen Brewery","city":"Siderno (RC)","lat":38.2761626,"long":16.2981599,"best_beer":"Neither The Dog","best_beer_score":2.75,"most_popular_beer":"Limen 33","popularity":2.0,"n_beers":2.0,"avg_abv":5.3,"max_abv":5.6},{"brewery":"Birrificio Br\u00f9ton","city":"San Cassiano Di Moriano","lat":43.8963172,"long":10.5294057,"best_beer":"Bianca","best_beer_score":3.7230769231,"most_popular_beer":"Stoner","popularity":73.0,"n_beers":10.0,"avg_abv":7.0,"max_abv":10.0},{"brewery":"Birra del Bosco","city":"San Michele All'adige","lat":46.192907,"long":11.133577,"best_beer":"Dark Deer","best_beer_score":3.126,"most_popular_beer":"Dark Deer","popularity":3.0,"n_beers":4.0,"avg_abv":5.825,"max_abv":7.5},{"brewery":"Birra San Felice","city":"Massa Martana (PG)","lat":42.773137,"long":12.524966,"best_beer":"Ambra","best_beer_score":2.7566666667,"most_popular_beer":"Ambra","popularity":1.0,"n_beers":3.0,"avg_abv":5.4333333333,"max_abv":5.8},{"brewery":"Birra Olmo","city":"San Giorgio delle Pertiche Padova","lat":45.40797,"long":11.88586,"best_beer":"Guerrilla IPA","best_beer_score":3.0625,"most_popular_beer":"Guerrilla IPA","popularity":2.0,"n_beers":3.0,"avg_abv":5.0666666667,"max_abv":5.9},{"brewery":"CR\/AK Brewery","city":"Campodarsego (PD)","lat":45.502855,"long":11.9074958,"best_beer":"BV04 \/ CANTINA","best_beer_score":3.0,"most_popular_beer":"BV04 \/ CANTINA","popularity":1.0,"n_beers":2.0,"avg_abv":10.75,"max_abv":15.0},{"brewery":"Birrificio Argo","city":"Lemignano","lat":44.7711928,"long":10.2633709,"best_beer":"Hoppy Wan Kenobi","best_beer_score":3.322,"most_popular_beer":"Milva","popularity":3.0,"n_beers":3.0,"avg_abv":6.2,"max_abv":7.0},{"brewery":"Birrificio Ba\u00fcscia","city":"Milano","lat":45.46427,"long":9.18951,"best_beer":"Adi","best_beer_score":2.7433333333,"most_popular_beer":"Adi","popularity":1.0,"n_beers":1.0,"avg_abv":4.0,"max_abv":4.0},{"brewery":"Birrificio Artigianale Brew Gruff","city":"Villafranca (VR)","lat":45.3509277,"long":10.8459956,"best_beer":"BrewGruff Pale Ale","best_beer_score":2.41,"most_popular_beer":"BrewGruff Pale Ale","popularity":1.0,"n_beers":1.0,"avg_abv":5.8,"max_abv":5.8},{"brewery":"Birrificio 2 Sorelle","city":"Santo Stefano Belbo (CN)","lat":44.7077401,"long":8.2307306,"best_beer":"Lallibet","best_beer_score":2.6666666667,"most_popular_beer":"Lallibet","popularity":1.0,"n_beers":1.0,"avg_abv":5.5,"max_abv":5.5},{"brewery":"Birra dZaro","city":"Catanzaro","lat":38.88247,"long":16.60086,"best_beer":"Rossa Doppio Malto","best_beer_score":2.6666666667,"most_popular_beer":"Rossa Doppio Malto","popularity":1.0,"n_beers":4.0,"avg_abv":5.725,"max_abv":7.4},{"brewery":"Birrificio Della Ghironda","city":"Trezzo Sull\u2019Adda (MI)","lat":45.6087178,"long":9.5198437,"best_beer":"Aromatis","best_beer_score":2.74,"most_popular_beer":"Poolside","popularity":1.0,"n_beers":2.0,"avg_abv":4.8,"max_abv":4.8},{"brewery":"Birra Dell'Elba Brew Pub","city":"Rio Marina","lat":42.81395,"long":10.426,"best_beer":"Cento All'Ora","best_beer_score":3.0433333333,"most_popular_beer":"Octopus","popularity":1.0,"n_beers":4.0,"avg_abv":5.0,"max_abv":6.5},{"brewery":"Birrificio Valsusa (Birra Laval)","city":"Avigliana (TO)","lat":45.077145,"long":7.398616,"best_beer":"Barny","best_beer_score":2.8933333333,"most_popular_beer":"Siberian","popularity":1.0,"n_beers":2.0,"avg_abv":7.0,"max_abv":9.0},{"brewery":"Edit","city":"Torino (TO)","lat":45.09622,"long":7.366,"best_beer":"G-Edit-b","best_beer_score":2.9033333333,"most_popular_beer":"G-Edit-b","popularity":1.0,"n_beers":1.0,"avg_abv":5.5,"max_abv":5.5},{"brewery":"Birrificio artigianale Borgo al Cornio","city":"Prato","lat":46.37364,"long":13.30659,"best_beer":"Il Duomo","best_beer_score":3.0,"most_popular_beer":"Il Duomo","popularity":1.0,"n_beers":1.0,"avg_abv":9.0,"max_abv":9.0},{"brewery":"Batzenh\u00e4usl","city":"Bolzano","lat":46.16289,"long":12.18727,"best_beer":"Viennarillo","best_beer_score":2.82,"most_popular_beer":"Viennarillo","popularity":1.0,"n_beers":1.0,"avg_abv":4.8,"max_abv":4.8},{"brewery":"Manerba Brewery","city":"Manerba Del Garda (BS)","lat":45.5560431,"long":10.5625934,"best_beer":"Rebuffone","best_beer_score":2.8266666667,"most_popular_beer":"La Bionda","popularity":1.0,"n_beers":2.0,"avg_abv":6.0,"max_abv":6.5},{"brewery":"Birra Stelvio","city":"Bormio (SO)","lat":46.4692445,"long":10.3722155,"best_beer":"Saraceno","best_beer_score":2.6233333333,"most_popular_beer":"Saraceno","popularity":1.0,"n_beers":1.0,"avg_abv":5.4,"max_abv":5.4},{"brewery":"AgriBirrificio La Morosina","city":"Abbiategrasso (MI)","lat":45.398733,"long":8.9162299,"best_beer":"Bionda","best_beer_score":2.4266666667,"most_popular_beer":"Bionda","popularity":1.0,"n_beers":5.0,"avg_abv":5.84,"max_abv":6.5},{"brewery":"Doppio Malto","city":"Roma","lat":41.98822,"long":13.06799,"best_beer":"Stone Ale","best_beer_score":3.0466666667,"most_popular_beer":"Oak Pils","popularity":1.0,"n_beers":4.0,"avg_abv":5.2,"max_abv":6.5},{"brewery":"Osteria Di Bastardu' - Last Out","city":"Brignano Gera D'Adda (BG)","lat":45.5455191,"long":9.6489533,"best_beer":"Brown Sugar","best_beer_score":2.5266666667,"most_popular_beer":"Bionda","popularity":1.0,"n_beers":2.0,"avg_abv":4.6,"max_abv":4.7},{"brewery":"Birrificio Agricolo Marduk","city":"Irgoli","lat":40.40999,"long":9.63135,"best_beer":"Black IPA","best_beer_score":3.0,"most_popular_beer":"American Pale Ale","popularity":1.0,"n_beers":5.0,"avg_abv":5.8,"max_abv":6.5},{"brewery":"No Tomorrow Craft Beer","city":"Milzano","lat":45.27358,"long":10.19927,"best_beer":"Led's Hop","best_beer_score":3.72,"most_popular_beer":"Led's Hop","popularity":7.0,"n_beers":3.0,"avg_abv":6.7666666667,"max_abv":8.5},{"brewery":"Mad Hops","city":"Darfo Boario Terme (BS)","lat":45.8834863,"long":10.1807068,"best_beer":"Red Sun","best_beer_score":2.8,"most_popular_beer":"Red Sun","popularity":1.0,"n_beers":1.0,"avg_abv":5.4,"max_abv":5.4},{"brewery":"Il Forteto","city":"Vicchio (FI)","lat":43.9332355,"long":11.4652902,"best_beer":"Casta\u00f1a","best_beer_score":3.07,"most_popular_beer":"Casta\u00f1a","popularity":2.0,"n_beers":2.0,"avg_abv":5.65,"max_abv":6.0},{"brewery":"Birrificio Spluga","city":"Gordona (SO)","lat":46.292293,"long":9.365335,"best_beer":"Spluga Bock","best_beer_score":2.28,"most_popular_beer":"Spluga Bock","popularity":1.0,"n_beers":2.0,"avg_abv":5.35,"max_abv":6.5},{"brewery":"Birrificio Agricolo La Groletta","city":"Rivoli","lat":45.07073,"long":7.51465,"best_beer":"Castagna","best_beer_score":2.8533333333,"most_popular_beer":"Castagna","popularity":1.0,"n_beers":2.0,"avg_abv":6.0,"max_abv":6.0},{"brewery":"Cascina Roveri","city":"Monzambano","lat":45.38534,"long":10.69331,"best_beer":"Scarlata","best_beer_score":2.8333333333,"most_popular_beer":"Assira","popularity":1.0,"n_beers":3.0,"avg_abv":6.0,"max_abv":7.0},{"brewery":"Birrificio San Paolo","city":"Torino (TO)","lat":45.09622,"long":7.366,"best_beer":"Ip\u00e8","best_beer_score":3.4142857143,"most_popular_beer":"Ip\u00e8","popularity":5.0,"n_beers":3.0,"avg_abv":6.5,"max_abv":8.0},{"brewery":"Birrificio Del Doge","city":"Zero Branco (TV)","lat":45.601701,"long":12.165212,"best_beer":"APA","best_beer_score":3.3457142857,"most_popular_beer":"APA","popularity":5.0,"n_beers":2.0,"avg_abv":6.4,"max_abv":8.0},{"brewery":"Birrificio Pavese","city":"Pavia","lat":45.19205,"long":9.15917,"best_beer":"Mayflower","best_beer_score":2.9266666667,"most_popular_beer":"Onissa","popularity":2.0,"n_beers":3.0,"avg_abv":5.7666666667,"max_abv":6.8},{"brewery":"Birrificio Castelli Romani (BCR)","city":"Albano Laziale (RM)","lat":41.72748,"long":12.659,"best_beer":"Blues explosion","best_beer_score":3.0833333333,"most_popular_beer":"Pig IPA","popularity":1.0,"n_beers":2.0,"avg_abv":7.0,"max_abv":8.5},{"brewery":"Birra Plurale","city":"Milano","lat":45.46427,"long":9.18951,"best_beer":"Plurale India Pale Ale","best_beer_score":2.7066666667,"most_popular_beer":"Plurale India Pale Ale","popularity":1.0,"n_beers":2.0,"avg_abv":6.05,"max_abv":7.0},{"brewery":"Beltaine Appennino Risorse","city":"Granaglione (Bo)","lat":43.77925,"long":11.24626,"best_beer":"Beltaine","best_beer_score":3.105,"most_popular_beer":"Beltaine","popularity":2.0,"n_beers":4.0,"avg_abv":5.95,"max_abv":7.0},{"brewery":"Henquet","city":"Ovada (AL)","lat":44.638346,"long":8.64525,"best_beer":"Tr\u00e4pun\u00e4","best_beer_score":2.6666666667,"most_popular_beer":"Tr\u00e4pun\u00e4","popularity":1.0,"n_beers":1.0,"avg_abv":6.6,"max_abv":6.6},{"brewery":"Birra Malarazza","city":"Siracusa","lat":37.07542,"long":15.28664,"best_beer":"Nura","best_beer_score":2.7366666667,"most_popular_beer":"Nura","popularity":1.0,"n_beers":1.0,"avg_abv":5.1,"max_abv":5.1},{"brewery":"Scarampola","city":"Millesimo (SV)","lat":44.367536,"long":8.201746,"best_beer":"IPA Italian Pale Ale","best_beer_score":2.8571428571,"most_popular_beer":"IPA Italian Pale Ale","popularity":5.0,"n_beers":2.0,"avg_abv":7.25,"max_abv":7.5},{"brewery":"Birrificio San Giovanni","city":"Roseto Degli Abruzzi (TE)","lat":42.677577,"long":14.0144636,"best_beer":"Scotch Ale A Modo Mio","best_beer_score":2.7133333333,"most_popular_beer":"Scotch Ale A Modo Mio","popularity":1.0,"n_beers":1.0,"avg_abv":4.8,"max_abv":4.8},{"brewery":"La Volpe e il Luppolo","city":"Simaxis","lat":39.92995,"long":8.68979,"best_beer":"Torraghettai","best_beer_score":2.9866666667,"most_popular_beer":"Torraghettai","popularity":1.0,"n_beers":1.0,"avg_abv":4.7,"max_abv":4.7},{"brewery":"Birrificio Valdarno Superiore (BVS)","city":"Malafrasca-San Frustino (AR)","lat":43.4960433,"long":11.6385589,"best_beer":"Malafrasca","best_beer_score":2.93,"most_popular_beer":"Malafrasca","popularity":1.0,"n_beers":1.0,"avg_abv":4.0,"max_abv":4.0},{"brewery":"Carpe Diem","city":"Calvisano (BS)","lat":45.3480525,"long":10.345921,"best_beer":"Avus","best_beer_score":2.59,"most_popular_beer":"64DC","popularity":1.0,"n_beers":4.0,"avg_abv":6.25,"max_abv":7.0},{"brewery":"Hop Warrior","city":"Roma","lat":41.98822,"long":13.06799,"best_beer":"Amnesia","best_beer_score":2.9433333333,"most_popular_beer":"AK 97","popularity":1.0,"n_beers":2.0,"avg_abv":7.0,"max_abv":8.5},{"brewery":"Birrificio dei Castelli","city":"Arcevia (AN)","lat":43.4994505,"long":12.9400955,"best_beer":"Repetita Iuvant","best_beer_score":2.32,"most_popular_beer":"Repetita Iuvant","popularity":1.0,"n_beers":1.0,"avg_abv":6.5,"max_abv":6.5},{"brewery":"Hilltop Brewery","city":"Bassano Romano","lat":42.22228,"long":12.18785,"best_beer":"Gallagher Stout","best_beer_score":3.4716666667,"most_popular_beer":"Gallagher Stout","popularity":4.0,"n_beers":6.0,"avg_abv":6.2166666667,"max_abv":11.0},{"brewery":"Birrificio Kaos","city":"Grumello Del Monte (BG)","lat":45.637181,"long":9.876759,"best_beer":"Zeus","best_beer_score":2.73,"most_popular_beer":"Zeus","popularity":1.0,"n_beers":1.0,"avg_abv":6.5,"max_abv":6.5},{"brewery":"Praforte","city":"Usago Di Travesio (PN)","lat":46.1847639,"long":12.8746706,"best_beer":"Sibilla","best_beer_score":2.71,"most_popular_beer":"Sibilla","popularity":1.0,"n_beers":1.0,"avg_abv":4.8,"max_abv":4.8},{"brewery":"Fabbrica della Birra Perugia","city":"Pontenuovo di Torgiano","lat":43.1122,"long":12.38878,"best_beer":"ILA Scotch Ale","best_beer_score":3.0375,"most_popular_beer":"ILA Scotch Ale","popularity":2.0,"n_beers":3.0,"avg_abv":6.2,"max_abv":8.0},{"brewery":"AH Br\u00e4u","city":"Fortezza - Franzensfeste (BZ)","lat":46.7888059,"long":11.6101555,"best_beer":"AH-Br\u00e4u Andreator","best_beer_score":2.8133333333,"most_popular_beer":"AH-Br\u00e4u Andreator","popularity":1.0,"n_beers":1.0,"avg_abv":7.5,"max_abv":7.5},{"brewery":"Eternal City Brewing (ECB)","city":"Roma","lat":41.98822,"long":13.06799,"best_beer":"Lupa","best_beer_score":3.0725,"most_popular_beer":"Lupa","popularity":2.0,"n_beers":1.0,"avg_abv":6.2,"max_abv":6.2},{"brewery":"Bicu Genova","city":"Genova","lat":44.40478,"long":8.94439,"best_beer":"Chris","best_beer_score":2.52,"most_popular_beer":"Chris","popularity":1.0,"n_beers":1.0,"avg_abv":5.9,"max_abv":5.9},{"brewery":"Birrificio Artigianale Parsifal","city":"San Raffaele Cimena (TO)","lat":45.146651,"long":7.849324,"best_beer":"Madoc","best_beer_score":2.7666666667,"most_popular_beer":"Madoc","popularity":1.0,"n_beers":1.0,"avg_abv":6.5,"max_abv":6.5},{"brewery":"Gio'Bi","city":"San Lucido (CS)","lat":39.308892,"long":16.050788,"best_beer":"Birra Alla Banana","best_beer_score":2.9266666667,"most_popular_beer":"Birra Alla Banana","popularity":1.0,"n_beers":1.0,"avg_abv":4.0,"max_abv":4.0},{"brewery":"Triscele Srl","city":"Messina","lat":38.19394,"long":15.55256,"best_beer":"Birra Del Sole","best_beer_score":2.87,"most_popular_beer":"Birra Del Sole","popularity":3.0,"n_beers":2.0,"avg_abv":4.6,"max_abv":4.7},{"brewery":"Caber Beer","city":"Perugia","lat":43.1122,"long":12.38878,"best_beer":"Caber Beer 24 Carati","best_beer_score":3.3625,"most_popular_beer":"Caber Beer 24 Carati","popularity":6.0,"n_beers":2.0,"avg_abv":7.5,"max_abv":8.0},{"brewery":"Anxanum Brewing Company","city":"Lanciano (CH)","lat":42.2305316,"long":14.3907794,"best_beer":"Anxa Golden Ale","best_beer_score":2.5733333333,"most_popular_beer":"Anxa Indian Pale Ale","popularity":1.0,"n_beers":3.0,"avg_abv":5.5,"max_abv":5.6},{"brewery":"Terrantiga","city":"San Sperate","lat":39.35758,"long":9.00814,"best_beer":"Bresca","best_beer_score":2.5433333333,"most_popular_beer":"Bresca","popularity":1.0,"n_beers":1.0,"avg_abv":6.8,"max_abv":6.8},{"brewery":"Birrificio Artigianale La Tresca","city":"Baraggia (NO)","lat":45.85516,"long":8.90885,"best_beer":"La Tresca Lupalis","best_beer_score":2.9166666667,"most_popular_beer":"La Tresca Lupalis","popularity":1.0,"n_beers":1.0,"avg_abv":5.6,"max_abv":5.6},{"brewery":"Diorama","city":"Firenze","lat":43.77925,"long":11.24626,"best_beer":"123 Stella","best_beer_score":2.8333333333,"most_popular_beer":"123 Stella","popularity":1.0,"n_beers":1.0,"avg_abv":3.5,"max_abv":3.5},{"brewery":"Pustertaler Frieheit","city":"Niederdorf","lat":46.73781,"long":12.17266,"best_beer":"Spezialbier","best_beer_score":3.0,"most_popular_beer":"Spezialbier","popularity":1.0,"n_beers":1.0,"avg_abv":5.4,"max_abv":5.4},{"brewery":"Saint John's Bier","city":"Faicchio (BN)","lat":41.2780306,"long":14.4787446,"best_beer":"Dark Strong Ale","best_beer_score":2.84,"most_popular_beer":"Dark Strong Ale","popularity":2.0,"n_beers":1.0,"avg_abv":7.5,"max_abv":7.5},{"brewery":"Borderline Brewery","city":"Buttrio (UD)","lat":46.01098,"long":13.33354,"best_beer":"Borderline Dark Mild","best_beer_score":2.92,"most_popular_beer":"Borderline Dark Mild","popularity":1.0,"n_beers":2.0,"avg_abv":5.6,"max_abv":6.5},{"brewery":"Gatti Birrai","city":"San Marinella (RM)","lat":42.0353397,"long":11.8683083,"best_beer":null,"best_beer_score":null,"most_popular_beer":null,"popularity":null,"n_beers":1.0,"avg_abv":4.8,"max_abv":4.8},{"brewery":"Birrificio Artigianale Aleghe","city":"Coazze (TO)","lat":45.0521938,"long":7.2979015,"best_beer":"La Bionda","best_beer_score":2.6933333333,"most_popular_beer":"La Bionda","popularity":1.0,"n_beers":1.0,"avg_abv":5.3,"max_abv":5.3},{"brewery":"Birra Camerini","city":"Piazzola sul Brenta (PD)","lat":45.541496,"long":11.784404,"best_beer":"Misteriosa","best_beer_score":2.84,"most_popular_beer":"Misteriosa","popularity":1.0,"n_beers":1.0,"avg_abv":5.7,"max_abv":5.7},{"brewery":"Birrificio Leverano","city":"Leverano (LE)","lat":40.2894249,"long":17.9994144,"best_beer":"Birrozza La Rossa","best_beer_score":2.906,"most_popular_beer":"Birrozza La Rossa","popularity":3.0,"n_beers":1.0,"avg_abv":5.5,"max_abv":5.5},{"brewery":"Birra Nove Punto Uno (Birra 9.1)","city":"Montecchia Di Crosara (VR)","lat":45.4845178,"long":11.253425,"best_beer":"La Bira Del Bocia Belgian Ale","best_beer_score":2.55,"most_popular_beer":"La Bira Del Bocia Belgian Ale","popularity":1.0,"n_beers":1.0,"avg_abv":7.8,"max_abv":7.8},{"brewery":"Wooden House Brewery","city":"Conegliano (TV)","lat":45.8862172,"long":12.2977566,"best_beer":"Barley Whisky","best_beer_score":3.0,"most_popular_beer":"Barley Whisky","popularity":1.0,"n_beers":1.0,"avg_abv":10.5,"max_abv":10.5},{"brewery":"Mostofficina 671","city":"Roma","lat":41.98822,"long":13.06799,"best_beer":"Tenango Stout","best_beer_score":3.0833333333,"most_popular_beer":"Tenango Stout","popularity":1.0,"n_beers":1.0,"avg_abv":5.5,"max_abv":5.5},{"brewery":"La Mi\u2019 Birra","city":"Empoli (FI)","lat":43.7194884,"long":10.9458556,"best_beer":"La Mi' Bionda","best_beer_score":2.4766666667,"most_popular_beer":"La Mi' Bionda","popularity":1.0,"n_beers":1.0,"avg_abv":4.8,"max_abv":4.8},{"brewery":"Birra Cascinazza","city":"Buccinasco","lat":45.40703,"long":9.1083,"best_beer":"Cascinazza Amber","best_beer_score":3.195,"most_popular_beer":"Cascinazza Amber","popularity":2.0,"n_beers":1.0,"avg_abv":6.4,"max_abv":6.4},{"brewery":"Rhyton","city":"Mercatale Di Vernio (PO)","lat":44.0430439,"long":11.1493489,"best_beer":null,"best_beer_score":null,"most_popular_beer":null,"popularity":null,"n_beers":1.0,"avg_abv":4.3,"max_abv":4.3},{"brewery":"Piccolo Birrificio Indipendente Decimoprimo","city":"Trinitapoli (FG)","lat":41.3407537,"long":15.9825311,"best_beer":"Karibu","best_beer_score":2.66,"most_popular_beer":"Karibu","popularity":1.0,"n_beers":1.0,"avg_abv":5.0,"max_abv":5.0},{"brewery":"Ugo Contini Bonacossi","city":"Roccalbegna (GR)","lat":42.7859754,"long":11.5076818,"best_beer":"Br\u00f3c","best_beer_score":2.92,"most_popular_beer":"Br\u00f3c","popularity":1.0,"n_beers":1.0,"avg_abv":6.0,"max_abv":6.0},{"brewery":"Okorei","city":"Mariglianella","lat":40.92962,"long":14.43703,"best_beer":"Amarilla","best_beer_score":2.56,"most_popular_beer":"Amarilla","popularity":1.0,"n_beers":1.0,"avg_abv":5.5,"max_abv":5.5},{"brewery":"Birrificio Semedorato SRL","city":"Sommatino (CL)","lat":37.3340216,"long":13.9929589,"best_beer":"Semedorato","best_beer_score":2.816,"most_popular_beer":"Semedorato","popularity":3.0,"n_beers":1.0,"avg_abv":5.0,"max_abv":5.0},{"brewery":"Majolini - Birrificio Di Franciacorta","city":"Ome","lat":45.62728,"long":10.12137,"best_beer":"Birrificio Di Franciacorta 18.80","best_beer_score":2.89,"most_popular_beer":"Birrificio Di Franciacorta 18.80","popularity":2.0,"n_beers":2.0,"avg_abv":6.05,"max_abv":7.0},{"brewery":"Birra Pachamama","city":"Morro Reatino (RI)","lat":42.5266508,"long":12.8323214,"best_beer":"Full Powa","best_beer_score":3.3925,"most_popular_beer":"Full Powa","popularity":2.0,"n_beers":1.0,"avg_abv":7.5,"max_abv":7.5},{"brewery":"Gallia Omnia","city":"Modena","lat":44.64783,"long":10.92539,"best_beer":"Cat\u00f9tarvos","best_beer_score":2.6766666667,"most_popular_beer":"Cat\u00f9tarvos","popularity":1.0,"n_beers":1.0,"avg_abv":7.0,"max_abv":7.0},{"brewery":"Birrificio Artigianale Forestiera","city":"Monteverdi Marittimo","lat":43.17787,"long":10.71133,"best_beer":"Rigueuze","best_beer_score":2.6766666667,"most_popular_beer":"Rigueuze","popularity":1.0,"n_beers":1.0,"avg_abv":4.8,"max_abv":4.8},{"brewery":"Redentor Beer","city":"Morgano","lat":45.6433975,"long":12.1126279,"best_beer":"Skia","best_beer_score":3.1475,"most_popular_beer":"Skia","popularity":2.0,"n_beers":1.0,"avg_abv":5.8,"max_abv":5.8},{"brewery":"Corno","city":"Cornovecchio (LO)","lat":45.136668,"long":9.799367,"best_beer":"Made In Blonde","best_beer_score":2.2466666667,"most_popular_beer":"Made In Blonde","popularity":1.0,"n_beers":1.0,"avg_abv":4.7,"max_abv":4.7},{"brewery":"Real Beer","city":"Firenze","lat":43.77925,"long":11.24626,"best_beer":"Notte Celtica","best_beer_score":2.71,"most_popular_beer":"Notte Celtica","popularity":1.0,"n_beers":1.0,"avg_abv":6.5,"max_abv":6.5},{"brewery":"La Bireta delle Cinque Terre","city":"Riomaggiore (SP)","lat":44.0989747,"long":9.7386704,"best_beer":"La Tradizionale","best_beer_score":2.7166666667,"most_popular_beer":"La Tradizionale","popularity":1.0,"n_beers":1.0,"avg_abv":5.2,"max_abv":5.2},{"brewery":"Birrificio La Superba","city":"Busalla (GE)","lat":44.573483,"long":8.9433002,"best_beer":"Genova","best_beer_score":2.2266666667,"most_popular_beer":"Genova","popularity":1.0,"n_beers":1.0,"avg_abv":4.5,"max_abv":4.5},{"brewery":"Birrificio Tartavalle","city":"Taceno (LC)","lat":46.024486,"long":9.36394,"best_beer":"Lasco","best_beer_score":2.5566666667,"most_popular_beer":"Lasco","popularity":1.0,"n_beers":1.0,"avg_abv":5.5,"max_abv":5.5},{"brewery":"Birrificio Alveria","city":"Canicattini Bagni (SR)","lat":37.0349279,"long":15.0623367,"best_beer":"Alveria Imperial IPA","best_beer_score":2.8666666667,"most_popular_beer":"Alveria American Brown Ale","popularity":1.0,"n_beers":2.0,"avg_abv":6.5,"max_abv":8.0},{"brewery":"Birrificio Artigianale Opera","city":"Pavia","lat":45.19205,"long":9.15917,"best_beer":"Crus - Sacra Birra","best_beer_score":2.96,"most_popular_beer":"Crus - Sacra Birra","popularity":1.0,"n_beers":1.0,"avg_abv":7.0,"max_abv":7.0}]