[{"brewery":"Efes Karaganda Pivovarinniy Zavod","city":"Karaganda","lat":49.80187,"long":73.10211,"best_beer":"Karagandinskoye Tyemnoye","best_beer_score":2.995,"most_popular_beer":"Karagandinskoye Svetloye","popularity":2.0,"n_beers":8.0,"avg_abv":4.9875,"max_abv":6.5},{"brewery":"TOO Arai-90","city":"Lisakovsk (Kustanei Oblast)","lat":52.54707,"long":62.49987,"best_beer":"Djohnny Dobryak","best_beer_score":2.4166666667,"most_popular_beer":"Djohnny Dobryak","popularity":1.0,"n_beers":1.0,"avg_abv":4.5,"max_abv":4.5},{"brewery":"AO Susyndar","city":"Almaty","lat":43.25667,"long":76.92861,"best_beer":"S&X","best_beer_score":2.32,"most_popular_beer":"S&X","popularity":1.0,"n_beers":1.0,"avg_abv":4.5,"max_abv":4.5},{"brewery":"Rosa","city":"Pavlodar","lat":52.28333,"long":76.96667,"best_beer":"Kochevnik Premium","best_beer_score":2.9833333333,"most_popular_beer":"Bamberg Originalnoye","popularity":1.0,"n_beers":8.0,"avg_abv":4.3625,"max_abv":5.1},{"brewery":"TOO Kompaniya Ak-Nar (\"Derbes\")","city":"Almaty","lat":43.25667,"long":76.92861,"best_beer":"Derbes Dark","best_beer_score":2.8566666667,"most_popular_beer":"Alma Ata Pilsner","popularity":3.0,"n_beers":7.0,"avg_abv":5.3571428571,"max_abv":7.5},{"brewery":"Line Brew Bottlers","city":"Kayrat","lat":43.59470145,"long":77.090764563,"best_beer":null,"best_beer_score":null,"most_popular_beer":null,"popularity":null,"n_beers":3.0,"avg_abv":5.0666666667,"max_abv":5.2},{"brewery":"Pyerviy Pivovarenniy Zavod","city":"Almaty","lat":43.25667,"long":76.92861,"best_beer":"Zhigulovskoye","best_beer_score":2.75,"most_popular_beer":"Zhigulovskoye","popularity":2.0,"n_beers":3.0,"avg_abv":4.7,"max_abv":5.3},{"brewery":"Shimkentsira","city":"Shimkent","lat":42.3,"long":69.6,"best_beer":"Shimkentskoye Dark","best_beer_score":3.0,"most_popular_beer":"Shimkentskoye Pilsner","popularity":1.0,"n_beers":2.0,"avg_abv":5.4,"max_abv":6.0},{"brewery":"Chastnaya Pivovarnya Erstes","city":"Pavlodar","lat":52.28333,"long":76.96667,"best_beer":"Erstes Dunkel","best_beer_score":2.9266666667,"most_popular_beer":"Erstes Premium Gold","popularity":1.0,"n_beers":4.0,"avg_abv":4.625,"max_abv":4.7},{"brewery":"TOO Dinal","city":"Almaty","lat":43.25667,"long":76.92861,"best_beer":"Tian-Shan Klassikalyk\/Klassichiskoye","best_beer_score":2.8066666667,"most_popular_beer":"Tian-Shan Apple Beer","popularity":1.0,"n_beers":4.0,"avg_abv":5.0,"max_abv":7.0}]