[{"brewery":"SIA Piebalga Alus","city":"Jaunpiebalga","lat":57.17745,"long":26.0284,"best_beer":"Piebalgas Tum\u009aais Lux (Piebalga Dark Lux)","best_beer_score":2.9166666667,"most_popular_beer":"Minhauzen","popularity":4.0,"n_beers":4.0,"avg_abv":5.0,"max_abv":5.8},{"brewery":"Nurme","city":"Riga","lat":56.946,"long":24.10589,"best_beer":"Triangulum","best_beer_score":3.1266666667,"most_popular_beer":"Nurme Oker","popularity":1.0,"n_beers":6.0,"avg_abv":6.2166666667,"max_abv":8.0},{"brewery":"Aldaris","city":"Riga","lat":56.946,"long":24.10589,"best_beer":"Porteris","best_beer_score":3.6830582524,"most_popular_beer":"Porteris","popularity":204.0,"n_beers":20.0,"avg_abv":5.14,"max_abv":6.8},{"brewery":"Kimmels Riga","city":"Rigas rajons","lat":56.946,"long":24.10589,"best_beer":"R\u012bgas Ori\u0123in\u0101lais (Riga's Originall)","best_beer_score":2.975,"most_popular_beer":"R\u012bgas Ori\u0123in\u0101lais (Riga's Originall)","popularity":2.0,"n_beers":7.0,"avg_abv":4.5714285714,"max_abv":7.0},{"brewery":"Alus Darbn\u012bca Labietis","city":"R\u012bga","lat":56.946,"long":24.10589,"best_beer":"Pokainu Mezs (Magic Forest)","best_beer_score":3.642,"most_popular_beer":"Pela\u0161\u0137u Velns","popularity":5.0,"n_beers":32.0,"avg_abv":6.1625,"max_abv":13.0},{"brewery":"C\u0113su Alus Dar\u00eetava","city":"Cesis","lat":57.31188,"long":25.27456,"best_beer":"C\u0113su English Ale","best_beer_score":3.225,"most_popular_beer":"C\u0113su Nefiltr\u0113tais (Cesu Unfiltered)","popularity":12.0,"n_beers":21.0,"avg_abv":5.0142857143,"max_abv":6.2},{"brewery":"Peter's Brewhouse","city":"Riga","lat":56.946,"long":24.10589,"best_beer":"Blond","best_beer_score":2.9266666667,"most_popular_beer":"Blond","popularity":1.0,"n_beers":3.0,"avg_abv":4.7333333333,"max_abv":5.0},{"brewery":"Bauskas Alus","city":"Imantas","lat":57.4127776,"long":27.2432267,"best_beer":"Tum\u0161ais Specialais","best_beer_score":2.975,"most_popular_beer":"Tum\u0161ais Specialais","popularity":4.0,"n_beers":3.0,"avg_abv":4.7666666667,"max_abv":5.5},{"brewery":"Bruveris - SIA Alus Tirdzniecibas Grupa","city":"Riga","lat":56.946,"long":24.10589,"best_beer":"Ingver Alus Sarkanais","best_beer_score":3.3514285714,"most_popular_beer":"Ingver Alus Sarkanais","popularity":5.0,"n_beers":10.0,"avg_abv":5.02,"max_abv":6.3},{"brewery":"Livu Alus","city":"Liepaja","lat":56.50474,"long":21.01085,"best_beer":"Livu Premium","best_beer_score":3.146,"most_popular_beer":"Lacplesis Gaisais","popularity":9.0,"n_beers":12.0,"avg_abv":5.7083333333,"max_abv":9.5},{"brewery":"Valmiermui\u017ea Alus","city":"Valmiermui\u017ea","lat":57.5608996,"long":25.429737,"best_beer":"Valmiermui\u017e\u009ea Tum\u009aais (Valmiermui\u017ea Dark)","best_beer_score":3.5315384615,"most_popular_beer":"Valmiermui\u017e\u009ea Tum\u009aais (Valmiermui\u017ea Dark)","popularity":11.0,"n_beers":5.0,"avg_abv":5.56,"max_abv":5.8},{"brewery":"Odziena Mui\u017ea","city":"Odziena","lat":56.7111499,"long":25.6860372,"best_beer":"IPA","best_beer_score":2.8833333333,"most_popular_beer":"IPA","popularity":1.0,"n_beers":2.0,"avg_abv":5.4,"max_abv":5.5},{"brewery":"T\u0113rvetes Alus","city":"Kro\u0146auce","lat":56.5130227,"long":23.3458276,"best_beer":"T\u0113rvetes Alus","best_beer_score":2.9675,"most_popular_beer":"T\u0113rvetes Alus","popularity":2.0,"n_beers":1.0,"avg_abv":5.3,"max_abv":5.3},{"brewery":"Lodi\u0146a Alus","city":"Bauska","lat":56.40794,"long":24.19443,"best_beer":"Lodi\u0146a \u012apa\u009aais Alus (Lodina Special Beer)","best_beer_score":2.8033333333,"most_popular_beer":"Lodi\u0146a \u012apa\u009aais Alus (Lodina Special Beer)","popularity":1.0,"n_beers":3.0,"avg_abv":4.9666666667,"max_abv":5.2},{"brewery":"Latgales Alus","city":"Daugavpils","lat":55.88333,"long":26.53333,"best_beer":"Meln\u0101 P\u0113rle","best_beer_score":3.19,"most_popular_beer":"Latgale","popularity":2.0,"n_beers":4.0,"avg_abv":5.175,"max_abv":5.5},{"brewery":"AS L\u0101\u010dpl\u0113\u009aa Alus","city":"Lielvarde","lat":56.72066,"long":24.80743,"best_beer":"L\u0101\u010dpl\u0113sis Premium Alus","best_beer_score":2.8875,"most_popular_beer":"L\u0101\u010dpl\u0113sis Premium Alus","popularity":2.0,"n_beers":5.0,"avg_abv":6.02,"max_abv":9.5},{"brewery":"SIA Rose Brewery","city":"Ada\u017ei","lat":57.0819829,"long":24.3243287,"best_beer":"Adazu Meistara Citra","best_beer_score":2.86,"most_popular_beer":"Adazu Meistara Citra","popularity":1.0,"n_beers":1.0,"avg_abv":5.2,"max_abv":5.2},{"brewery":"Lido Atputas Centrs","city":"Riga","lat":56.946,"long":24.10589,"best_beer":"LIDO Speci\u0101lais","best_beer_score":2.9583333333,"most_popular_beer":"LIDO Speci\u0101lais","popularity":4.0,"n_beers":3.0,"avg_abv":4.5,"max_abv":4.5},{"brewery":"SIA Alus Nams","city":"R\u012bgas rajons","lat":56.515275,"long":25.8572294,"best_beer":"Br\u0101lis Gai\u009aais Nefiltr\u0113ts Alus (Br\u0101lis Pale Unfiltered Beer)","best_beer_score":2.6525,"most_popular_beer":"Tum\u0161ais","popularity":3.0,"n_beers":7.0,"avg_abv":4.9428571429,"max_abv":6.6},{"brewery":"Sia Zaksi","city":"Ventspils","lat":57.39485,"long":21.56121,"best_beer":"U\u017eavas Gai\u0161ais","best_beer_score":2.916,"most_popular_beer":"U\u017eavas Gai\u0161ais","popularity":3.0,"n_beers":2.0,"avg_abv":4.4,"max_abv":4.6},{"brewery":"Malduguns","city":"Raunas Pagasts","lat":57.3521807,"long":25.6132533323,"best_beer":"Lauvas Paciet\u012bba","best_beer_score":3.646,"most_popular_beer":"Lauvas Paciet\u012bba","popularity":3.0,"n_beers":11.0,"avg_abv":6.6545454545,"max_abv":8.9},{"brewery":"T\u0101lavas K\u0113ni\u0146a Alus","city":"Lizums","lat":57.1912492,"long":26.37099,"best_beer":"Savie\u0161u Alus","best_beer_score":2.9033333333,"most_popular_beer":"Savie\u0161u Alus","popularity":1.0,"n_beers":2.0,"avg_abv":5.2,"max_abv":5.2},{"brewery":"Gutta","city":"Riga","lat":56.946,"long":24.10589,"best_beer":"R\u012bgas Kvass","best_beer_score":2.9,"most_popular_beer":"R\u012bgas Kvass","popularity":3.0,"n_beers":1.0,"avg_abv":0.5,"max_abv":0.5},{"brewery":"Lacple\u0161a Alus","city":"Lielvarde","lat":56.72066,"long":24.80743,"best_beer":"Belgu Dubbel","best_beer_score":2.9033333333,"most_popular_beer":"Ziedu Laika","popularity":1.0,"n_beers":4.0,"avg_abv":5.725,"max_abv":7.4},{"brewery":"RIMI Baltic","city":"Riga","lat":56.946,"long":24.10589,"best_beer":"Strong Walter","best_beer_score":2.5833333333,"most_popular_beer":"Strong Walter","popularity":1.0,"n_beers":1.0,"avg_abv":7.0,"max_abv":7.0},{"brewery":"\u0136ekavas Avots (Simeks)","city":"\u0136ekava","lat":56.82662,"long":24.23,"best_beer":"Varpa Ekstra","best_beer_score":2.9033333333,"most_popular_beer":"Varpa Rigas Sevi\u0161kais","popularity":1.0,"n_beers":3.0,"avg_abv":4.9,"max_abv":5.5},{"brewery":"Mikela Alus Daritava","city":"Ozolnieki","lat":56.68986,"long":23.7761,"best_beer":"Mikela Alus","best_beer_score":2.75,"most_popular_beer":"Mikela Alus","popularity":1.0,"n_beers":1.0,"avg_abv":5.8,"max_abv":5.8},{"brewery":"\u0100rpus Brewing Co.","city":"Riga","lat":56.946,"long":24.10589,"best_beer":"DDH Pale Ale","best_beer_score":2.7033333333,"most_popular_beer":"DDH Pale Ale","popularity":1.0,"n_beers":1.0,"avg_abv":6.2,"max_abv":6.2},{"brewery":"ALEhouse","city":"Riga","lat":56.946,"long":24.10589,"best_beer":"Prima Donna Belgian Style Saison","best_beer_score":2.8033333333,"most_popular_beer":"Prima Donna Belgian Style Saison","popularity":1.0,"n_beers":1.0,"avg_abv":4.5,"max_abv":4.5}]