[{"brewery":"Erdmann's Cerveza Alemana Artesanal","city":"Ticuantepe","lat":12.02263,"long":-86.20493,"best_beer":"Kolsch","best_beer_score":2.9266666667,"most_popular_beer":"IPA","popularity":1.0,"n_beers":4.0,"avg_abv":6.2,"max_abv":6.7},{"brewery":"Industrial Cervecera S.A. \/ Compa\u00f1\u00eda Cervecera De Nicaragua","city":"Managua","lat":12.13282,"long":-86.2504,"best_beer":"Bufalo","best_beer_score":3.1666666667,"most_popular_beer":"To\u00f1a Cerveza","popularity":248.0,"n_beers":8.0,"avg_abv":4.4375,"max_abv":5.1},{"brewery":"Nicaragua Craft Beer Company \/ San Juan del Sur Cervecer\u00eda","city":"San Juan del Sur","lat":11.25292,"long":-85.87049,"best_beer":"Panga Drops","best_beer_score":3.1275,"most_popular_beer":"Panga Drops","popularity":6.0,"n_beers":15.0,"avg_abv":5.7133333333,"max_abv":8.0},{"brewery":"Campo Brew Co.","city":"Playa Santana","lat":11.4586492,"long":-86.1095050439,"best_beer":"Belgian Saison","best_beer_score":2.6733333333,"most_popular_beer":"Belgian Saison","popularity":1.0,"n_beers":1.0,"avg_abv":7.0,"max_abv":7.0},{"brewery":"La Porte\u00f1a Cervecer\u00eda Artesanal","city":"San Juan Del Sur","lat":11.238361,"long":-85.850568258,"best_beer":"La Porte\u00f1a Stout","best_beer_score":3.125,"most_popular_beer":"La Porte\u00f1a Stout","popularity":2.0,"n_beers":6.0,"avg_abv":5.0,"max_abv":5.0},{"brewery":"Compa\u00f1\u00eda Cervecera Del Moropotente, S.A.","city":"Carazo Dolores","lat":11.8562374,"long":-86.215818,"best_beer":"19 Dias","best_beer_score":2.62,"most_popular_beer":"19 Dias","popularity":1.0,"n_beers":1.0,"avg_abv":5.7,"max_abv":5.7}]