[{"brewery":"Compa\u00f1\u00eda Cervecera de Puerto Rico","city":"Mayaguez","lat":18.20107,"long":-67.13962,"best_beer":"Buccoo Bay Lemon Lager","best_beer_score":3.1016666667,"most_popular_beer":"Medalla Light","popularity":213.0,"n_beers":6.0,"avg_abv":4.8166666667,"max_abv":6.0},{"brewery":"FOK Brewing Company","city":"Caguas","lat":18.23412,"long":-66.0485,"best_beer":"B.O.M.B.S.","best_beer_score":3.2966666667,"most_popular_beer":"Red Ale","popularity":10.0,"n_beers":3.0,"avg_abv":5.3333333333,"max_abv":6.0},{"brewery":"Zurc Br\u00e4uhaus Craft Beers","city":"Coamo","lat":18.07996,"long":-66.35795,"best_beer":"Zurc \/ Stone - R\u00e1faga","best_beer_score":3.3525,"most_popular_beer":"Zurc \/ Stone - R\u00e1faga","popularity":2.0,"n_beers":7.0,"avg_abv":5.8142857143,"max_abv":7.5},{"brewery":"Cerveceria Sothego","city":"Guaynabo","lat":18.35745,"long":-66.111,"best_beer":"Dacay Red Ale","best_beer_score":2.9166666667,"most_popular_beer":"Dacay IPA","popularity":2.0,"n_beers":4.0,"avg_abv":6.325,"max_abv":7.6},{"brewery":"Ocean Lab Brewing Company","city":"Carolina","lat":18.38078,"long":-65.95739,"best_beer":"Ocean IPA","best_beer_score":3.7485714286,"most_popular_beer":"Ocean Blonde Ale","popularity":6.0,"n_beers":15.0,"avg_abv":5.9733333333,"max_abv":7.5},{"brewery":"Barlovento Brewing Co.","city":"Manat\u00ed","lat":18.42745,"long":-66.49212,"best_beer":"Gale\u00f3n IPA","best_beer_score":3.22,"most_popular_beer":"Gale\u00f3n IPA","popularity":3.0,"n_beers":2.0,"avg_abv":6.0,"max_abv":6.0},{"brewery":"Old Harbor Brewery","city":"Carolina","lat":18.38078,"long":-65.95739,"best_beer":"Cerveza Kofresi","best_beer_score":3.7788135593,"most_popular_beer":"Cerveza Kofresi","popularity":57.0,"n_beers":12.0,"avg_abv":6.0041666667,"max_abv":8.5},{"brewery":"Boquer\u00f3n Brewing Co.","city":"Cabo Rojo","lat":18.08663,"long":-67.14573,"best_beer":"Crash Boat IPA","best_beer_score":3.4654545455,"most_popular_beer":"Boqueron Blonde Ale","popularity":14.0,"n_beers":11.0,"avg_abv":5.9454545455,"max_abv":8.2},{"brewery":"Borinquen Grill & Brewing Company","city":"Carolina","lat":18.38078,"long":-65.95739,"best_beer":"Xixa Honney Wheat Ale","best_beer_score":2.96,"most_popular_beer":"Xixa Honney Wheat Ale","popularity":1.0,"n_beers":1.0,"avg_abv":5.0,"max_abv":5.0},{"brewery":"Se\u00f1orial Brewing Company","city":"Ponce","lat":18.01031,"long":-66.62398,"best_beer":"El Vig\u00eda","best_beer_score":2.8466666667,"most_popular_beer":"El Vig\u00eda","popularity":1.0,"n_beers":2.0,"avg_abv":5.45,"max_abv":5.6},{"brewery":"Ingeniero Microbrewery","city":"Manat\u00ed","lat":18.42745,"long":-66.49212,"best_beer":"Porter Rican - Chocolate Porter","best_beer_score":3.436,"most_popular_beer":"Porter Rican - Chocolate Porter","popularity":3.0,"n_beers":1.0,"avg_abv":6.5,"max_abv":6.5},{"brewery":"Cerveceria Tesoro","city":"Mayaguez","lat":18.20107,"long":-67.13962,"best_beer":"Tesoro","best_beer_score":2.5033333333,"most_popular_beer":"Tesoro","popularity":1.0,"n_beers":1.0,"avg_abv":4.5,"max_abv":4.5},{"brewery":"Boxlab Brewing Company","city":"Aguadilla","lat":18.42745,"long":-67.15407,"best_beer":"Mal de Ojo","best_beer_score":2.6866666667,"most_popular_beer":"Cocotero","popularity":1.0,"n_beers":2.0,"avg_abv":6.8,"max_abv":7.0},{"brewery":"Dragon Stone Abbey","city":"Caguas","lat":18.23412,"long":-66.0485,"best_beer":"Saphira","best_beer_score":3.1975,"most_popular_beer":"Saphira","popularity":2.0,"n_beers":2.0,"avg_abv":6.3,"max_abv":6.6},{"brewery":"Cervezas Del Sur","city":"Ponce","lat":18.01031,"long":-66.62398,"best_beer":"Buy\u00e9","best_beer_score":2.6054545455,"most_popular_beer":"Buy\u00e9","popularity":9.0,"n_beers":1.0,"avg_abv":4.0,"max_abv":4.0}]