[{"brewery":"Sociedade Central de Cervejas","city":"Vialonga","lat":38.87206,"long":-9.07805,"best_beer":"Bohemia 1835","best_beer_score":3.4409090909,"most_popular_beer":"Sagres Cerveja","popularity":279.0,"n_beers":20.0,"avg_abv":4.35,"max_abv":7.0},{"brewery":"Cerveja Aroeira","city":"Lisboa","lat":38.71667,"long":-9.13333,"best_beer":"La Javarde","best_beer_score":2.97,"most_popular_beer":"Taborda","popularity":1.0,"n_beers":7.0,"avg_abv":6.1714285714,"max_abv":8.0},{"brewery":"Lidl & Cia","city":"Sintra","lat":38.80097,"long":-9.37826,"best_beer":"Argus","best_beer_score":2.7875,"most_popular_beer":"Argus","popularity":2.0,"n_beers":1.0,"avg_abv":5.0,"max_abv":5.0},{"brewery":"Deck Beer Lab","city":"Estoril","lat":38.70571,"long":-9.39773,"best_beer":"Salazar IPA","best_beer_score":2.81,"most_popular_beer":"Tamariz APA","popularity":1.0,"n_beers":4.0,"avg_abv":5.45,"max_abv":6.5},{"brewery":"Cereuro - Cervejeira Europeia (Tagus)","city":"Carnaxide","lat":38.72706,"long":-9.24671,"best_beer":"Tagus Rouge","best_beer_score":2.915,"most_popular_beer":"Tagus","popularity":20.0,"n_beers":3.0,"avg_abv":5.3333333333,"max_abv":6.2},{"brewery":"Unicer Uni\u00e3o Cervejeira S.A.","city":"S. Mamede de Infesta","lat":41.196738,"long":-8.6053378,"best_beer":"Super Bock Selec\u00e7\u00e3o 1927 Bengal Amber IPA","best_beer_score":3.185,"most_popular_beer":"Super Bock","popularity":391.0,"n_beers":21.0,"avg_abv":4.9714285714,"max_abv":7.5},{"brewery":"Dois Corvos Cervejeira","city":"Lisboa","lat":38.71667,"long":-9.13333,"best_beer":"Fuzeta","best_beer_score":3.61,"most_popular_beer":"Finisterra","popularity":10.0,"n_beers":40.0,"avg_abv":6.725,"max_abv":10.5},{"brewery":"Passarola Brewing","city":"Lisboa","lat":38.71667,"long":-9.13333,"best_beer":"Passarola IPA","best_beer_score":3.7455555556,"most_popular_beer":"Passarola IPA","popularity":7.0,"n_beers":13.0,"avg_abv":6.9923076923,"max_abv":11.9},{"brewery":"Barona Brewing Company","city":"Santo Ant\u00f3nio Das Areias","lat":39.4149123,"long":-7.3494253,"best_beer":"Barona\/ Totenhopfen Gravitational Collapse","best_beer_score":3.0,"most_popular_beer":"Barona IPA","popularity":1.0,"n_beers":6.0,"avg_abv":6.4333333333,"max_abv":9.0},{"brewery":"Mean Sardine Brewery","city":"Mafra","lat":38.93793,"long":-9.32756,"best_beer":"Voragem","best_beer_score":3.7222222222,"most_popular_beer":"Zagaia","popularity":7.0,"n_beers":12.0,"avg_abv":8.1083333333,"max_abv":12.0},{"brewery":"Cerveja Independente Musa","city":"Lisboa","lat":38.71667,"long":-9.13333,"best_beer":"Born In The IPA","best_beer_score":3.525,"most_popular_beer":"Born In The IPA","popularity":8.0,"n_beers":16.0,"avg_abv":6.2625,"max_abv":10.0},{"brewery":"Post Scriptum Brewery","city":"Trofa","lat":41.33729,"long":-8.5596,"best_beer":"Imperial Stout By Pedro Sousa","best_beer_score":3.5888888889,"most_popular_beer":"Imperial Stout By Pedro Sousa","popularity":7.0,"n_beers":16.0,"avg_abv":7.5375,"max_abv":11.6},{"brewery":"Celtas Cerveja Artesanal","city":"Tomar","lat":39.60199,"long":-8.40924,"best_beer":"Marafada","best_beer_score":3.1575,"most_popular_beer":"Marafada","popularity":2.0,"n_beers":6.0,"avg_abv":5.55,"max_abv":9.1},{"brewery":"DUX Beer","city":"Coimbra","lat":40.20564,"long":-8.41955,"best_beer":"Pilsner","best_beer_score":2.3533333333,"most_popular_beer":"Weiss","popularity":1.0,"n_beers":2.0,"avg_abv":6.0,"max_abv":6.0},{"brewery":"Letra - Cerveja Artesanal Minhota","city":"Vila Verde","lat":39.15489,"long":-9.11512,"best_beer":"Letra \/ Mean Sardine \/ Lervig - Barleywine - Port Barrel-Aged","best_beer_score":3.665,"most_popular_beer":"D","popularity":6.0,"n_beers":20.0,"avg_abv":8.1075,"max_abv":13.0},{"brewery":"Faustino \u2013 Microcervejeira, Lda.","city":"Aveiro","lat":40.64427,"long":-8.64554,"best_beer":"Maldita English Barleywine","best_beer_score":3.578,"most_popular_beer":"Maldita English Barleywine","popularity":8.0,"n_beers":12.0,"avg_abv":6.6916666667,"max_abv":10.0},{"brewery":"Duque BrewPub","city":"Lisboa","lat":38.71667,"long":-9.13333,"best_beer":"Paleonia Dreaming","best_beer_score":3.0,"most_popular_beer":"PaleStation","popularity":1.0,"n_beers":3.0,"avg_abv":6.1666666667,"max_abv":6.5},{"brewery":"Cerveja Vadia","city":"Oliveira De Azem\u00e9is","lat":40.8390118,"long":-8.4777807,"best_beer":"Vadia Export","best_beer_score":2.935,"most_popular_beer":"Vadia Preta","popularity":6.0,"n_beers":3.0,"avg_abv":6.7,"max_abv":8.5},{"brewery":"LX Brewery","city":"Lisboa","lat":38.71667,"long":-9.13333,"best_beer":"Rye IPA","best_beer_score":2.8533333333,"most_popular_beer":"Fresh Pale Ale","popularity":1.0,"n_beers":2.0,"avg_abv":5.75,"max_abv":6.5},{"brewery":"Cervejeira Lince","city":"Lisboa","lat":38.71667,"long":-9.13333,"best_beer":"Lince Blonde","best_beer_score":2.7366666667,"most_popular_beer":"Lince Blonde","popularity":1.0,"n_beers":3.0,"avg_abv":5.6666666667,"max_abv":6.0},{"brewery":"Cerveja Artesanal Vitriol","city":"Coimbra","lat":40.20564,"long":-8.41955,"best_beer":"Epicura Belgian Ale","best_beer_score":3.03,"most_popular_beer":"Epicura Belgian Ale","popularity":1.0,"n_beers":6.0,"avg_abv":6.8166666667,"max_abv":8.5},{"brewery":"Oporto Brewery Society","city":"Porto","lat":41.14961,"long":-8.61099,"best_beer":"Vitoria Noir","best_beer_score":2.5566666667,"most_popular_beer":"Vitoria Noir","popularity":1.0,"n_beers":1.0,"avg_abv":4.0,"max_abv":4.0},{"brewery":"Lindinha Lucas","city":"Porto","lat":41.14961,"long":-8.61099,"best_beer":"Session IPA","best_beer_score":2.9975,"most_popular_beer":"Session IPA","popularity":2.0,"n_beers":5.0,"avg_abv":5.1,"max_abv":5.8},{"brewery":"Os Tr\u00eas Cervejeiros","city":"Porto","lat":41.14961,"long":-8.61099,"best_beer":"Sovina Amber","best_beer_score":3.5414285714,"most_popular_beer":"Sovina IPA","popularity":16.0,"n_beers":10.0,"avg_abv":6.72,"max_abv":10.0},{"brewery":"Amphora Cerveja Artesanal","city":"Braga","lat":41.55032,"long":-8.42005,"best_beer":"Bracara","best_beer_score":3.02,"most_popular_beer":"Bracara","popularity":3.0,"n_beers":6.0,"avg_abv":8.0833333333,"max_abv":13.0},{"brewery":"Bairrada Brewing Company - Cerveja TOIRA","city":"Anadia","lat":40.43841,"long":-8.43352,"best_beer":"Toira Labrewatory Experiment Series Imperial Red Ale 1 Of 4","best_beer_score":2.89,"most_popular_beer":"Toira Labrewatory Experiment Series Imperial Red Ale 1 Of 4","popularity":1.0,"n_beers":8.0,"avg_abv":6.8125,"max_abv":8.3},{"brewery":"Empresa De Cervejas Da Madeira","city":"C\u00e2mara De Lobos","lat":32.65043,"long":-16.97718,"best_beer":"T\u00f2nica","best_beer_score":3.2733333333,"most_popular_beer":"Coral Cerveja","popularity":15.0,"n_beers":3.0,"avg_abv":4.9666666667,"max_abv":5.3},{"brewery":"Oitava Colina","city":"Lisboa","lat":38.71667,"long":-9.13333,"best_beer":"Z\u00e9 Arnaldo","best_beer_score":3.5633333333,"most_popular_beer":"Urraca Vendaval","popularity":9.0,"n_beers":12.0,"avg_abv":7.1,"max_abv":11.0},{"brewery":"2C Arte Cervejeira","city":"Amarante","lat":41.27271,"long":-8.08245,"best_beer":"D'os Diabos Das Ist Mein Weizenbier","best_beer_score":3.08,"most_popular_beer":"D'os Diabos Pale Series #4","popularity":1.0,"n_beers":4.0,"avg_abv":5.925,"max_abv":7.3},{"brewery":"Cerveja Artesanal Burguesa","city":"Porto","lat":41.14961,"long":-8.61099,"best_beer":"Imperial IPA","best_beer_score":3.1925,"most_popular_beer":"Imperial IPA","popularity":2.0,"n_beers":9.0,"avg_abv":7.9444444444,"max_abv":11.0},{"brewery":"OPO74 Brewing Company","city":"Porto","lat":41.14961,"long":-8.61099,"best_beer":"Gyroscope","best_beer_score":3.3285714286,"most_popular_beer":"Gyroscope","popularity":5.0,"n_beers":6.0,"avg_abv":6.3,"max_abv":8.0},{"brewery":"Drinkin - Comp. Ind. Bebidas E Alimenta\u00e7\u00e3o, S.A. (CINTRA)","city":"Santar\u00e9m","lat":39.23333,"long":-8.68333,"best_beer":"Cintra Mulata","best_beer_score":2.6933333333,"most_popular_beer":"Cintra","popularity":9.0,"n_beers":3.0,"avg_abv":4.7666666667,"max_abv":5.2},{"brewery":"Beerhouse Madeira","city":"Funchal","lat":32.66568,"long":-16.92547,"best_beer":"Beerhouse Maderia Beer","best_beer_score":3.155,"most_popular_beer":"Beerhouse Maderia Beer","popularity":2.0,"n_beers":1.0,"avg_abv":3.5,"max_abv":3.5},{"brewery":"Cerveja Bolina","city":"Azambuja","lat":39.07029,"long":-8.86822,"best_beer":"Nelson Sauvin","best_beer_score":3.0,"most_popular_beer":"Nelson Sauvin","popularity":1.0,"n_beers":7.0,"avg_abv":5.6571428571,"max_abv":6.8},{"brewery":"Bauer Lopes","city":"Lisboa","lat":38.71667,"long":-9.13333,"best_beer":"Weissbier","best_beer_score":2.945,"most_popular_beer":"Weissbier","popularity":2.0,"n_beers":3.0,"avg_abv":5.6333333333,"max_abv":5.9},{"brewery":"Amnesia Brewery","city":"Oeiras","lat":38.69105,"long":-9.31085,"best_beer":"Juniper Smokin'","best_beer_score":3.0533333333,"most_popular_beer":"Juniper Smokin'","popularity":1.0,"n_beers":8.0,"avg_abv":7.5625,"max_abv":13.0},{"brewery":"Cerveja Artesanal Marafada","city":"Algoz","lat":37.16301,"long":-8.30359,"best_beer":"Algarve Pale Ale","best_beer_score":2.8066666667,"most_popular_beer":"Algarve Pale Ale","popularity":1.0,"n_beers":1.0,"avg_abv":5.0,"max_abv":5.0},{"brewery":"MAG8 Craft Beer","city":"Sintra","lat":38.80097,"long":-9.37826,"best_beer":"SeteAis","best_beer_score":2.9466666667,"most_popular_beer":"SeteAis","popularity":1.0,"n_beers":2.0,"avg_abv":6.65,"max_abv":7.0},{"brewery":"Cervejaria Praxis","city":"Coimbra","lat":40.20564,"long":-8.41955,"best_beer":"Acad\u00e9mico Pale Ale","best_beer_score":3.11,"most_popular_beer":"Top\u00e1zio","popularity":3.0,"n_beers":11.0,"avg_abv":6.2909090909,"max_abv":8.0},{"brewery":"Melo Abreu \/ Fabrica de Cervejas e Refrigerantes","city":"Ponta Delgada, Azores Archipelago","lat":37.73952,"long":-25.66874,"best_beer":"Especial","best_beer_score":3.2435714286,"most_popular_beer":"Especial","popularity":12.0,"n_beers":2.0,"avg_abv":2.9,"max_abv":5.3},{"brewery":"Luzia","city":"Antes","lat":40.38935785,"long":-8.4699777181,"best_beer":"Brett Aged","best_beer_score":3.2,"most_popular_beer":"Gose","popularity":2.0,"n_beers":7.0,"avg_abv":7.3857142857,"max_abv":11.5},{"brewery":"Deusa","city":"Oliveira de Azem\u00e9is","lat":40.84101,"long":-8.47555,"best_beer":"\u00cdsis","best_beer_score":3.1166666667,"most_popular_beer":"Celta","popularity":3.0,"n_beers":2.0,"avg_abv":8.5,"max_abv":8.5},{"brewery":"Quinta das T\u00edlias","city":"Benavente","lat":38.97919,"long":-8.80759,"best_beer":"Cerveja Artesanal De Mel","best_beer_score":2.51,"most_popular_beer":"Cerveja Artesanal De Mel","popularity":1.0,"n_beers":1.0,"avg_abv":5.0,"max_abv":5.0},{"brewery":"Font Salem Portugal","city":"Santar\u00e9m","lat":39.23333,"long":-8.68333,"best_beer":"Prima Pilsen","best_beer_score":2.615,"most_popular_beer":"Prima Pilsen","popularity":2.0,"n_beers":2.0,"avg_abv":5.0,"max_abv":5.2},{"brewery":"Cervejeira Rapada","city":"Penalva De Alva","lat":40.33276915,"long":-7.8350056105,"best_beer":null,"best_beer_score":null,"most_popular_beer":null,"popularity":null,"n_beers":1.0,"avg_abv":5.0,"max_abv":5.0},{"brewery":"Colossus Craft Brewery","city":"Porto","lat":41.14961,"long":-8.61099,"best_beer":"Wonderlust","best_beer_score":3.452,"most_popular_beer":"Adamanteia","popularity":4.0,"n_beers":3.0,"avg_abv":5.5333333333,"max_abv":7.4},{"brewery":"Cerveja +351","city":"Lisboa","lat":38.71667,"long":-9.13333,"best_beer":"Black IPA","best_beer_score":3.0,"most_popular_beer":"Black IPA","popularity":1.0,"n_beers":1.0,"avg_abv":7.0,"max_abv":7.0},{"brewery":"Real Cervejeira Caldense","city":"Caldas da Rainha","lat":39.40326,"long":-9.13839,"best_beer":"Bordallo PAE","best_beer_score":2.7633333333,"most_popular_beer":"Bordallo PAE","popularity":1.0,"n_beers":1.0,"avg_abv":6.0,"max_abv":6.0},{"brewery":"Vandoma Brauhaus","city":"Porto","lat":41.14961,"long":-8.61099,"best_beer":null,"best_beer_score":null,"most_popular_beer":null,"popularity":null,"n_beers":1.0,"avg_abv":4.8,"max_abv":4.8},{"brewery":"Cerveja Balluta","city":"Balluta","lat":38.63575645,"long":-8.7506630691,"best_beer":"Edic\u00e3o Limitada","best_beer_score":2.9166666667,"most_popular_beer":"Edic\u00e3o Limitada","popularity":1.0,"n_beers":1.0,"avg_abv":5.2,"max_abv":5.2}]