[{"brewery":"Taiwan Tobacco & Liquor Corporation","city":"Taipei","lat":25.04776,"long":121.53185,"best_beer":"Taiwan Beer Weissbier (Taipei Brewery)","best_beer_score":3.2357142857,"most_popular_beer":"Taiwan Beer","popularity":129.0,"n_beers":21.0,"avg_abv":4.2619047619,"max_abv":7.0},{"brewery":"Le Ble D'or","city":"Taipei City","lat":25.0375198,"long":121.5636796,"best_beer":"Dunkel","best_beer_score":2.8833333333,"most_popular_beer":"Dunkel","popularity":1.0,"n_beers":3.0,"avg_abv":5.0,"max_abv":5.0},{"brewery":"PineMellow Premium Beer","city":"New Taipei City","lat":25.011997,"long":121.4656619,"best_beer":"PineMellow Dunkel Beer","best_beer_score":2.7333333333,"most_popular_beer":"PineMellow Dunkel Beer","popularity":1.0,"n_beers":2.0,"avg_abv":5.0,"max_abv":5.0},{"brewery":"Jolly Brewery+Restaurant","city":"Taipei City","lat":25.0375198,"long":121.5636796,"best_beer":"Jolly Weizen","best_beer_score":2.89,"most_popular_beer":"Jolly Pale Ale","popularity":2.0,"n_beers":7.0,"avg_abv":5.4714285714,"max_abv":7.2},{"brewery":"Formosa Brewing Co.","city":"Keelung City","lat":25.1317232,"long":121.744652,"best_beer":"Hoppy Triple","best_beer_score":3.2975,"most_popular_beer":"Hoppy Triple","popularity":2.0,"n_beers":3.0,"avg_abv":7.3333333333,"max_abv":11.0},{"brewery":"North Taiwan Brewing","city":"Taoyuan City","lat":24.99368,"long":121.29696,"best_beer":"White Beer","best_beer_score":3.1957142857,"most_popular_beer":"White Beer","popularity":5.0,"n_beers":7.0,"avg_abv":5.2142857143,"max_abv":8.0},{"brewery":"Taiwan Tsing Beer Co., Ltd.","city":"Kaohsiung City","lat":22.61626,"long":120.31333,"best_beer":"Taiwan Long Chuan Beer-Peach","best_beer_score":2.86,"most_popular_beer":"Tsingtao Beer \u2013 Icy Smooth","popularity":19.0,"n_beers":5.0,"avg_abv":3.84,"max_abv":5.2},{"brewery":"Takau Brewery","city":"Kaohsiung City","lat":22.61626,"long":120.31333,"best_beer":"Takau Golden Ale (Test Brew)","best_beer_score":2.86,"most_popular_beer":"Takau Hefeweizen","popularity":1.0,"n_beers":8.0,"avg_abv":4.3,"max_abv":5.0},{"brewery":"King Lucky Food Industrial Corporation","city":"Nanking","lat":25.04776,"long":121.53185,"best_beer":"Golden King Premium Beer","best_beer_score":2.4077777778,"most_popular_beer":"Golden King Premium Beer","popularity":7.0,"n_beers":1.0,"avg_abv":5.0,"max_abv":5.0},{"brewery":"SUNMAI (Long Sun Brewing)","city":"New Taipei City","lat":25.011997,"long":121.4656619,"best_beer":"Tribute To Wu Gang","best_beer_score":3.1625,"most_popular_beer":"Bandoh","popularity":2.0,"n_beers":2.0,"avg_abv":5.0,"max_abv":5.1},{"brewery":"55th Street Craft Brewery","city":"New Taipei City","lat":25.011997,"long":121.4656619,"best_beer":"Session IPA","best_beer_score":3.0266666667,"most_popular_beer":"Session IPA","popularity":1.0,"n_beers":3.0,"avg_abv":5.6,"max_abv":6.5},{"brewery":"Redpoint Brewing Company","city":"Hsinchu City","lat":24.8066333,"long":120.9686833,"best_beer":"\u53f0.P.A. (\u53f0 Pale Ale)","best_beer_score":3.245,"most_popular_beer":"Mahanakhon White Ale","popularity":5.0,"n_beers":6.0,"avg_abv":5.5166666667,"max_abv":6.0},{"brewery":"Taihu Brewing","city":"Taipei City","lat":25.0375198,"long":121.5636796,"best_beer":"Smoked Plum Lichtenhainer","best_beer_score":3.438,"most_popular_beer":"Smoked Plum Lichtenhainer","popularity":3.0,"n_beers":2.0,"avg_abv":7.25,"max_abv":9.0},{"brewery":"Taiwan Ale Brewery","city":"New Taipei City","lat":25.011997,"long":121.4656619,"best_beer":"Lambic Style Sour Mango","best_beer_score":3.046,"most_popular_beer":"Lambic Style Sour Mango","popularity":3.0,"n_beers":3.0,"avg_abv":4.8333333333,"max_abv":6.0},{"brewery":"Hodala Brewery","city":"New Taipei City","lat":25.011997,"long":121.4656619,"best_beer":"Holy Light","best_beer_score":2.91,"most_popular_beer":"Oh My Venus","popularity":1.0,"n_beers":3.0,"avg_abv":6.4,"max_abv":9.3}]