[{"brewery":"Varvar Brew","city":"Kiev","lat":50.45466,"long":30.5238,"best_beer":"Milk Stout","best_beer_score":3.364,"most_popular_beer":"Milk Stout","popularity":3.0,"n_beers":32.0,"avg_abv":5.44375,"max_abv":9.0},{"brewery":"Chernigivske Pivokombinat","city":"Kiev","lat":50.45466,"long":30.5238,"best_beer":"Chernigivske Bile Nefiltrovane","best_beer_score":3.4733333333,"most_popular_beer":"Chernigivske Bile Nefiltrovane","popularity":22.0,"n_beers":9.0,"avg_abv":5.3333333333,"max_abv":7.5},{"brewery":"Pravda Beer Theatre","city":"Lviv","lat":49.83826,"long":24.02324,"best_beer":"Chervoni Ochi","best_beer_score":3.3383333333,"most_popular_beer":"Obama Hope","popularity":7.0,"n_beers":21.0,"avg_abv":7.0285714286,"max_abv":10.7},{"brewery":"Obolon Brewery","city":"Kiev","lat":50.45466,"long":30.5238,"best_beer":"Obolon Bile","best_beer_score":3.6353333333,"most_popular_beer":"Obolon Premium","popularity":116.0,"n_beers":46.0,"avg_abv":4.8826086957,"max_abv":8.0},{"brewery":"Mad Brewlads Craft Co.","city":"Kharkiv","lat":49.98081,"long":36.25272,"best_beer":"Moloko","best_beer_score":3.13,"most_popular_beer":"Moloko","popularity":2.0,"n_beers":87.0,"avg_abv":6.3045977011,"max_abv":20.0},{"brewery":"Rogan Brewery","city":"Kharkiv","lat":49.98081,"long":36.25272,"best_beer":"Monastyrske Temne (Dark)","best_beer_score":2.69,"most_popular_beer":"Svitle Traditziyne","popularity":3.0,"n_beers":9.0,"avg_abv":5.7111111111,"max_abv":7.1},{"brewery":"Yantar Brewery","city":"Nikolaev","lat":46.37305,"long":29.40531,"best_beer":"Admiralskoye (Admipanbrbke Nacmepuzokahr)","best_beer_score":3.126,"most_popular_beer":"Taller Beer","popularity":6.0,"n_beers":7.0,"avg_abv":5.2,"max_abv":6.3},{"brewery":"Slavutych Brewery","city":"Kiev","lat":50.45466,"long":30.5238,"best_beer":"Kvas Taras","best_beer_score":3.3047826087,"most_popular_beer":"Slavutych Pivo (Slavutich Premium)","popularity":63.0,"n_beers":12.0,"avg_abv":4.8416666667,"max_abv":7.4},{"brewery":"Persha Privatna Brovariya","city":"Lviv","lat":49.83826,"long":24.02324,"best_beer":"Stare Misto","best_beer_score":3.5064705882,"most_popular_beer":"Persha Privatna Browarnya Avtors'ke","popularity":18.0,"n_beers":21.0,"avg_abv":5.2428571429,"max_abv":8.0},{"brewery":"Lvivska Pivovarnya (BBH)","city":"Lviv","lat":49.83826,"long":24.02324,"best_beer":"Lvivske White Lion","best_beer_score":3.668,"most_popular_beer":"Lvivske 1715","popularity":105.0,"n_beers":20.0,"avg_abv":4.8,"max_abv":8.0},{"brewery":"Mykulynetskyj Brovar - Mykulinetske","city":"Mykulyntsi","lat":49.3935199,"long":25.60649499,"best_beer":"Ukrainian Dark","best_beer_score":3.245,"most_popular_beer":"Ukrainian Dark","popularity":2.0,"n_beers":16.0,"avg_abv":5.075,"max_abv":7.1},{"brewery":"VAT Berdichivskiy Pivzavod","city":"Berdichiv","lat":49.89928,"long":28.60235,"best_beer":"Pshenichne (\u041f\u0448\u0435\u043d\u0438\u0447\u043d\u0435)","best_beer_score":2.7533333333,"most_popular_beer":"Khmilnye","popularity":1.0,"n_beers":2.0,"avg_abv":4.4,"max_abv":4.5},{"brewery":"Sarmat","city":"Donetsk","lat":48.023,"long":37.80224,"best_beer":"Kaltenberg Pils","best_beer_score":3.1375,"most_popular_beer":"Sarmat Mitzne","popularity":3.0,"n_beers":11.0,"avg_abv":4.9272727273,"max_abv":7.5},{"brewery":"Tsypa","city":"Kvasy","lat":48.14973,"long":24.27995,"best_beer":"Bila","best_beer_score":3.346,"most_popular_beer":"Bila","popularity":3.0,"n_beers":16.0,"avg_abv":5.30625,"max_abv":7.9},{"brewery":"Radomyshlskij Pivovarennyj Zavod","city":"Radomyshl","lat":50.49613,"long":29.22911,"best_beer":"Pshenychne - Weissbier Etalon","best_beer_score":3.10625,"most_popular_beer":"Pshenychne - Weissbier Etalon","popularity":6.0,"n_beers":3.0,"avg_abv":4.9333333333,"max_abv":5.0},{"brewery":"Seven Bridges Brewery","city":"Kiev","lat":50.45466,"long":30.5238,"best_beer":"Woddoo Child","best_beer_score":2.9,"most_popular_beer":"Woddoo Child","popularity":1.0,"n_beers":2.0,"avg_abv":5.8,"max_abv":6.0},{"brewery":"\u0412\u043e\u043b\u0438\u043d\u044c\u0441\u043a\u0438\u0439 \u0411\u0440\u043e\u0432\u0430\u0440","city":"Berezne","lat":51.00094,"long":26.75106,"best_beer":"Mur Stout","best_beer_score":2.9166666667,"most_popular_beer":"Mur Stout","popularity":1.0,"n_beers":3.0,"avg_abv":5.0,"max_abv":5.8},{"brewery":"Yarilo","city":"Zaporizhia","lat":47.82289,"long":35.19031,"best_beer":"Yarilo Kvass","best_beer_score":2.76,"most_popular_beer":"Yarilo Kvass","popularity":1.0,"n_beers":1.0,"avg_abv":1.5,"max_abv":1.5},{"brewery":"White Rabbit Craft Brewery","city":"Kryvyi Rih","lat":47.90966,"long":33.38044,"best_beer":"Lupulin American IPA","best_beer_score":3.01,"most_popular_beer":"Lupulin American IPA","popularity":1.0,"n_beers":5.0,"avg_abv":6.3,"max_abv":8.5},{"brewery":"Monastyrskiy Kvas","city":"Vyshneve Sity","lat":47.19218,"long":30.08812,"best_beer":"Monastyrskiy Black Currant Kvas","best_beer_score":3.3083333333,"most_popular_beer":"Monastyrskiy Kvas","popularity":29.0,"n_beers":2.0,"avg_abv":1.5,"max_abv":1.5},{"brewery":"Kaluskiy Brovar","city":"Kalush","lat":49.01187,"long":24.37308,"best_beer":"Karpatske","best_beer_score":2.6666666667,"most_popular_beer":"Karpatske","popularity":1.0,"n_beers":1.0,"avg_abv":3.5,"max_abv":3.5},{"brewery":"Napoi Plius (\u041d\u0430\u043f\u043e\u0457 \u043f\u043b\u044e\u0441)","city":"Kiev","lat":50.45466,"long":30.5238,"best_beer":"Why Not. Smoky Island","best_beer_score":2.8333333333,"most_popular_beer":"Why Not. Carte Blanche","popularity":1.0,"n_beers":3.0,"avg_abv":4.8666666667,"max_abv":5.0},{"brewery":"Poltavpivo","city":"Poltava","lat":49.59373,"long":34.54073,"best_beer":"Dikanski Vechori","best_beer_score":2.954,"most_popular_beer":"Dikanski Vechori","popularity":3.0,"n_beers":7.0,"avg_abv":4.7,"max_abv":6.0},{"brewery":"Vat Pivobyezalkogolniy Kombinat Krim","city":"Simferopole","lat":44.95719,"long":34.11079,"best_beer":"Krim Svitle","best_beer_score":2.79,"most_popular_beer":"Krim Svitle","popularity":2.0,"n_beers":1.0,"avg_abv":3.5,"max_abv":3.5},{"brewery":"Chernomor Brewery","city":"Odessa","lat":46.48572,"long":30.74383,"best_beer":"Chernomor Extra","best_beer_score":3.07,"most_popular_beer":"Chernomor Extra","popularity":7.0,"n_beers":2.0,"avg_abv":5.35,"max_abv":5.6},{"brewery":"Shato (Chateau)","city":"Kiev","lat":50.45466,"long":30.5238,"best_beer":"Shato Slavutych Zolote","best_beer_score":3.01,"most_popular_beer":"Shato Slavutych Zolote","popularity":1.0,"n_beers":1.0,"avg_abv":5.0,"max_abv":5.0},{"brewery":"SP Novoteh Ltd. \/ Karpat Brewery","city":"Beregovo","lat":44.9,"long":33.61667,"best_beer":"Karpatskoe Svetloe","best_beer_score":2.6433333333,"most_popular_beer":"Karpatskoe Svetloe","popularity":1.0,"n_beers":1.0,"avg_abv":3.4,"max_abv":3.4},{"brewery":"R\u0456vnenskiy Pivovarniy Zavod Riven","city":"Rivne","lat":46.01753,"long":29.1398,"best_beer":"Bergschloss Chornyj","best_beer_score":2.6133333333,"most_popular_beer":"Bergschloss Chornyj","popularity":1.0,"n_beers":1.0,"avg_abv":4.5,"max_abv":4.5}]