[{"brewery":"South African Breweries plc","city":"Johannesburg","lat":-26.20227,"long":28.04363,"best_beer":"Castle Milk Stout","best_beer_score":3.2247058824,"most_popular_beer":"Castle Lager","popularity":154.0,"n_beers":12.0,"avg_abv":4.875,"max_abv":6.0},{"brewery":"Gilroy's Brewery","city":"Roodeport","lat":-26.1625,"long":27.8725,"best_beer":"Gilroy Traditional","best_beer_score":3.044,"most_popular_beer":"Gilroy Lager","popularity":5.0,"n_beers":4.0,"avg_abv":4.875,"max_abv":7.0},{"brewery":"Striped Horse","city":"Cape Town","lat":-33.92584,"long":18.42322,"best_beer":"Craft Pils","best_beer_score":2.785,"most_popular_beer":"Craft Pils","popularity":2.0,"n_beers":2.0,"avg_abv":5.15,"max_abv":5.2},{"brewery":"Stellenbrau Brewery","city":"Stellenbosch","lat":-33.93462,"long":18.86676,"best_beer":"Governor's Red Lager","best_beer_score":2.8675,"most_popular_beer":"Jonkers","popularity":2.0,"n_beers":2.0,"avg_abv":4.5,"max_abv":4.5},{"brewery":"The Nottingham Road Brewing Company","city":"KwaZulu-Natal","lat":-28.503833,"long":30.8875009,"best_beer":"Whistling Weasel Pale Ale","best_beer_score":3.205,"most_popular_beer":"Pickled Pig Porter","popularity":3.0,"n_beers":4.0,"avg_abv":5.1,"max_abv":5.5},{"brewery":"Porcupine Quill Micro Brewery and Deli","city":"Durban","lat":-29.8579,"long":31.0292,"best_beer":"Quills Karoo Red","best_beer_score":3.1381818182,"most_popular_beer":"Quills Karoo Red","popularity":9.0,"n_beers":11.0,"avg_abv":6.6363636364,"max_abv":9.0},{"brewery":"Agars Brewery","city":"Johannesburg","lat":-26.20227,"long":28.04363,"best_beer":"Jozi Blonde","best_beer_score":3.0366666667,"most_popular_beer":"Jozi Blonde","popularity":1.0,"n_beers":8.0,"avg_abv":5.0875,"max_abv":6.5},{"brewery":"Copper Lake Brewery","city":"Johannesburg","lat":-26.20227,"long":28.04363,"best_beer":"India Pale Ale","best_beer_score":2.9166666667,"most_popular_beer":"India Pale Ale","popularity":1.0,"n_beers":6.0,"avg_abv":4.9166666667,"max_abv":6.0},{"brewery":"Weinhaus + Biergarten","city":"Cape Town","lat":-33.92584,"long":18.42322,"best_beer":"Sunday","best_beer_score":3.4163636364,"most_popular_beer":"Beast Of The Deep","popularity":11.0,"n_beers":9.0,"avg_abv":5.6111111111,"max_abv":6.5},{"brewery":"Devils Peak Brewing Company","city":"Cape Town","lat":-33.92584,"long":18.42322,"best_beer":"The King's Blockhouse IPA","best_beer_score":3.7492307692,"most_popular_beer":"The King's Blockhouse IPA","popularity":11.0,"n_beers":23.0,"avg_abv":5.5434782609,"max_abv":10.5},{"brewery":"The Amanzimtoti Brewing Company","city":"Amanzimtoti","lat":-30.0497222,"long":30.8886111,"best_beer":null,"best_beer_score":null,"most_popular_beer":null,"popularity":null,"n_beers":6.0,"avg_abv":5.6333333333,"max_abv":6.8},{"brewery":"The Cockpit Brewhouse","city":"Cullinan","lat":-25.67088,"long":28.52364,"best_beer":"Fokker Weiss","best_beer_score":2.9733333333,"most_popular_beer":"Fokker Weiss","popularity":1.0,"n_beers":2.0,"avg_abv":5.75,"max_abv":7.5},{"brewery":"Birkenhead Brewery","city":"Stanford","lat":-34.4393643,"long":19.45448,"best_beer":"Birkenhead Premium Lager","best_beer_score":3.065,"most_popular_beer":"Birkenhead Premium Lager","popularity":2.0,"n_beers":6.0,"avg_abv":5.4833333333,"max_abv":10.0},{"brewery":"Dockside Brewery","city":"Port Elizabeth","lat":-33.96109,"long":25.61494,"best_beer":"Patience","best_beer_score":2.91,"most_popular_beer":"Patience","popularity":1.0,"n_beers":7.0,"avg_abv":4.8428571429,"max_abv":6.5},{"brewery":"Woodstock Brewery","city":"Cape Town","lat":-33.92584,"long":18.42322,"best_beer":"Californicator","best_beer_score":3.0675,"most_popular_beer":"Brickfields Lager","popularity":2.0,"n_beers":7.0,"avg_abv":5.1,"max_abv":6.5},{"brewery":"Bierwerk Afrikan Ales Brewery","city":"Western Cape","lat":-33.64651,"long":19.44852,"best_beer":"Bierwerk Aardwolf","best_beer_score":3.6488888889,"most_popular_beer":"Bierwerk Aardwolf","popularity":7.0,"n_beers":3.0,"avg_abv":6.2666666667,"max_abv":8.5},{"brewery":"SMACK! Republic Brewing Company","city":"Johannesburg","lat":-26.20227,"long":28.04363,"best_beer":"Hillbrow Honey","best_beer_score":2.91,"most_popular_beer":"Hillbrow Honey","popularity":1.0,"n_beers":5.0,"avg_abv":4.92,"max_abv":5.5},{"brewery":"Long Mountain Brewery","city":"Robertson","lat":-33.80342,"long":19.88537,"best_beer":"American Pale Ale","best_beer_score":2.8,"most_popular_beer":"American Pale Ale","popularity":1.0,"n_beers":6.0,"avg_abv":5.0,"max_abv":6.0},{"brewery":"Drifter Brewing Co.","city":"Cape Town","lat":-33.92584,"long":18.42322,"best_beer":"Ocean Aged Triple","best_beer_score":3.0575,"most_popular_beer":"Ocean Aged Triple","popularity":2.0,"n_beers":2.0,"avg_abv":7.2,"max_abv":10.0},{"brewery":"Jack Black's Brewing Company","city":"Cape Town","lat":-33.92584,"long":18.42322,"best_beer":"Lumberjack Amber Ale","best_beer_score":3.4533333333,"most_popular_beer":"Skeleton Coast IPA","popularity":15.0,"n_beers":4.0,"avg_abv":5.75,"max_abv":6.6},{"brewery":"Nottingham Road Brewing Company, Rawdon\u0092s Estate","city":"KwaZulu-Natal","lat":-28.503833,"long":30.8875009,"best_beer":"Tipsy Tiger IPA","best_beer_score":2.7066666667,"most_popular_beer":"Tipsy Tiger IPA","popularity":1.0,"n_beers":4.0,"avg_abv":4.4,"max_abv":5.5},{"brewery":"Triggerfish Brewery","city":"Somerset West","lat":-34.0821129,"long":18.8492883,"best_beer":"Titan","best_beer_score":3.2783333333,"most_popular_beer":"Titan","popularity":4.0,"n_beers":22.0,"avg_abv":6.5954545455,"max_abv":12.5},{"brewery":"Clarens Brewery","city":"Clarens","lat":-28.513743,"long":28.419444,"best_beer":"Clarens Stout","best_beer_score":3.33,"most_popular_beer":"Clarens Stout","popularity":2.0,"n_beers":6.0,"avg_abv":5.0,"max_abv":6.5},{"brewery":"Hops Hollow","city":"Lydenburg","lat":-25.09598,"long":30.44393,"best_beer":"Blacksmith's Brew","best_beer_score":2.9466666667,"most_popular_beer":"Blacksmith's Brew","popularity":1.0,"n_beers":4.0,"avg_abv":4.0,"max_abv":4.0},{"brewery":"Swagga Breweries","city":"Alrode","lat":-26.3069444,"long":28.1319444,"best_beer":null,"best_beer_score":null,"most_popular_beer":null,"popularity":null,"n_beers":6.0,"avg_abv":4.7833333333,"max_abv":5.8},{"brewery":"Boston Breweries","city":"Cape Town","lat":-33.92584,"long":18.42322,"best_beer":"Boston Lager","best_beer_score":3.3190909091,"most_popular_beer":"Boston Lager","popularity":9.0,"n_beers":6.0,"avg_abv":6.25,"max_abv":10.0},{"brewery":"Chameleon Brewhouse","city":"Hartbeespoort","lat":-25.7255607,"long":27.8475979,"best_beer":"Oatmeal Stout","best_beer_score":2.8533333333,"most_popular_beer":"Oatmeal Stout","popularity":1.0,"n_beers":4.0,"avg_abv":4.0,"max_abv":4.0},{"brewery":"Drayman's Brewery","city":"Silverton, Pretoria","lat":-25.74486,"long":28.18783,"best_beer":"Altstadt Weissbier","best_beer_score":3.056,"most_popular_beer":"Altstadt Weissbier","popularity":3.0,"n_beers":10.0,"avg_abv":4.15,"max_abv":6.0},{"brewery":"Stellenbosch Brewing Co","city":"Stellenbosch","lat":-33.93462,"long":18.86676,"best_beer":"Shebeen Queen","best_beer_score":2.87,"most_popular_beer":"Mass Hoppiness","popularity":1.0,"n_beers":3.0,"avg_abv":6.4,"max_abv":7.0},{"brewery":"Citizen Beer","city":"Cape Town","lat":-33.92584,"long":18.42322,"best_beer":"Diplomat Czech Pils","best_beer_score":3.0,"most_popular_beer":"Saboteur English IPA","popularity":2.0,"n_beers":6.0,"avg_abv":5.25,"max_abv":6.0},{"brewery":"Anvil Brewery","city":"Dullstroom","lat":-25.418349,"long":30.104624,"best_beer":"Black Anvil","best_beer_score":3.05,"most_popular_beer":"Blond Ale","popularity":3.0,"n_beers":5.0,"avg_abv":4.4,"max_abv":6.0},{"brewery":"Two Okes","city":"Roodepoort","lat":-26.1625,"long":27.8725,"best_beer":"Two Okes Irish Ale","best_beer_score":3.03,"most_popular_beer":"Two Okes Irish Ale","popularity":1.0,"n_beers":5.0,"avg_abv":4.8,"max_abv":6.0},{"brewery":"Brauhaus am Damm (Pty) Ltd.","city":"Rustenburg","lat":-25.66756,"long":27.24208,"best_beer":"Brauhaus Dunkel","best_beer_score":2.97,"most_popular_beer":"Brauhaus Dunkel","popularity":1.0,"n_beers":4.0,"avg_abv":4.75,"max_abv":5.5},{"brewery":"Little Wolf Brewery","city":"Cape Town","lat":-33.92584,"long":18.42322,"best_beer":"Hoppy Wheat","best_beer_score":2.9633333333,"most_popular_beer":"Hoppy Wheat","popularity":1.0,"n_beers":1.0,"avg_abv":5.0,"max_abv":5.0},{"brewery":"Helderbr\u00e4u Brewery","city":"Somerset West","lat":-34.0821129,"long":18.8492883,"best_beer":"Helderbr\u00e4u Lager","best_beer_score":3.07,"most_popular_beer":"Helderbr\u00e4u Lager","popularity":2.0,"n_beers":4.0,"avg_abv":4.0,"max_abv":4.0},{"brewery":"Inmind Brewing Company","city":"Randburg","lat":-26.0941,"long":28.00123,"best_beer":"IBC Ale","best_beer_score":2.98,"most_popular_beer":"IBC Ale","popularity":1.0,"n_beers":1.0,"avg_abv":5.0,"max_abv":5.0},{"brewery":"Mainstream Brewing Company","city":"Johannesburg","lat":-26.20227,"long":28.04363,"best_beer":"Mainstream A.P.A.","best_beer_score":3.0,"most_popular_beer":"Mainstream A.P.A.","popularity":1.0,"n_beers":3.0,"avg_abv":4.5,"max_abv":4.5},{"brewery":"UBuntu Kraal Brewery","city":"Johannesburg","lat":-26.20227,"long":28.04363,"best_beer":"Soweto Gold","best_beer_score":2.866,"most_popular_beer":"Soweto Gold","popularity":3.0,"n_beers":5.0,"avg_abv":5.06,"max_abv":5.2},{"brewery":"The Standeaven Brewery","city":"Shongweni","lat":-26.1793504,"long":28.2850937,"best_beer":"Press Club Stout (#5)","best_beer_score":2.9333333333,"most_popular_beer":"Press Club Stout (#5)","popularity":1.0,"n_beers":6.0,"avg_abv":4.3666666667,"max_abv":5.0},{"brewery":"Mad Giant Beer","city":"Secunda","lat":-26.55,"long":29.16667,"best_beer":"True Grit Amber Ale","best_beer_score":2.956,"most_popular_beer":"True Grit Amber Ale","popularity":3.0,"n_beers":3.0,"avg_abv":4.8333333333,"max_abv":5.0},{"brewery":"Wild Clover Breweries","city":"Stellenbosch","lat":-33.93462,"long":18.86676,"best_beer":"Eagle Weiss","best_beer_score":3.07,"most_popular_beer":"Eagle Weiss","popularity":2.0,"n_beers":4.0,"avg_abv":5.25,"max_abv":5.5},{"brewery":"Mitchell's Knysna Brewery","city":"Knysna","lat":-34.03627,"long":23.04713,"best_beer":"Bosun's Bitter","best_beer_score":3.37,"most_popular_beer":"Forester's Draft","popularity":10.0,"n_beers":5.0,"avg_abv":4.3,"max_abv":5.0},{"brewery":"De Garve","city":"Vanderbijlpark","lat":-26.71171,"long":27.83795,"best_beer":"Maltz & Waltz","best_beer_score":2.8333333333,"most_popular_beer":"Jolly Nun","popularity":2.0,"n_beers":7.0,"avg_abv":5.5714285714,"max_abv":6.5},{"brewery":"Red Bridge Brewing Co.","city":"Knysna","lat":-34.03627,"long":23.04713,"best_beer":null,"best_beer_score":null,"most_popular_beer":null,"popularity":null,"n_beers":3.0,"avg_abv":4.8333333333,"max_abv":6.0},{"brewery":"The Aces Brew Worx","city":"Johannesburg","lat":-26.20227,"long":28.04363,"best_beer":"Premium Lager","best_beer_score":3.1125,"most_popular_beer":"Premium Lager","popularity":2.0,"n_beers":4.0,"avg_abv":4.675,"max_abv":5.1},{"brewery":"Darling Brew","city":"Darling","lat":-33.376426,"long":18.379189,"best_beer":"Bone Crusher","best_beer_score":3.4007692308,"most_popular_beer":"Bone Crusher","popularity":11.0,"n_beers":6.0,"avg_abv":4.9166666667,"max_abv":6.5},{"brewery":"Wild Beast Brewery","city":"Stellenbosch","lat":-33.93462,"long":18.86676,"best_beer":"Wild Beast Stout","best_beer_score":3.125,"most_popular_beer":"Wild Beast Stout","popularity":2.0,"n_beers":3.0,"avg_abv":5.6666666667,"max_abv":6.0},{"brewery":"Cape Brewing Company","city":"Suider-Paarl","lat":-33.7708333,"long":18.9666667,"best_beer":"Cape Of Good Hops","best_beer_score":3.3366666667,"most_popular_beer":"Pilsner","popularity":4.0,"n_beers":5.0,"avg_abv":5.86,"max_abv":7.5},{"brewery":"Three Skulls Brew Works","city":"Johannesburg","lat":-26.20227,"long":28.04363,"best_beer":"Grave Digger","best_beer_score":2.8133333333,"most_popular_beer":"Golden Skull","popularity":1.0,"n_beers":3.0,"avg_abv":5.1,"max_abv":5.8},{"brewery":"St. Francis Brewing Company","city":"St Francis Bay","lat":-34.171676,"long":24.832916,"best_beer":"Wildside","best_beer_score":3.02,"most_popular_beer":"Wildside","popularity":1.0,"n_beers":2.0,"avg_abv":5.0,"max_abv":5.0},{"brewery":"Robson's, Shongweni Brewery","city":"Durban","lat":-29.8579,"long":31.0292,"best_beer":"West Coast Ale","best_beer_score":3.2025,"most_popular_beer":"West Coast Ale","popularity":6.0,"n_beers":5.0,"avg_abv":5.6,"max_abv":8.3},{"brewery":"Stickman Brewery","city":"Stikland","lat":-33.8922222,"long":18.6691667,"best_beer":"G-Man","best_beer_score":2.8933333333,"most_popular_beer":"G-Man","popularity":1.0,"n_beers":3.0,"avg_abv":5.4666666667,"max_abv":5.7}]