[{"brewery":"Main Street Brewery","country":"US","city":"Pleasanton","lat":38.17781,"long":-94.71135},{"brewery":"Lervig Aktiebryggeri","country":"NO","city":"Stavanger","lat":58.97005,"long":5.73332},{"brewery":"Byway Brewing","country":"US","city":"Hammond","lat":44.97886,"long":-92.43575},{"brewery":"Georgetown Brewing Company","country":"US","city":"Seattle","lat":47.60621,"long":-122.33207},{"brewery":"Mad Princes Brewing","country":"US","city":"Doylestown","lat":40.97005,"long":-81.69652},{"brewery":"Ezo Beer KK","country":"JP","city":"Hokkaido Sapporo-shi","lat":42.975,"long":144.37472},{"brewery":"Cismontane Brewing Company","country":"US","city":"Rancho Santa Margarita","lat":33.64086,"long":-117.6031},{"brewery":"Birrificio Artigianale Lilium","country":"IT","city":"Signa (FI)","lat":43.7806931,"long":11.0964527},{"brewery":"Hog Haus Brewing Company","country":"US","city":"Fayetteville","lat":38.05289,"long":-81.10399},{"brewery":"Paddock Wood Brewing Co.","country":"CA","city":"Saskatoon","lat":52.13238,"long":-106.66892},{"brewery":"Woolshed Brewery","country":"AU","city":"Murtho","lat":-34.0744762,"long":140.8526234388},{"brewery":"Four Generals Brewing","country":"US","city":"Renton","lat":47.48288,"long":-122.21707},{"brewery":"Dick's Brewing Company","country":"US","city":"Centralia","lat":39.72583,"long":-96.12722},{"brewery":"Boqu\u00e9bi\u00e8re","country":"CA","city":"Sherbrooke","lat":45.40008,"long":-71.89908},{"brewery":"Four Saints Brewing Company","country":"US","city":"Asheboro","lat":35.70791,"long":-79.81364},{"brewery":"Wander Brewing","country":"US","city":"Bellingham","lat":42.08676,"long":-71.47451},{"brewery":"Lone Eagle Brewing","country":"US","city":"Flemington","lat":41.12646,"long":-77.47165},{"brewery":"La Cabra Brewing","country":"US","city":"Berwyn","lat":41.85059,"long":-87.79367},{"brewery":"Oceanbryggeriet","country":"SE","city":"M\u00f6lndal","lat":57.6554,"long":12.01378},{"brewery":"Dorchester Brewing Company","country":"US","city":"Dorchester","lat":40.64723,"long":-97.11337},{"brewery":"Compa\u00f1\u00eda Cervecera de Puerto Rico","country":"PR","city":"Mayaguez","lat":18.20107,"long":-67.13962},{"brewery":"Browar Bojanowo","country":"PL","city":"Bojanowo","lat":51.70749,"long":16.74827},{"brewery":"Dirtbag Ales, LLC","country":"US","city":"Hope Mills","lat":34.97044,"long":-78.94531},{"brewery":"Scofflaw Brewing Company","country":"US","city":"Atlanta","lat":33.749,"long":-84.38798},{"brewery":"Cerveceria Costa Rica","country":"CR","city":"San Jose","lat":10.01667,"long":-84.1},{"brewery":"Progress Brewing","country":"US","city":"South El Monte","lat":34.05195,"long":-118.04673},{"brewery":"Avery Brewing Company","country":"US","city":"Boulder","lat":40.01499,"long":-105.27055},{"brewery":"The Farmers' Cabinet","country":"US","city":"Philadelphia","lat":35.67952,"long":-84.40381},{"brewery":"Ben's Brewing Co.","country":"US","city":"Yankton","lat":42.87111,"long":-97.39728},{"brewery":"Jacob Leinenkugel Brewing Company","country":"US","city":"Chippewa Falls","lat":44.93691,"long":-91.39293},{"brewery":"Browar Rockmill","country":"PL","city":"Byt\u00f3w","lat":54.17057,"long":17.49187},{"brewery":"Boston Beer Company (Samuel Adams)","country":"US","city":"Jamaica Plain","lat":42.30982,"long":-71.12033},{"brewery":"Private Landbrauerei Sch\u00f6nram","country":"DE","city":"Petting\/Sch\u00f6nram","lat":47.8857782,"long":12.8505941},{"brewery":"Noble Brewer Beer Company","country":"US","city":"Oakland","lat":39.40787,"long":-79.40671},{"brewery":"Brouwerij De Musketiers","country":"BE","city":"Ursel","lat":51.12895,"long":3.48655},{"brewery":"Forager Brewing Company","country":"US","city":"Rochester","lat":44.02163,"long":-92.4699},{"brewery":"Sierra Nevada Brewing Co.","country":"US","city":"Chico","lat":33.29595,"long":-97.79892},{"brewery":"The Two Metre Tall Company Pty Ltd","country":"AU","city":"Hayes","lat":-42.87936,"long":147.32941},{"brewery":"Mikerphone Brewing","country":"US","city":"Elk Grove Village","lat":42.00392,"long":-87.97035},{"brewery":"Indie Ale House Brewing Company","country":"CA","city":"Toronto","lat":43.70011,"long":-79.4163},{"brewery":"Playalinda Brewing Company - Hardware Store","country":"US","city":"Titusville","lat":41.627,"long":-79.67366},{"brewery":"Redhook Ale Brewery","country":"US","city":"Portsmouth","lat":38.73174,"long":-82.99767},{"brewery":"Lockport Brewery","country":"US","city":"Bolivar","lat":42.06673,"long":-78.16779},{"brewery":"Cervejaria K\u00fcd","country":"BR","city":"Nova Lima - MG","lat":-19.98556,"long":-43.84667},{"brewery":"Village Brewery","country":"CA","city":"Calgary","lat":51.05011,"long":-114.08529},{"brewery":"Forge Brewhouse","country":"US","city":"Dekalb","lat":44.50506,"long":-75.27382},{"brewery":"O'Dempsey's","country":"US","city":"Atlanta","lat":33.749,"long":-84.38798},{"brewery":"Bridge Of Allan Brewery Ltd","country":"GB","city":"Bridge Of Allan","lat":56.1550362,"long":-3.9480672},{"brewery":"Feather Falls Casino Brewing Company","country":"US","city":"Oroville","lat":48.93905,"long":-119.43562},{"brewery":"Haw River Farmhouse Ales","country":"US","city":"Saxapahaw","lat":35.94736,"long":-79.32196},{"brewery":"Upstream Brewing Company - Old Market","country":"US","city":"Omaha","lat":41.25626,"long":-95.94043},{"brewery":"Glenmere Brewing Company","country":"US","city":"Florida","lat":42.66675,"long":-73.01121},{"brewery":"Saint Arnold Brewing Company","country":"US","city":"Houston","lat":37.32616,"long":-91.95599},{"brewery":"Brewers Brothers S.l.","country":"ES","city":"Blanes","lat":41.67419,"long":2.79036},{"brewery":"Zagovor Brewery","country":"RU","city":"Moscow","lat":55.75222,"long":37.61556},{"brewery":"Le BockAle","country":"CA","city":"Drummondville","lat":45.88336,"long":-72.48241},{"brewery":"Moonlight Pizza And BrewPub","country":"US","city":"Salida","lat":38.53472,"long":-105.9989},{"brewery":"Marin Brewing Company","country":"US","city":"Larkspur","lat":37.93409,"long":-122.53525},{"brewery":"Martha's Exchange","country":"US","city":"Nashua","lat":42.95275,"long":-92.5363},{"brewery":"Le Brasse-Temps (Louvain-la-Neuve) \/ Brasserie Dubuisson Fr\u00e8res","country":"BE","city":"Louvain-la-Neuve","lat":50.66829,"long":4.61443},{"brewery":"Funky Buddha Brewery","country":"US","city":"Oakland Park","lat":26.17231,"long":-80.13199},{"brewery":"Fair State Brewing Cooperative","country":"US","city":"Minneapolis","lat":39.12194,"long":-97.7067},{"brewery":"pFriem Family Brewers","country":"US","city":"Hood River","lat":45.7054,"long":-121.52146},{"brewery":"Still River Winery","country":"US","city":"Harvard","lat":40.6189,"long":-98.09727},{"brewery":"The Bruery","country":"US","city":"Placentia","lat":33.87224,"long":-117.87034},{"brewery":"Wichita Brewing Co. & Pizzeria West","country":"US","city":"Wichita","lat":37.69224,"long":-97.33754},{"brewery":"Rock Bottom Restaurant & Brewery","country":"US","city":null,"lat":null,"long":null},{"brewery":"Falls City Brewing Company","country":"US","city":"Louisville","lat":39.97776,"long":-105.13193},{"brewery":"Omnipollo","country":"SE","city":"Stockholm","lat":59.32938,"long":18.06871},{"brewery":"Phantom Canyon Brewing Company","country":"US","city":"Colorado Springs","lat":38.83388,"long":-104.82136},{"brewery":"Tin Roof Brewing Company","country":"US","city":"Baton Rouge","lat":30.44332,"long":-91.18747},{"brewery":"Boathouse Brewpub & Restaurant","country":"US","city":"Ely","lat":39.24744,"long":-114.88863},{"brewery":"Grand Rapids Brewing Company","country":"US","city":"Grand Rapids","lat":47.23717,"long":-93.53021},{"brewery":"Basqueland Brewing Project","country":"ES","city":"Donostia-San Sebastian","lat":37.65376,"long":-4.82409},{"brewery":"Living The Dream Brewing Co.","country":"US","city":"Littleton","lat":39.61332,"long":-105.01665},{"brewery":"Arizona Wilderness Brewing Co.","country":"US","city":"Gilbert","lat":47.48882,"long":-92.46491},{"brewery":"San Luis Valley Brewing Company","country":"US","city":"Alamosa","lat":37.46945,"long":-105.87002},{"brewery":"Canteen Brewhouse","country":"US","city":"Albuquerque","lat":35.08449,"long":-106.65114},{"brewery":"Kinnegar Brewing","country":"IE","city":"County Donegal","lat":54.92075415,"long":-7.9523852147},{"brewery":"Dogfish Head Craft Brewery","country":"US","city":"Milton","lat":34.13216,"long":-84.30067},{"brewery":"De Proefbrouwerij (bvba Andelot)","country":"BE","city":"Lochristi-Hijfte","lat":51.1108811,"long":3.8099162},{"brewery":"Steel Toe Brewing","country":"US","city":"Saint Louis Park","lat":44.9483,"long":-93.34801},{"brewery":"Queen City Brewing Limited","country":"US","city":"Staunton","lat":38.14991,"long":-79.0732},{"brewery":"\u00c0 La F\u00fbt","country":"CA","city":"Saint-Tite","lat":46.73336,"long":-72.56581},{"brewery":"Yazoo Brewing Company","country":"US","city":"Nashville","lat":45.52274,"long":-89.02484},{"brewery":"Cape May Brewing Company","country":"US","city":"Cape May","lat":38.93511,"long":-74.90601},{"brewery":"Capital Brewery","country":"US","city":"Middleton","lat":43.70683,"long":-116.62014},{"brewery":"Balter Beerworks","country":"US","city":"Knoxville","lat":41.95729,"long":-77.43887},{"brewery":"Double Shift Brewing Company","country":"US","city":"Kansas City","lat":39.09973,"long":-94.57857},{"brewery":"Bulldog Brewery","country":"US","city":"Murrieta","lat":33.55391,"long":-117.21392},{"brewery":"Foggy Noggin Brewing","country":"US","city":"Bothell","lat":47.76232,"long":-122.2054},{"brewery":"Wren House Brewing Co","country":"US","city":"Phoenix","lat":42.27541,"long":-122.81809},{"brewery":"Old Colorado Brewing Company","country":"US","city":"Wellington","lat":39.54247,"long":-110.73543},{"brewery":"Kirkland Signature \/ Costco Wholesale Corporation","country":"US","city":"Issaquah","lat":47.5301,"long":-122.03262},{"brewery":"Prohibition Pig","country":"US","city":"Waterbury","lat":44.33783,"long":-72.75623},{"brewery":"SoCal Beer Company","country":"US","city":"Tarzana","lat":34.05223,"long":-118.24368},{"brewery":"Drafting Table Brewing Company","country":"US","city":"Wixom","lat":42.52476,"long":-83.53633},{"brewery":"734 Brewing Company","country":"US","city":"Ypsilanti","lat":42.24115,"long":-83.61299},{"brewery":"Lamplighter Brewing Company","country":"US","city":"Cambridge","lat":40.28195,"long":-100.16569},{"brewery":"Beer Lab HI","country":"US","city":"Honolulu","lat":21.30694,"long":-157.85833},{"brewery":"Upstreet Craft Brewing","country":"CA","city":"Charlottetown","lat":46.23459,"long":-63.1256},{"brewery":"Mikkeller ApS","country":"DK","city":"K\u00f8benhavn","lat":55.67594,"long":12.56553},{"brewery":"Pro Re Nata Brewery","country":"US","city":"Crozet","lat":38.06958,"long":-78.70058},{"brewery":"The Flying Dutchman Nomad Brewing Company","country":"FI","city":"Vantaa","lat":60.29414,"long":25.04099},{"brewery":"Faction Brewing","country":"US","city":"Alameda","lat":37.77099,"long":-122.26087},{"brewery":"Electric Bicycle Brewing","country":"CA","city":"Vancouver","lat":49.24966,"long":-123.11934},{"brewery":"10 Barrel Brewing Co.","country":"US","city":"Bend","lat":44.05817,"long":-121.31531},{"brewery":"Waterline Brewing Company","country":"US","city":"Wilmington","lat":39.44534,"long":-83.82854},{"brewery":"Tillingbourne Brewery","country":"GB","city":"Shere","lat":51.22086,"long":-0.46597},{"brewery":"Wells & Young's Ltd","country":"GB","city":"Bedford","lat":52.13459,"long":-0.46632},{"brewery":"Alpha Brewing Company","country":"US","city":"Saint Louis","lat":43.40836,"long":-84.60667},{"brewery":"The Waterfront Brewery","country":"US","city":"Key West","lat":24.55524,"long":-81.78163},{"brewery":"Barrel House Z (BHZ)","country":"US","city":"Weymouth","lat":42.22093,"long":-70.93977},{"brewery":"Cheluna Brewing Company","country":"US","city":"Aurora","lat":39.72943,"long":-104.83192},{"brewery":"Asian Brothers Brewing Co.","country":"US","city":"Sacramento","lat":38.58157,"long":-121.4944},{"brewery":"AleSmith Brewing Company","country":"US","city":"San Diego","lat":27.76391,"long":-98.2389},{"brewery":"Stonehome Brewing Company","country":"US","city":"Watford City","lat":47.80224,"long":-103.28325},{"brewery":"Shmaltz Brewing Company","country":"US","city":"Clifton Park","lat":39.09193,"long":-108.44898},{"brewery":"Durty Bull Brewing Co.","country":"US","city":"Durham","lat":42.39953,"long":-74.17236},{"brewery":"E Nine Brewery","country":"US","city":"Tacoma","lat":47.25288,"long":-122.44429},{"brewery":"Reuben's Brews","country":"US","city":"Seattle","lat":47.60621,"long":-122.33207},{"brewery":"The Moon Under Water Pub & Brewery","country":"CA","city":"Victoria","lat":48.4359,"long":-123.35155},{"brewery":"Right Proper Brewing Company - Shaw Brewpub","country":"US","city":"Washington","lat":37.13054,"long":-113.50829},{"brewery":"Westbrook Brewing Co.","country":"US","city":"Mount Pleasant","lat":39.54691,"long":-111.45547},{"brewery":"Manayunk Brewery and Restaurant","country":"US","city":"Philadelphia","lat":35.67952,"long":-84.40381},{"brewery":"Brouwerij Kees","country":"NL","city":"Arnestein","lat":51.4970629,"long":3.6435278449},{"brewery":"Resurgence Brewing Company","country":"US","city":"Buffalo","lat":44.34831,"long":-106.69894},{"brewery":"From The Barrel Brewing Company","country":"US","city":"Londonderry","lat":43.22646,"long":-72.80649},{"brewery":"Bootleg Brewery","country":"AU","city":"Wilyabrup","lat":-32.49597,"long":137.77281},{"brewery":"Marble Brewery","country":"US","city":"Albuquerque","lat":35.08449,"long":-106.65114},{"brewery":"Epic Brewing Company","country":"US","city":"Salt Lake City","lat":40.76078,"long":-111.89105},{"brewery":"Bison Brewing","country":"US","city":"Berkeley","lat":41.88892,"long":-87.9034},{"brewery":"Cascade Brewing \/ Raccoon Lodge & Brewpub","country":"US","city":"Portland","lat":43.76886,"long":-90.85819},{"brewery":"Bike Dog Brewing Company","country":"US","city":"West Sacramento","lat":38.58046,"long":-121.53023},{"brewery":"Nickel Brook Brewing Co.","country":"CA","city":"Burlington","lat":43.38621,"long":-79.83713},{"brewery":"Innis & Gunn","country":"GB","city":"Edinburgh","lat":55.95206,"long":-3.19648},{"brewery":"Cisco Brewers Inc.","country":"US","city":"Nantucket","lat":41.28346,"long":-70.09946},{"brewery":"Berkeley Springs Brewing","country":"US","city":"Berkeley Springs","lat":39.6248,"long":-78.22472},{"brewery":"Browar Van Pur S.A. (Brau Union Polska)","country":"PL","city":"Rzesz\u00f3w","lat":50.04132,"long":21.99901},{"brewery":"Old Ivy Brewery and Taproom","country":"US","city":"Vancouver","lat":45.63873,"long":-122.66149},{"brewery":"Starr Hill Brewery","country":"US","city":"Crozet","lat":38.06958,"long":-78.70058},{"brewery":"The Crafty Little Brewery","country":"GB","city":"Brough","lat":53.72861,"long":-0.57215},{"brewery":"Beerbliotek","country":"SE","city":"G\u00f6teborg","lat":57.70716,"long":11.96679},{"brewery":"Eight Degrees Brewing","country":"IE","city":"County Cork","lat":51.89797,"long":-8.47061},{"brewery":"Brooklyn Brewery","country":"US","city":"Brooklyn","lat":42.10587,"long":-84.24828},{"brewery":"ManRock Brewing Company","country":"US","city":"Grover Beach","lat":35.12164,"long":-120.62128},{"brewery":"Toxic Brewing Co.","country":"US","city":"Dayton","lat":39.23714,"long":-119.59295},{"brewery":"Populuxe Brewing","country":"US","city":"Seattle","lat":47.60621,"long":-122.33207},{"brewery":"Berghoeve Brouwerij","country":"NL","city":"Den Ham","lat":52.46583,"long":6.49583},{"brewery":"Remedy Brewing Company","country":"US","city":"Sioux Falls","lat":43.54997,"long":-96.70033},{"brewery":"Eskilstuna \u00d6lkultur","country":"SE","city":"Eskilstuna","lat":59.36661,"long":16.5077},{"brewery":"Bierkraft","country":"US","city":"Brooklyn","lat":42.10587,"long":-84.24828},{"brewery":"Conshohocken Brewing Company","country":"US","city":"Conshohocken","lat":40.07928,"long":-75.30157},{"brewery":"United Breweries - UB Group","country":"IN","city":"Bangalore","lat":12.97194,"long":77.59369},{"brewery":"Ludlam Island Brewery","country":"US","city":"Ocean View","lat":38.54511,"long":-75.08907},{"brewery":"Land-Grant Brewing Company","country":"US","city":"Columbus","lat":31.8276,"long":-107.64002},{"brewery":"Dionysus Brewing Company","country":"US","city":"Bakersfield","lat":35.37329,"long":-119.01871},{"brewery":"Ballast Point Brewing Company","country":"US","city":"San Diego","lat":27.76391,"long":-98.2389},{"brewery":"Sacramento Brewing Co.","country":"US","city":"Sacramento","lat":38.58157,"long":-121.4944},{"brewery":"BrewDog","country":"GB","city":"Ellon","lat":57.36405,"long":-2.07313},{"brewery":"Der HirschBrau\/Privatbrauerei H\u00f6ss","country":"DE","city":"Sonthofen","lat":47.51821,"long":10.28262},{"brewery":"Denver Beer Co.","country":"US","city":"Denver","lat":39.73915,"long":-104.9847},{"brewery":"Elysian Brewing Company","country":"US","city":"Seattle","lat":47.60621,"long":-122.33207},{"brewery":"Narrow Gauge Brewing Company","country":"US","city":"Florissant","lat":38.78922,"long":-90.32261},{"brewery":"Smuttynose Brewing Company","country":"US","city":"Hampton","lat":42.74192,"long":-93.20242},{"brewery":"Evil Czech Brewery and Public House","country":"US","city":"Mishawaka","lat":41.66199,"long":-86.15862},{"brewery":"Village Idiot Brewing Company","country":"US","city":"Mount Holly","lat":43.45229,"long":-72.82482},{"brewery":"Brasseurs Du Monde","country":"CA","city":"Sainte-Hyacinthe","lat":45.50884,"long":-73.58781},{"brewery":"Zerodegrees Cardiff","country":"GB","city":"Cardiff","lat":51.48,"long":-3.18},{"brewery":"Nod Hill Brewery","country":"US","city":"Ridgefield","lat":41.28148,"long":-73.49818},{"brewery":"Microbrasserie Labrosse","country":"CA","city":"Pointe-Claire","lat":45.44868,"long":-73.81669},{"brewery":"Cogstone Brewing Company","country":"US","city":"Colorado Springs","lat":38.83388,"long":-104.82136},{"brewery":"Deviate Brewing","country":"US","city":"Indianapolis","lat":39.76838,"long":-86.15804},{"brewery":"Brasserie Castelain","country":"FR","city":"B\u00e9nifontaine","lat":50.4854775,"long":2.830488},{"brewery":"Innocente Brewing Company","country":"CA","city":"Waterloo","lat":45.35008,"long":-72.51582},{"brewery":"Listermann Brewing Company","country":"US","city":"Cincinnati","lat":39.12711,"long":-84.51439},{"brewery":"Fieldwork Brewing Co.","country":"US","city":"Berkeley","lat":41.88892,"long":-87.9034},{"brewery":"Chapman Crafted Beer","country":"US","city":"Orange","lat":41.44978,"long":-81.48067},{"brewery":"La Caverna del Mastro Birraio","country":"IT","city":"Acireale","lat":37.60886,"long":15.16577},{"brewery":"Smiling Toad Brewery","country":"US","city":"Colorado Springs","lat":38.83388,"long":-104.82136},{"brewery":"Fort Point Beer Company","country":"US","city":"San Francisco","lat":37.77493,"long":-122.41942},{"brewery":"Black Hog Brewing Co.","country":"US","city":"Oxford","lat":40.24834,"long":-99.63344},{"brewery":"Sekinoichi-shuzou, Iwate-kura Brewery","country":"JP","city":"Iwate-ken Ichinoseki-shi","lat":38.9346961,"long":141.126605},{"brewery":"Smog City Brewing","country":"US","city":"Torrance","lat":33.83585,"long":-118.34063},{"brewery":"Biosenze BVBA","country":"BE","city":"Hoeselt","lat":50.84714,"long":5.48767},{"brewery":"Brasserie Magritte","country":"US","city":"New York","lat":40.86807,"long":-97.592},{"brewery":"Triumph Brewing Company","country":"US","city":"New Hope","lat":38.19791,"long":-78.90586},{"brewery":"Finback Brewery","country":"US","city":"Queens","lat":40.68149,"long":-73.83652},{"brewery":"Naples Beach Brewery","country":"US","city":"Naples","lat":40.42691,"long":-109.4993},{"brewery":"HammerHeart Brewing Company","country":"US","city":"Lino Lakes","lat":45.16024,"long":-93.08883},{"brewery":"Anspach & Hobday","country":"GB","city":"London","lat":51.50853,"long":-0.12574},{"brewery":"Smokehouse Brewing Co.","country":"US","city":"Columbus","lat":31.8276,"long":-107.64002},{"brewery":"Utah Brewers Cooperative","country":"US","city":null,"lat":null,"long":null},{"brewery":"The Woodburn Brewery","country":"US","city":"Cincinnati","lat":39.12711,"long":-84.51439},{"brewery":"Be Right Back Brewing Company (BRB Co.)","country":"CA","city":"Richmond","lat":45.66677,"long":-72.1491},{"brewery":"Pair O' Dice Brewing Company","country":"US","city":"Clearwater","lat":37.5028,"long":-97.50449},{"brewery":"Browar Palatum","country":"PL","city":"Warszawa","lat":52.22977,"long":21.01178},{"brewery":"Cervejaria Helmbier","country":"BR","city":"Porto Alegre - RS","lat":-3.45778,"long":-42.37028},{"brewery":"Tooth and Nail Brewing Company","country":"CA","city":"Ottawa","lat":45.41117,"long":-75.69812},{"brewery":"Iron Hill Brewery & Restaurant","country":"US","city":null,"lat":null,"long":null},{"brewery":"The Bronx Brewery","country":"US","city":"Bronx","lat":40.93815,"long":-73.83208},{"brewery":"Big Thompson Brewery","country":"US","city":"Loveland","lat":40.39776,"long":-105.07498},{"brewery":"City Steam Brewery Caf\u00e9","country":"US","city":"Hartford","lat":43.62303,"long":-96.94255},{"brewery":"Sierra Madre Brewing Co.","country":"MX","city":"Guadalupe (Nuevo Le\u00f3n)","lat":25.6766398,"long":-100.2000720726},{"brewery":"Dunedin Brewery","country":"US","city":"Dunedin","lat":28.0199,"long":-82.77323},{"brewery":"Great Dane Pub & Brewing Company (Downtown)","country":"US","city":"Madison","lat":44.00608,"long":-97.11395},{"brewery":"Coopersmith's Pub & Brewing","country":"US","city":"Fort Collins","lat":40.58526,"long":-105.08442},{"brewery":"Green Flash Brewing Co.","country":"US","city":"San Diego","lat":27.76391,"long":-98.2389},{"brewery":"Port Brewing","country":"US","city":"San Marcos","lat":29.88327,"long":-97.94139},{"brewery":"Les Trois Mousquetaires","country":"CA","city":"Brossard","lat":45.45008,"long":-73.46583},{"brewery":"Middle Ages Brewing Co., Ltd.","country":"US","city":"Syracuse","lat":41.08939,"long":-112.06467},{"brewery":"Cigar City Brewing","country":"US","city":"Tampa","lat":27.94752,"long":-82.45843},{"brewery":"Heavy Seas Beer","country":"US","city":"Baltimore","lat":39.84534,"long":-82.60072},{"brewery":"Mother's Brewing Company","country":"US","city":"Springfield","lat":37.40835,"long":-102.61436},{"brewery":"Russian River Brewing Company","country":"US","city":"Santa Rosa","lat":34.93867,"long":-104.68249},{"brewery":"Canon & Draw Brewing Company","country":"US","city":"Richmond","lat":41.92271,"long":-111.81356},{"brewery":"Beer of Yerevan JSC","country":"AM","city":"Yerevan","lat":40.18111,"long":44.51361},{"brewery":"The North Brewery","country":"US","city":"Endicott","lat":42.09841,"long":-76.04937},{"brewery":"Braugastst\u00e4tte D\u00f6bler","country":"DE","city":"Bad Windsheim","lat":49.50274,"long":10.41539},{"brewery":"Browar Pinta","country":"PL","city":"Wroc\u0142aw","lat":51.1,"long":17.03333},{"brewery":"Trailway Brewing Co.","country":"CA","city":"Fredericton","lat":45.94541,"long":-66.66558},{"brewery":"\u00c0 L'Abordage Microbrasserie","country":"CA","city":"Sutton","lat":45.10008,"long":-72.61582},{"brewery":"Country Boy Brewing","country":"US","city":"Lexington","lat":40.78084,"long":-99.7415},{"brewery":"Strange Roots Experimental Ales","country":"US","city":"Millvale","lat":40.48007,"long":-79.97839},{"brewery":"Hidden River Brewing Company","country":"US","city":"Douglassville","lat":40.2578714,"long":-75.7263008},{"brewery":"Kinney Creek Brewery","country":"US","city":"Rochester","lat":44.02163,"long":-92.4699},{"brewery":"MoonRidge Brew Pub","country":"US","city":"Cornell","lat":45.16719,"long":-91.14931},{"brewery":"Peoria Artisan Brewery North Peoria","country":"US","city":"Peoria","lat":33.5806,"long":-112.23738},{"brewery":"Milwaukee Ale House","country":"US","city":"Milwaukee","lat":43.0389,"long":-87.90647},{"brewery":"Station 26 Brewing Co.","country":"US","city":"Denver","lat":39.73915,"long":-104.9847},{"brewery":"Willoughby Brewing","country":"US","city":"Willoughby","lat":41.63977,"long":-81.4065},{"brewery":"Low Tide Brewing","country":"US","city":"Johns Island","lat":44.20078285,"long":-68.4878684458},{"brewery":"H\u00f6gan\u00e4s Bryggeri","country":"SE","city":"H\u00f6gan\u00e4s","lat":56.19971,"long":12.55795},{"brewery":"Barren Hill Tavern & Brewery","country":"US","city":"Lafayette Hill","lat":40.09245,"long":-75.2533},{"brewery":"Miner Brewing Company","country":"US","city":"Hill City","lat":43.93249,"long":-103.57519},{"brewery":"Privatbrauerei Streck-Br\u00e4u E.K.","country":"DE","city":"Ostheim","lat":50.93117,"long":7.04412},{"brewery":"Weasel Boy Brewing Company","country":"US","city":"Zanesville","lat":40.91727,"long":-85.28053},{"brewery":"J. Wakefield Brewing","country":"US","city":"Miami","lat":33.39922,"long":-110.86872},{"brewery":"Eastwood Brewing Co.","country":"US","city":"Syracuse","lat":41.08939,"long":-112.06467},{"brewery":"Woody's Brewing Co.","country":"US","city":"Redding","lat":40.58654,"long":-122.39168},{"brewery":"Sociedade Central de Cervejas","country":"PT","city":"Vialonga","lat":38.87206,"long":-9.07805},{"brewery":"Ground Zero Beer","country":"RO","city":"Bucure\u0219ti","lat":44.43225,"long":26.10626},{"brewery":"Madhouse Brewing Company","country":"US","city":"Des Moines","lat":41.60054,"long":-93.60911},{"brewery":"Black Raven Brewing Co.","country":"US","city":"Redmond","lat":39.00607,"long":-111.86187},{"brewery":"Fremont Brewing Company","country":"US","city":"Seattle","lat":47.60621,"long":-122.33207},{"brewery":"Mickey Finn's Brewery","country":"US","city":"Libertyville","lat":42.28308,"long":-87.95313},{"brewery":"Hi-Wire Brewing","country":"US","city":"Asheville","lat":35.60095,"long":-82.55402},{"brewery":"The Lost Colony Brewery and Cafe","country":"US","city":"Manteo","lat":35.90823,"long":-75.67573},{"brewery":"Franciscan Well Micro Brewery","country":"IE","city":"Cork","lat":51.89797,"long":-8.47061},{"brewery":"Nethergate Brewery Co. Ltd.","country":"GB","city":"Clare Suffolk","lat":52.0801783,"long":0.5829603},{"brewery":"Vault Brewing Company","country":"US","city":"Yardley","lat":40.24566,"long":-74.846},{"brewery":"Elk Brewing","country":"US","city":"Grand Rapids","lat":47.23717,"long":-93.53021},{"brewery":"Lakeville Brewing Co.","country":"US","city":"Lakeville","lat":44.64969,"long":-93.24272},{"brewery":"J.W. Lees & Co (Brewers) Ltd","country":"GB","city":"Manchester","lat":53.48095,"long":-2.23743},{"brewery":"Urban Family Brewing Co.","country":"US","city":"Seattle","lat":47.60621,"long":-122.33207},{"brewery":"Via Priula","country":"IT","city":"San Pellegrino Terme (BG)","lat":45.8382476,"long":9.6652356},{"brewery":"Taft's Ale House","country":"US","city":"Cincinnati","lat":39.12711,"long":-84.51439},{"brewery":"Congregation Ale House","country":"US","city":"Azusa","lat":34.13362,"long":-117.90756},{"brewery":"Pinthouse Pizza Craft Brewpub","country":"US","city":"Austin","lat":41.63118,"long":-78.09139},{"brewery":"Taos Mesa Brewing","country":"US","city":"Taos","lat":36.40725,"long":-105.57307},{"brewery":"Angry Chair Brewing","country":"US","city":"Tampa","lat":27.94752,"long":-82.45843},{"brewery":"The Virginia Beer Company","country":"US","city":"Williamsburg","lat":38.38194,"long":-105.15193},{"brewery":"Pipe Dream Brewing","country":"US","city":"Londonderry","lat":43.22646,"long":-72.80649},{"brewery":"AleWerks Brewing Company","country":"US","city":"Williamsburg","lat":38.38194,"long":-105.15193},{"brewery":"Wiley Roots Brewing Co","country":"US","city":"Greeley","lat":40.42331,"long":-104.70913},{"brewery":"ChuckAlek Independent Brewers","country":"US","city":"Ramona","lat":33.04171,"long":-116.86808},{"brewery":"Pipeworks Brewing Company","country":"US","city":"Chicago","lat":41.85003,"long":-87.65005},{"brewery":"Summit Brewing Company","country":"US","city":"Saint Paul","lat":41.21473,"long":-98.45812},{"brewery":"Kickback Brewery","country":"US","city":"Westford","lat":42.57926,"long":-71.43784},{"brewery":"Prison Hill Brewing Company","country":"US","city":"Yuma","lat":40.12221,"long":-102.72521},{"brewery":"Goose Island Beer Co.","country":"US","city":"Chicago","lat":41.85003,"long":-87.65005},{"brewery":"Wildcard Brewing","country":"US","city":"Redding","lat":40.58654,"long":-122.39168},{"brewery":"Nebraska Brewing Company","country":"US","city":"Papillion","lat":41.15444,"long":-96.04224},{"brewery":"Monkish Brewing Co.","country":"US","city":"Torrance","lat":33.83585,"long":-118.34063},{"brewery":"Druthers Brewing Company","country":"US","city":"Saratoga Springs","lat":40.34912,"long":-111.90466},{"brewery":"Tired Hands Brewing Company","country":"US","city":"Ardmore","lat":34.99203,"long":-86.84667},{"brewery":"O'Fallon Brewery","country":"US","city":"Maryland Heights","lat":38.71311,"long":-90.42984},{"brewery":"Rush River Brewing Company","country":"US","city":"River Falls","lat":44.86136,"long":-92.62381},{"brewery":"The Answer Brewpub","country":"US","city":"Richmond","lat":41.92271,"long":-111.81356},{"brewery":"Cerveza Artesanal La Loggia","country":"AR","city":"Buenos Aires","lat":-34.61315,"long":-58.37723},{"brewery":"Three Magnets Brewing","country":"US","city":"Olympia","lat":47.03787,"long":-122.9007},{"brewery":"Jasper Ridge Brewery","country":"US","city":"Ishpeming","lat":46.48855,"long":-87.66764},{"brewery":"Shimane Beer K.K.","country":"JP","city":"Shimane-ken Matsue-shi","lat":35.468115,"long":133.048768},{"brewery":"Hopothesis Beer Company","country":"US","city":"Chicago","lat":41.85003,"long":-87.65005},{"brewery":"Island Hoppin' Brewery","country":"US","city":"Eastsound","lat":48.696771,"long":-122.9054625},{"brewery":"Bryggeriet Dj\u00e6vlebryg ApS","country":"DK","city":"K\u00f8benhavn","lat":55.67594,"long":12.56553},{"brewery":"Beachside Brewpub","country":"US","city":"Ormond Beach","lat":29.28581,"long":-81.05589},{"brewery":"Oedipus Brewing","country":"NL","city":"Amsterdam","lat":52.37403,"long":4.88969},{"brewery":"Backpocket Brewing","country":"US","city":"Coralville","lat":41.6764,"long":-91.58045},{"brewery":"North Cotswold Brewery","country":"GB","city":"Moreton In Marsh","lat":51.9906413,"long":-1.7023018},{"brewery":"Arrogant Brewing - Berlin","country":"DE","city":"Berlin","lat":52.52437,"long":13.41053},{"brewery":"The Lucky Monk","country":"US","city":"South Barrington","lat":42.09142,"long":-88.12174},{"brewery":"Brazos Valley Brewing Company","country":"US","city":"Brenham","lat":30.16688,"long":-96.39774},{"brewery":"Wermlands Brygghus","country":"SE","city":"Kristinehamn","lat":59.30978,"long":14.10808},{"brewery":"#Freedom Brewery","country":"US","city":"Buchanan","lat":33.8026,"long":-85.18856},{"brewery":"Quarter Barrel Brewery & Pub","country":"US","city":"Oxford","lat":40.24834,"long":-99.63344},{"brewery":"The Rare Barrel","country":"US","city":"Berkeley","lat":41.88892,"long":-87.9034},{"brewery":"The Brewer's Cabinet","country":"US","city":"Reno","lat":39.52963,"long":-119.8138},{"brewery":"Welltown Brewing","country":"US","city":"Tulsa","lat":36.15398,"long":-95.99277},{"brewery":"Jughandle Brewing","country":"US","city":"Tinton Falls","lat":40.30428,"long":-74.10042},{"brewery":"Tree House Brewing Company","country":"US","city":"Charlton","lat":42.13565,"long":-71.97007},{"brewery":"Genesee Brew House","country":"US","city":"Rochester","lat":44.02163,"long":-92.4699},{"brewery":"Whistle Pig Brewing Company","country":"US","city":"Colorado Springs","lat":38.83388,"long":-104.82136},{"brewery":"Funk Factory Geuzeria","country":"US","city":"Madison","lat":44.00608,"long":-97.11395},{"brewery":"Upslope Brewing Company - Lee Hill","country":"US","city":"Boulder","lat":40.01499,"long":-105.27055},{"brewery":"Arcense Stoombierbouwerij (Hertog Jan Brouwerij)","country":"NL","city":"Arcen","lat":51.47667,"long":6.18056},{"brewery":"Minneapolis Town Hall Brewery","country":"US","city":"Minneapolis","lat":39.12194,"long":-97.7067},{"brewery":"Kaiser Br\u00e4u GmbH & Co KG","country":"DE","city":"Neuhaus a.d. Pegnitz","lat":49.6280956,"long":11.5516616},{"brewery":"Hank is Wiser Brewery","country":"US","city":"Cheney","lat":47.48739,"long":-117.57576},{"brewery":"Payette Brewing","country":"US","city":"Boise","lat":43.6135,"long":-116.20345},{"brewery":"Prvn\u00ed Bud\u011bjovick\u00fd Pivovar Samson","country":"CZ","city":"\u010cesk\u00e9 Bud\u011bjovice","lat":48.97447,"long":14.47434},{"brewery":"South Street Brewery","country":"US","city":"Charlottesville","lat":38.02931,"long":-78.47668},{"brewery":"Brewmaster Jack","country":"US","city":"Northampton","lat":40.68621,"long":-75.49685},{"brewery":"Arbor Brewing Company","country":"US","city":"Ann Arbor","lat":42.27756,"long":-83.74088},{"brewery":"Big Ugly Brewing Company","country":"US","city":"Chesapeake","lat":38.22344,"long":-81.53623},{"brewery":"Hijos De Rivera, S.A.","country":"ES","city":"La Coruna","lat":43.37135,"long":-8.396},{"brewery":"SIA Piebalga Alus","country":"LV","city":"Jaunpiebalga","lat":57.17745,"long":26.0284},{"brewery":"Upper Canada Brewing Company","country":"CA","city":"Guelph","lat":43.54594,"long":-80.25599},{"brewery":"The Sprig & Fern Brewery","country":"NZ","city":"Richmond","lat":-41.33333,"long":173.18333},{"brewery":"BrickHouse Brewery","country":"US","city":"Patchogue","lat":40.76565,"long":-73.01511},{"brewery":"Barreled Souls Brewing Company","country":"US","city":"Saco","lat":43.50092,"long":-70.44283},{"brewery":"Brauwerk","country":"DE","city":"Bad Kreuznach","lat":49.8414,"long":7.86713},{"brewery":"Morgan Territory Brewing","country":"US","city":"Tracy","lat":44.23329,"long":-95.61918},{"brewery":"GearHouse Brewing Company","country":"US","city":"Chambersburg","lat":39.93759,"long":-77.6611},{"brewery":"Dark Horse Brewing Company","country":"US","city":"Marshall","lat":35.79733,"long":-82.68403},{"brewery":"Funkwerks","country":"US","city":"Fort Collins","lat":40.58526,"long":-105.08442},{"brewery":"Brassneck Brewery","country":"CA","city":"Vancouver","lat":49.24966,"long":-123.11934},{"brewery":"Twisted X Brewing Company","country":"US","city":"Dripping Springs","lat":30.19021,"long":-98.08668},{"brewery":"Big Bear Lake Brewing Company","country":"US","city":"Big Bear Lake","lat":34.2439,"long":-116.91142},{"brewery":"On Rotation","country":"US","city":"Dallas","lat":41.33619,"long":-75.96325},{"brewery":"Pariah Brewing Company","country":"US","city":"San Diego","lat":27.76391,"long":-98.2389},{"brewery":"Inbound BrewCo","country":"US","city":"Minneapolis","lat":39.12194,"long":-97.7067},{"brewery":"Young Lion Brewing Company","country":"US","city":"Canandaigua","lat":42.87423,"long":-77.28804},{"brewery":"Gizmo Brew Works","country":"US","city":"Raleigh","lat":32.03349,"long":-89.52229},{"brewery":"Alexander Keith's","country":"CA","city":"Halifax","lat":44.6464,"long":-63.57291},{"brewery":"Steelhead Brewing Co.","country":"US","city":"Burlingame","lat":38.75389,"long":-95.83499},{"brewery":"Barley and Hops","country":"US","city":"Frederick","lat":40.09915,"long":-104.9372},{"brewery":"Drake's Brewing Co.","country":"US","city":"San Leandro","lat":37.72493,"long":-122.15608},{"brewery":"Copper Dragon Brewery","country":"GB","city":"Skipton","lat":53.96144,"long":-2.01676},{"brewery":"Stones Throw Brewing Co.","country":"US","city":"Bellingham","lat":42.08676,"long":-71.47451},{"brewery":"Casual Animal Brewing Company","country":"US","city":"Kansas City","lat":39.09973,"long":-94.57857},{"brewery":"Abbaye de Leffe S.A.","country":"BE","city":"Dinant","lat":50.25807,"long":4.91166},{"brewery":"Refined Fool Brewing Co.","country":"CA","city":"Sarnia","lat":42.97866,"long":-82.40407},{"brewery":"Abandon Brewing Co.","country":"US","city":"Penn Yan","lat":42.6609,"long":-77.05386},{"brewery":"The Seven Barrel Brewery","country":"US","city":"West Lebanon","lat":40.27004,"long":-87.38668},{"brewery":"Beer Here","country":"DK","city":"K\u00f8benhavn","lat":55.67594,"long":12.56553},{"brewery":"Alt Brew","country":"US","city":"Madison","lat":44.00608,"long":-97.11395},{"brewery":"Nano 108 Brewing Company","country":"US","city":"Colorado Springs","lat":38.83388,"long":-104.82136},{"brewery":"Sleeping Giant Brewing Co.","country":"CA","city":"Thunder Bay","lat":48.38202,"long":-89.25018},{"brewery":"East End Brewing Company","country":"US","city":"Pittsburgh","lat":40.44062,"long":-79.99589},{"brewery":"Lone Peak Brewery","country":"US","city":"Big Sky","lat":45.28465,"long":-111.36829},{"brewery":"Rocky River Brewing","country":"US","city":"Rocky River","lat":41.4756,"long":-81.8393},{"brewery":"The Freehouse","country":"US","city":"Minneapolis","lat":39.12194,"long":-97.7067},{"brewery":"Aslin Beer Company","country":"US","city":"Herndon","lat":38.96955,"long":-77.3861},{"brewery":"Lupulin Brewing","country":"US","city":"Big Lake","lat":31.19154,"long":-101.46039},{"brewery":"BeerZelis","country":"RU","city":"Kaliningrad","lat":54.70649,"long":20.51095},{"brewery":"Pivovar Kocour Varnsdorf","country":"CZ","city":"Varnsdorf","lat":50.91154,"long":14.61824},{"brewery":"Brasserie de West Shefford","country":"CA","city":"Bromont","lat":45.31678,"long":-72.64912},{"brewery":"Boulder Beer \/ Wilderness Pub","country":"US","city":"Boulder","lat":40.01499,"long":-105.27055},{"brewery":"Out.Haus Ales","country":"US","city":"Northwood","lat":43.44412,"long":-93.22104},{"brewery":"Cerveceria Korok","country":"PY","city":"Asuncion","lat":-25.28646,"long":-57.647},{"brewery":"The Oozlefinch Craft Brewery","country":"US","city":"Fort Monroe","lat":37.00427465,"long":-76.3068955428},{"brewery":"Trinity Brewing Company","country":"US","city":"Colorado Springs","lat":38.83388,"long":-104.82136},{"brewery":"The Celt Experience","country":"GB","city":"Caerphilly","lat":51.57452,"long":-3.218},{"brewery":"Black Lotus Brewery","country":"US","city":"Clawson","lat":42.53337,"long":-83.14632},{"brewery":"Forest & Main Brewing Company","country":"US","city":"Ambler","lat":40.15455,"long":-75.22157},{"brewery":"SweetWater Brewing Company","country":"US","city":"Atlanta","lat":33.749,"long":-84.38798},{"brewery":"Silverton Brewery","country":"US","city":"Silverton","lat":37.81194,"long":-107.66451},{"brewery":"Culture Brewing Co.","country":"US","city":"Solana Beach","lat":32.99115,"long":-117.27115},{"brewery":"Dog Rose Brewing Co.","country":"US","city":"Saint Augustine","lat":29.89469,"long":-81.31452},{"brewery":"Maiden City Brewing","country":"US","city":"Cynthiana","lat":38.39035,"long":-84.2941},{"brewery":"Pinthouse Pizza - South Austin","country":"US","city":"Austin","lat":41.63118,"long":-78.09139},{"brewery":"Saint Somewhere Brewing Company","country":"US","city":"Tarpon Springs","lat":28.14612,"long":-82.75677},{"brewery":"Twain's Billiards and Tap","country":"US","city":"Decatur","lat":36.33591,"long":-94.46077},{"brewery":"Broadway Brewery & Restaurant","country":"US","city":"Columbia","lat":38.03631,"long":-120.40131},{"brewery":"River City Brewing Co.","country":"US","city":"Wichita","lat":37.69224,"long":-97.33754},{"brewery":"Granville Island Brewery","country":"CA","city":"Vancouver","lat":49.24966,"long":-123.11934},{"brewery":"The Mula Cervezas Especiales","country":"AR","city":"Buenos Aires","lat":-34.61315,"long":-58.37723},{"brewery":"\u008e\u017dateck\u00fd Pivovar","country":"CZ","city":"\u017da\u008eatec","lat":50.32717,"long":13.54577},{"brewery":"Griffin Claw Brewing Company","country":"US","city":"Birmingham","lat":42.5467,"long":-83.21132},{"brewery":"\u00d8lfabrikken","country":"DK","city":"Roskilde","lat":55.64152,"long":12.08035},{"brewery":"Hofbr\u00e4uhaus M\u00fcnchen","country":"DE","city":"M\u00fcnchen","lat":50.82114,"long":11.93226},{"brewery":"Other Half Brewing Co.","country":"US","city":"Brooklyn","lat":42.10587,"long":-84.24828},{"brewery":"Grimm Artisanal Ales","country":"US","city":"Brooklyn","lat":42.10587,"long":-84.24828},{"brewery":"COOP Ale Works","country":"US","city":"Oklahoma City","lat":35.46756,"long":-97.51643},{"brewery":"Somerville Brewing Company (Slumbrew)","country":"US","city":"Somerville","lat":34.47338,"long":-86.7987},{"brewery":"Kirkstall Brewery Company","country":"GB","city":"Leeds","lat":53.79648,"long":-1.54785},{"brewery":"Crooked Stave Artisan Beer Project","country":"US","city":"Denver","lat":39.73915,"long":-104.9847},{"brewery":"Panimo Hiisi","country":"FI","city":"Jyv\u00e4skyl\u00e4","lat":62.24147,"long":25.72088},{"brewery":"Big Time Brewery & Alehouse","country":"US","city":"Seattle","lat":47.60621,"long":-122.33207},{"brewery":"Community Beer Works","country":"US","city":"Buffalo","lat":44.34831,"long":-106.69894},{"brewery":"Barnaby Brewing Company","country":"US","city":"Juneau","lat":43.40555,"long":-88.7051},{"brewery":"River Styx Brewing Company","country":"US","city":"Fitchburg","lat":42.96083,"long":-89.46984},{"brewery":"Blue Canoe Brewery","country":"US","city":"Titusville","lat":41.627,"long":-79.67366},{"brewery":"Beyond the Mountain Brewing Company","country":"US","city":"Boulder","lat":40.01499,"long":-105.27055},{"brewery":"Brasserie Kapadokya \/ Resto-Grillades Zema","country":"CA","city":"Plessisville","lat":46.21856,"long":-71.76201},{"brewery":"2nd Shift Brewing","country":"US","city":"Saint Louis","lat":43.40836,"long":-84.60667},{"brewery":"Cervisiam Bryggeri","country":"NO","city":"Oslo","lat":59.91273,"long":10.74609},{"brewery":"Societe Brewing Co.","country":"US","city":"San Diego","lat":27.76391,"long":-98.2389},{"brewery":"Great Lakes Brewery","country":"CA","city":"Etobicoke","lat":43.65421,"long":-79.56711},{"brewery":"Microbrasserie Le Naufrageur","country":"CA","city":"Carleton-sur-Mer","lat":48.10749,"long":-66.128},{"brewery":"Offshore Ale Company","country":"US","city":"Oak Bluffs","lat":41.45428,"long":-70.56197},{"brewery":"Lefty's Brewing Company","country":"US","city":"Greenfield","lat":41.30527,"long":-94.46135},{"brewery":"Brock Street Brewing Company","country":"CA","city":"Whitby","lat":43.899871,"long":-78.940201},{"brewery":"P.H. Woods Restaurant & Brewery","country":"US","city":"Moreno Valley","lat":33.93752,"long":-117.23059},{"brewery":"De Struise Brouwers","country":"BE","city":"Oostvleteren","lat":50.93319,"long":2.74119},{"brewery":"Western Red Brewing","country":"US","city":"Poulsbo","lat":47.73593,"long":-122.64654},{"brewery":"Pisgah Brewing Co.","country":"US","city":"Black Mountain","lat":35.6179,"long":-82.32123},{"brewery":"Upland Brewing Company","country":"US","city":"Bloomington","lat":34.07029,"long":-117.39588},{"brewery":"Neustadt Springs Brewery","country":"CA","city":"Neustadt","lat":44.08339,"long":-80.99973},{"brewery":"Manhattan Project Beer Company","country":"US","city":"Dallas","lat":41.33619,"long":-75.96325},{"brewery":"Iron Triangle Brewing Company","country":"US","city":"Los Angeles","lat":34.05223,"long":-118.24368},{"brewery":"Gem's Brew Pub","country":"IT","city":"Lazise (VR)","lat":45.5052005,"long":10.7330245},{"brewery":"Six\u00b0North","country":"GB","city":"Aberdeen","lat":57.14369,"long":-2.09814},{"brewery":"Tunnel Vision Brewery at Pond Hill Farm","country":"US","city":"Harbor Springs","lat":45.43168,"long":-84.992},{"brewery":"7 Mile Brewery","country":"US","city":"Rio Grande","lat":38.87952,"long":-82.38043},{"brewery":"Prohibition Brewing Company","country":"US","city":"Vista","lat":33.20004,"long":-117.24254},{"brewery":"Handsome Beer Company","country":"US","city":"Hyattsville","lat":38.95594,"long":-76.94553},{"brewery":"The St. George Brewing Company","country":"US","city":"Hampton","lat":42.74192,"long":-93.20242},{"brewery":"Odell Brewing Company","country":"US","city":"Fort Collins","lat":40.58526,"long":-105.08442},{"brewery":"SoMe Brewing Company","country":"US","city":"York","lat":32.89368,"long":-109.20284},{"brewery":"Greenbush Brewing Company","country":"US","city":"Sawyer","lat":46.34651,"long":-87.38632},{"brewery":"3cross Fermentation Cooperative","country":"US","city":"Worcester","lat":42.59146,"long":-74.75043},{"brewery":"Lake Placid Craft Brewing Company","country":"US","city":"Lake Placid","lat":44.27962,"long":-73.98198},{"brewery":"Whole Foods - Post Oak","country":"US","city":"Houston","lat":37.32616,"long":-91.95599},{"brewery":"Adnams plc, Sole Bay Brewery","country":"GB","city":"Southwold","lat":52.32721,"long":1.68017},{"brewery":"Bent Water Brewing Company","country":"US","city":"Lynn","lat":40.04977,"long":-84.93969},{"brewery":"Redwood Lodge","country":"US","city":"Flint","lat":43.01253,"long":-83.68746},{"brewery":"Roaring Table Brewing Company","country":"US","city":"Lake Zurich","lat":42.19697,"long":-88.09341},{"brewery":"38 State Brewing Company","country":"US","city":"Littleton","lat":39.61332,"long":-105.01665},{"brewery":"John Harvard's Brewery & Ale House","country":"US","city":"Cambridge","lat":40.28195,"long":-100.16569},{"brewery":"2kids Brewing Company","country":"US","city":"San Diego","lat":27.76391,"long":-98.2389},{"brewery":"Dugges Ale- & Porterbryggeri AB","country":"SE","city":"Landvetter","lat":57.68665,"long":12.21169},{"brewery":"Carbondale Craft Beer","country":"US","city":"Ava","lat":36.952,"long":-92.66045},{"brewery":"Fort Smith Brewing Company","country":"US","city":"Fort Smith","lat":35.38592,"long":-94.39855},{"brewery":"Barrel of Monks Brewing","country":"US","city":"Boca Raton","lat":26.35869,"long":-80.0831},{"brewery":"Copperhead Brewery","country":"US","city":"Conroe","lat":30.31188,"long":-95.45605},{"brewery":"Cerebral Brewing","country":"US","city":"Denver","lat":39.73915,"long":-104.9847},{"brewery":"Ormond Brewing Company","country":"US","city":"Ormond Beach","lat":29.28581,"long":-81.05589},{"brewery":"LauderAle","country":"US","city":"Fort Lauderdale","lat":26.12231,"long":-80.14338},{"brewery":"Function Brewing","country":"US","city":"Bloomington","lat":34.07029,"long":-117.39588},{"brewery":"Weeping Radish Eco Farm & Brewery","country":"US","city":"Grandy","lat":42.99645,"long":-78.95504},{"brewery":"Brauerei Schlappeseppel GmbH","country":"DE","city":"Aschaffenburg","lat":49.97704,"long":9.15214},{"brewery":"Freeminer Brewery Ltd.","country":"GB","city":"Cinderford, Gloucestershire","lat":51.8244586,"long":-2.4984934},{"brewery":"Beer'd Brewing Co.","country":"US","city":"Stonington","lat":39.64004,"long":-89.19286},{"brewery":"Fat Head's Brewery & Saloon","country":"US","city":"North Olmsted","lat":41.4156,"long":-81.92347},{"brewery":"Bill's Front Porch Pub and Brewery","country":"US","city":"Wilmington","lat":39.44534,"long":-83.82854},{"brewery":"Hudson Valley Brewery","country":"US","city":"Beacon","lat":41.50482,"long":-73.96958},{"brewery":"Pilot Beer","country":"GB","city":"Edinburgh","lat":55.95206,"long":-3.19648},{"brewery":"Sixpoint Brewery","country":"US","city":"Brooklyn","lat":42.10587,"long":-84.24828},{"brewery":"Widmer Brothers Brewing Company","country":"US","city":"Portland","lat":43.76886,"long":-90.85819},{"brewery":"Bunker Brewing Co.","country":"US","city":"Portland","lat":43.76886,"long":-90.85819},{"brewery":"Barrier Brewing Company","country":"US","city":"Oceanside","lat":33.19587,"long":-117.37948},{"brewery":"Viewpoint Brewing Company","country":"US","city":"Del Mar","lat":32.95949,"long":-117.26531},{"brewery":"Brasserie Cantillon","country":"BE","city":"Brussels","lat":50.85045,"long":4.34878},{"brewery":"Skookum Brewery","country":"US","city":"Arlington","lat":44.36441,"long":-97.13312},{"brewery":"Black Oak Brewing Co.","country":"CA","city":"Etobicoke","lat":43.65421,"long":-79.56711},{"brewery":"Yampa Valley Brewing Company","country":"US","city":"Hayden","lat":40.49529,"long":-107.25729},{"brewery":"Al's of Hampden \/ Pizza Boy Brewing","country":"US","city":"Enola","lat":40.29009,"long":-76.93386},{"brewery":"TRVE Brewing Co.","country":"US","city":"Denver","lat":39.73915,"long":-104.9847},{"brewery":"The Brew Kettle Taproom & Smokehouse \/ Production Works","country":"US","city":"Strongsville","lat":41.3145,"long":-81.83569},{"brewery":"Herkimer Pub & Brewery","country":"US","city":"Minneapolis","lat":39.12194,"long":-97.7067},{"brewery":"MIA Beer Co.","country":"US","city":"Doral","lat":25.81954,"long":-80.35533},{"brewery":"Band of Bohemia","country":"US","city":"Chicago","lat":41.85003,"long":-87.65005},{"brewery":"Weird Beard Brew Co.","country":"GB","city":"London","lat":51.50853,"long":-0.12574},{"brewery":"Salty Nut Brewery","country":"US","city":"Huntsville","lat":41.26077,"long":-111.76994},{"brewery":"Black Donkey Brewing Ltd","country":"IE","city":"County Roscommon","lat":53.6982695,"long":-8.2182507613},{"brewery":"Bryggeriet Apollo","country":"DK","city":"K\u00f8benhavn","lat":55.67594,"long":12.56553},{"brewery":"Whiplash","country":"IE","city":"County Kildare","lat":53.15436455,"long":-6.8184175661},{"brewery":"Moustache Brewing Co.","country":"US","city":"Riverhead","lat":40.91704,"long":-72.66204},{"brewery":"RAR Brewing (Realerevival)","country":"US","city":"Cambridge","lat":40.28195,"long":-100.16569},{"brewery":"Hermit Thrush Brewery","country":"US","city":"Brattleboro","lat":42.85092,"long":-72.55787},{"brewery":"Cerveza Zigurat","country":"CL","city":"Santiago","lat":-33.45694,"long":-70.64827},{"brewery":"Cool Springs Brewery","country":"US","city":"Franklin","lat":42.01354,"long":-111.80717},{"brewery":"Alluvial Brewing Company","country":"US","city":"Ames","lat":42.03471,"long":-93.61994},{"brewery":"La D\u00e9marrante","country":"FR","city":"Annecy","lat":45.90878,"long":6.12565},{"brewery":"Stoudts Brewing Co.","country":"US","city":"Adamstown","lat":40.2412,"long":-76.05633},{"brewery":"Bootlegger's Brewery","country":"US","city":"Fullerton","lat":41.36335,"long":-97.96923},{"brewery":"Turtle Mountain Brewing Company","country":"US","city":"Rio Rancho","lat":35.23338,"long":-106.66447},{"brewery":"Bosque Brewing Co.","country":"US","city":"Albuquerque","lat":35.08449,"long":-106.65114},{"brewery":"BFM (Brasserie des Franches-Montagnes)","country":"CH","city":"Saignel\u00e9gier","lat":47.25619,"long":6.99648},{"brewery":"BarrelHouse Brewing Company","country":"US","city":"Paso Robles","lat":35.62664,"long":-120.691},{"brewery":"Rhinelander Brewing Company","country":"US","city":"Rhinelander","lat":45.63662,"long":-89.41208},{"brewery":"Brewery ARS","country":"US","city":"Philadelphia","lat":35.67952,"long":-84.40381},{"brewery":"Golden Bear Brewing Company","country":"NZ","city":"Mapua","lat":-41.25,"long":173.1},{"brewery":"Platform Beer Co.","country":"US","city":"Cleveland","lat":34.59704,"long":-83.76324},{"brewery":"Four Mile Brewing","country":"US","city":"Olean","lat":42.07756,"long":-78.42974},{"brewery":"Mudhook Brewing Company","country":"US","city":"York","lat":32.89368,"long":-109.20284},{"brewery":"Whitewater Brewing Co","country":"GB","city":"Castlewellan","lat":54.2569,"long":-5.94446},{"brewery":"Allg\u00e4uer Brauhaus AG","country":"DE","city":"Kempten","lat":47.72674,"long":10.31389},{"brewery":"Sky High Brewing","country":"US","city":"Corvallis","lat":46.31409,"long":-114.11287},{"brewery":"Ohana Brewing Company","country":"US","city":"Los Angeles","lat":34.05223,"long":-118.24368},{"brewery":"J Wells Brewery","country":"US","city":"Boulder","lat":40.01499,"long":-105.27055},{"brewery":"Riley's Brewing Company","country":"US","city":"Madera","lat":36.96134,"long":-120.06072},{"brewery":"Brouwerij Brasserie De Ranke","country":"BE","city":"Dottignies","lat":50.73333,"long":3.3},{"brewery":"Spangalang Brewery","country":"US","city":"Denver","lat":39.73915,"long":-104.9847},{"brewery":"Mountain Sun Pub & Brewery","country":"US","city":"Boulder","lat":40.01499,"long":-105.27055},{"brewery":"Piece Brewery & Pizzeria","country":"US","city":"Chicago","lat":41.85003,"long":-87.65005},{"brewery":"Vision Quest Brewery","country":"US","city":"Boulder","lat":40.01499,"long":-105.27055},{"brewery":"Stitch House Brewery","country":"US","city":"Wilmington","lat":39.44534,"long":-83.82854},{"brewery":"Greenpoint Beer & Ale Company","country":"US","city":"Brooklyn","lat":42.10587,"long":-84.24828},{"brewery":"Woodfour Brewing Company","country":"US","city":"Sebastopol","lat":38.40214,"long":-122.82388},{"brewery":"Kolding Bryglaug","country":"DK","city":"Kolding","lat":55.4904,"long":9.47216},{"brewery":"Medusa Brewing Company","country":"US","city":"Hudson","lat":40.07359,"long":-104.64302},{"brewery":"Big Horse Brew Pub \/ Horse Feathers & Co.","country":"US","city":"Hood River","lat":45.7054,"long":-121.52146},{"brewery":"Stevens Point Brewery","country":"US","city":"Stevens Point","lat":44.52358,"long":-89.57456},{"brewery":"Spilker Ales","country":"US","city":"Cortland","lat":42.60118,"long":-76.18048},{"brewery":"Varvar Brew","country":"UA","city":"Kiev","lat":50.45466,"long":30.5238},{"brewery":"3 Sheeps Brewing","country":"US","city":"Sheboygan","lat":43.75083,"long":-87.71453},{"brewery":"Right Brain Brewery","country":"US","city":"Traverse City","lat":44.76306,"long":-85.62063},{"brewery":"Pacific Plate Brewing Company","country":"US","city":"Monrovia","lat":39.57894,"long":-86.48222},{"brewery":"Twisted Barrel Ale","country":"GB","city":"Coventry","lat":52.40656,"long":-1.51217},{"brewery":"Absolution Brewing Company","country":"US","city":"Torrance","lat":33.83585,"long":-118.34063},{"brewery":"Old Black Bear Brewing Company","country":"US","city":"Madison","lat":44.00608,"long":-97.11395},{"brewery":"Cellarmaker Brewing Co.","country":"US","city":"San Francisco","lat":37.77493,"long":-122.41942},{"brewery":"Two Rows Restaurant & Brewery","country":"US","city":"Houston","lat":37.32616,"long":-91.95599},{"brewery":"Remnant Brewing","country":"US","city":"Somerville","lat":34.47338,"long":-86.7987},{"brewery":"Haven Gastropub","country":"US","city":"Pasadena","lat":34.14778,"long":-118.14452},{"brewery":"Ellersick Brewing Company","country":"US","city":"Lynnwood","lat":47.82093,"long":-122.31513},{"brewery":"Rye River Brewing Company","country":"IE","city":"County Kildare","lat":53.15436455,"long":-6.8184175661},{"brewery":"Big River Grille & Brewing Works","country":"US","city":"Chattanooga","lat":35.04563,"long":-85.30968},{"brewery":"Groundswell Brewing Company","country":"US","city":"San Diego","lat":27.76391,"long":-98.2389},{"brewery":"Braindead Brewing","country":"US","city":"Dallas","lat":41.33619,"long":-75.96325},{"brewery":"Franklin's Restaurant, Brewery & General Store","country":"US","city":"Hyattsville","lat":38.95594,"long":-76.94553},{"brewery":"Maxline Brewing","country":"US","city":"Fort Collins","lat":40.58526,"long":-105.08442},{"brewery":"Oy Sinebrychoff Ab","country":"FI","city":"Kerava","lat":60.40338,"long":25.105},{"brewery":"Berryessa Brewing Co","country":"US","city":"Winters","lat":31.95653,"long":-99.96231},{"brewery":"Mad Anthony Brewing Company","country":"US","city":"Fort Wayne","lat":41.1306,"long":-85.12886},{"brewery":"Keltek Brewing Company Ltd","country":"GB","city":"Redruth","lat":50.23315,"long":-5.22434},{"brewery":"Transient Artisan Ales","country":"US","city":"Bridgman","lat":41.9431,"long":-86.55697},{"brewery":"Three Weavers Brewing Company","country":"US","city":"Inglewood","lat":33.96168,"long":-118.35313},{"brewery":"Santa Fe Brewing Company","country":"US","city":"Santa Fe","lat":35.68698,"long":-105.9378},{"brewery":"Witch's Hat Brewing Co.","country":"US","city":"South Lyon","lat":42.46059,"long":-83.65161},{"brewery":"Triton Brewing Company","country":"US","city":"Indianapolis","lat":39.76838,"long":-86.15804},{"brewery":"North End Tavern & Brewery","country":"US","city":"Parkersburg","lat":42.57748,"long":-92.78686},{"brewery":"BuckleDown Brewing","country":"US","city":"Lyons","lat":40.22471,"long":-105.27138},{"brewery":"Panda Brew","country":"CN","city":"Beijing","lat":39.9075,"long":116.39723},{"brewery":"Triple Dog Brewing Co.","country":"US","city":"Havre","lat":48.55,"long":-109.68409},{"brewery":"Brouwerij Van Steenberge N.V.","country":"BE","city":"Ertvelde","lat":51.17835295,"long":3.7601413386},{"brewery":"Ragtime Taproom & Brewery","country":"US","city":"Atlantic Beach","lat":40.58899,"long":-73.72902},{"brewery":"Hoof Hearted Brewing","country":"US","city":"Marengo","lat":42.24863,"long":-88.60843},{"brewery":"The Alchemist Brewery and Visitors Center","country":"US","city":"Stowe","lat":44.46533,"long":-72.68456},{"brewery":"Brix City Brewing","country":"US","city":"Little Ferry","lat":40.85288,"long":-74.04208},{"brewery":"Sch\u00f6nbuch Brauhaus & Biergarten","country":"DE","city":"B\u00f6blingen","lat":48.68212,"long":9.01171},{"brewery":"Brasserie Artisanale La Souche","country":"CA","city":"Qu\u00e9bec","lat":46.81228,"long":-71.21454},{"brewery":"No Label Brewing Company","country":"US","city":"Katy","lat":29.78579,"long":-95.8244},{"brewery":"Pivovar Permon","country":"CZ","city":"Sokolov","lat":50.1813,"long":12.6401},{"brewery":"Duck Foot Brewing Co.","country":"US","city":"San Diego","lat":27.76391,"long":-98.2389},{"brewery":"Chardon BrewWorks","country":"US","city":"Chardon","lat":41.61422,"long":-81.14899},{"brewery":"La Barberie","country":"CA","city":"Qu\u00e9bec","lat":46.81228,"long":-71.21454},{"brewery":"Wild Duck Brewery, Restaurant And Music Hall","country":"US","city":"Eugene","lat":44.05207,"long":-123.08675},{"brewery":"Boxing Rock Brewing Co.","country":"CA","city":"Shelburne","lat":43.76325,"long":-65.32355},{"brewery":"DC Brau Brewing Co.","country":"US","city":"Washington","lat":37.13054,"long":-113.50829},{"brewery":"Homestead Beer Co.","country":"US","city":"Heath","lat":42.67342,"long":-72.82176},{"brewery":"Efes Karaganda Pivovarinniy Zavod","country":"KZ","city":"Karaganda","lat":49.80187,"long":73.10211},{"brewery":"Escollo","country":"MX","city":"Mexico City","lat":19.42847,"long":-99.12766},{"brewery":"Frenchies Bistro & Brewery","country":"AU","city":"Rosebery","lat":-41.77941,"long":145.53825},{"brewery":"Victory Brewing Company - Downingtown","country":"US","city":"Downingtown","lat":40.0065,"long":-75.70327},{"brewery":"Silver City Brewery & Taproom","country":"US","city":"Bremerton","lat":47.56732,"long":-122.63264},{"brewery":"Wiper & True Brewery","country":"GB","city":"Bristol","lat":51.45523,"long":-2.59665},{"brewery":"The Bier Brewery","country":"US","city":"Indianapolis","lat":39.76838,"long":-86.15804},{"brewery":"Brasserie Blessing","country":"FR","city":"Waldhambach","lat":48.92662,"long":7.21621},{"brewery":"Euclid Brewing Company","country":"US","city":"Euclid","lat":41.5931,"long":-81.52679},{"brewery":"Bryanskpivo","country":"RU","city":"Bryansk","lat":53.25209,"long":34.37167},{"brewery":"Ursula Brewery","country":"US","city":"Aurora","lat":39.72943,"long":-104.83192},{"brewery":"Brouwerij De Graal","country":"BE","city":"Brakel","lat":50.7979739,"long":3.762778},{"brewery":"Hudson Brewing Company","country":"US","city":"Hudson","lat":40.07359,"long":-104.64302},{"brewery":"Blind Enthusiasm Brewing Company","country":"CA","city":"Edmonton","lat":53.55014,"long":-113.46871},{"brewery":"BridgePort Brewing Co. \/ Brewpub","country":"US","city":"Portland","lat":43.76886,"long":-90.85819},{"brewery":"Bonfire Brewing Co.","country":"US","city":"Eagle","lat":39.65526,"long":-106.82865},{"brewery":"Odd Side Ales","country":"US","city":"Grand Haven","lat":43.06307,"long":-86.22839},{"brewery":"Brasserie La Saint-Pierre","country":"FR","city":"Saint-Pierre","lat":49.3009,"long":2.65642},{"brewery":"Rebel Kettle Brewing","country":"US","city":"Little Rock","lat":47.86801,"long":-95.11055},{"brewery":"Great Lakes Brewing Co.","country":"US","city":"Cleveland","lat":34.59704,"long":-83.76324},{"brewery":"Avondale Brewing Co.","country":"US","city":"Birmingham","lat":42.5467,"long":-83.21132},{"brewery":"Founders Brewing Company","country":"US","city":"Grand Rapids","lat":47.23717,"long":-93.53021},{"brewery":"Brewery Vivant","country":"US","city":"Grand Rapids","lat":47.23717,"long":-93.53021},{"brewery":"Steady Habit Brewing Company","country":"US","city":"Haddam","lat":41.45315,"long":-72.4612},{"brewery":"Mikkeller Brewing San Diego","country":"US","city":"San Diego","lat":27.76391,"long":-98.2389},{"brewery":"Ladyface Ale Companie","country":"US","city":"Agoura Hills","lat":34.13639,"long":-118.77453},{"brewery":"Sandude Brewing Co.","country":"US","city":"Turlock","lat":37.49466,"long":-120.84659},{"brewery":"Flathead Lake Brewing Company","country":"US","city":"Bigfork","lat":48.06329,"long":-114.07261},{"brewery":"Cueni Brewing Co","country":"US","city":"Dunedin","lat":28.0199,"long":-82.77323},{"brewery":"Fort George Brewery + Public House","country":"US","city":"Astoria","lat":40.22754,"long":-90.35957},{"brewery":"Brick & Mortar Brewing Company","country":"US","city":"Suffolk","lat":36.72836,"long":-76.58496},{"brewery":"Wasserhund Brewing Company","country":"US","city":"Virginia Beach","lat":36.85293,"long":-75.97799},{"brewery":"Illuminated Brew Works","country":"US","city":"Chicago","lat":41.85003,"long":-87.65005},{"brewery":"Cumberland Brews","country":"US","city":"Louisville","lat":39.97776,"long":-105.13193},{"brewery":"Farnam House Brewing Company","country":"US","city":"Omaha","lat":41.25626,"long":-95.94043},{"brewery":"House of Pendragon Brewing Company","country":"US","city":"Sanger","lat":33.36317,"long":-97.1739},{"brewery":"Granite City Food & Brewery","country":"US","city":null,"lat":null,"long":null},{"brewery":"Logboat Brewing Co.","country":"US","city":"Columbia","lat":38.03631,"long":-120.40131},{"brewery":"Brasserie Witloof","country":"BE","city":"Evere","lat":50.8720096,"long":4.4034182},{"brewery":"Cerveza Artesanal Beagle","country":"AR","city":"Ushuaia","lat":-54.81084,"long":-68.31591},{"brewery":"Buoy Beer Company","country":"US","city":"Astoria","lat":40.22754,"long":-90.35957},{"brewery":"The Unity Brew House Ltd.","country":"GB","city":"Suckley","lat":52.1611251,"long":-2.407358},{"brewery":"The Bobcat Caf\u00e9 & Brewery","country":"US","city":"Bristol","lat":36.59649,"long":-82.18847},{"brewery":"Natty Greene's Pub & Brewing Co.","country":"US","city":"Greensboro","lat":36.07264,"long":-79.79198},{"brewery":"Silver Peak Restaurant & Brewery","country":"US","city":"Reno","lat":39.52963,"long":-119.8138},{"brewery":"Traffic Jam & Snug Restaurant","country":"US","city":"Detroit","lat":42.33143,"long":-83.04575},{"brewery":"Bergenbier SA","country":"RO","city":"Baia Mare","lat":47.65729,"long":23.56808},{"brewery":"Bexar County Brewery","country":"GB","city":"Peterborough","lat":52.57364,"long":-0.24777},{"brewery":"Three Taverns Craft Brewery","country":"US","city":"Decatur","lat":36.33591,"long":-94.46077},{"brewery":"Old Rail Brewing Company","country":"US","city":"Mandeville","lat":30.35825,"long":-90.06563},{"brewery":"Barrio Brewing Company","country":"US","city":"Tucson","lat":32.22174,"long":-110.92648},{"brewery":"Ghost River Brewing","country":"US","city":"Memphis","lat":34.72478,"long":-100.53401},{"brewery":"The BottleHouse Brewing Company","country":"US","city":"Cleveland Heights","lat":41.52005,"long":-81.55624},{"brewery":"Imperial Oak Brewing","country":"US","city":"Willow Springs","lat":36.99228,"long":-91.96987},{"brewery":"WarPigs Brewpub","country":"DK","city":"K\u00f8benhavn","lat":55.67594,"long":12.56553},{"brewery":"King St Brewhouse & Restaurant","country":"AU","city":"Sydney","lat":-33.86785,"long":151.20732},{"brewery":"Highland Brewing","country":"US","city":"Asheville","lat":35.60095,"long":-82.55402},{"brewery":"Bravoras Apynys","country":"LT","city":"Kaunas","lat":54.90272,"long":23.90961},{"brewery":"Legenda S\u00f6rf\u0151zde","country":"HU","city":"Budapest","lat":47.49835,"long":19.04045},{"brewery":"Lineage Brewing","country":"US","city":"Columbus","lat":31.8276,"long":-107.64002},{"brewery":"Local Brewing Co.","country":"US","city":"San Francisco","lat":37.77493,"long":-122.41942},{"brewery":"Awesome Ales","country":"US","city":"Portland","lat":43.76886,"long":-90.85819},{"brewery":"Calistoga Inn Restaurant & Brewery","country":"US","city":"Calistoga","lat":38.5788,"long":-122.57971},{"brewery":"Ramsbury Brewery","country":"GB","city":"Axford","lat":51.1867071,"long":-1.1279951},{"brewery":"Brouwerij Smisje","country":"BE","city":"Oudenaarde","lat":50.85168,"long":3.60891},{"brewery":"Bear Chase Brewing Company","country":"US","city":"Bluemont","lat":39.1112168,"long":-77.8338839},{"brewery":"Brasserie Artisanale Millevertus De Toernich","country":"BE","city":"Toernich","lat":49.65178,"long":5.77741},{"brewery":"Interboro Spirits and Ales","country":"US","city":"Brooklyn","lat":42.10587,"long":-84.24828},{"brewery":"Bell's Brewery - Eccentric Caf\u00e9 & General Store","country":"US","city":"Kalamazoo","lat":42.29171,"long":-85.58723},{"brewery":"Big Lost Meadery and Brewery","country":"US","city":"Gillette","lat":44.29109,"long":-105.50222},{"brewery":"Poseidon Brewing Company","country":"US","city":"Ventura","lat":43.12635,"long":-93.47771},{"brewery":"Gepard Getr\u00e4nke Partnerdienst GmbH","country":"DE","city":"Goslar","lat":51.90425,"long":10.42766},{"brewery":"Brown's Brewing Company","country":"US","city":"Troy","lat":46.73684,"long":-116.7696},{"brewery":"The Fermentorium","country":"US","city":"Cedarburg","lat":43.29667,"long":-87.98759},{"brewery":"Brasseurs Sans Gluten","country":"CA","city":"Montreal","lat":45.50884,"long":-73.58781},{"brewery":"Random Row Brewing Co.","country":"US","city":"Charlottesville","lat":38.02931,"long":-78.47668},{"brewery":"WeldWerks Brewing Co.","country":"US","city":"Greeley","lat":40.42331,"long":-104.70913},{"brewery":"Badger State Brewing Company","country":"US","city":"Green Bay","lat":44.51916,"long":-88.01983},{"brewery":"Vanish Beer","country":"US","city":"Leesburg","lat":39.34506,"long":-83.55297},{"brewery":"Frankenthaler Brauhaus","country":"DE","city":"Frankemthal\/Pfalz","lat":49.4891,"long":8.46694},{"brewery":"Pizza Port Solana Beach","country":"US","city":"Solana Beach","lat":32.99115,"long":-117.27115},{"brewery":"The Hermosillo \/ Highland Park Brewery","country":"US","city":"Los Angeles","lat":34.05223,"long":-118.24368},{"brewery":"Chama River Brewing Company","country":"US","city":"Albuquerque","lat":35.08449,"long":-106.65114},{"brewery":"Marzoni's Brick Oven & Brewing Company","country":"US","city":"Duncansville","lat":40.42341,"long":-78.4339},{"brewery":"Hell's Basement","country":"CA","city":"Medicine Hat","lat":50.03928,"long":-110.67661},{"brewery":"Tahoe Mountain Brewing Co.","country":"US","city":"Tahoe City","lat":39.15023,"long":-120.1612},{"brewery":"Alefried","country":"AT","city":"Graz","lat":47.06667,"long":15.45},{"brewery":"Microbrasserie l'Hermite","country":"CA","city":"Victoriaville","lat":46.05007,"long":-71.96579},{"brewery":"The Post Brewing Co.","country":"US","city":"Lafayette","lat":39.9936,"long":-105.08971},{"brewery":"Nerdbrewing","country":"SE","city":"Malm\u00f6","lat":55.60587,"long":13.00073},{"brewery":"White Horse Brewery Company Limited","country":"GB","city":"Stanford-in-the-Vale Oxfordshire","lat":51.6379528,"long":-1.5047156},{"brewery":"James Page Brewing Company","country":"US","city":"Stevens Point","lat":44.52358,"long":-89.57456},{"brewery":"Bent Brewstillery","country":"US","city":"Roseville","lat":45.00608,"long":-93.15661},{"brewery":"Heavy Riff Brewing Company","country":"US","city":"Saint Louis","lat":43.40836,"long":-84.60667},{"brewery":"Great Waters Brewing","country":"US","city":"Saint Paul","lat":41.21473,"long":-98.45812},{"brewery":"Woodland Empire Ale Craft","country":"US","city":"Boise","lat":43.6135,"long":-116.20345},{"brewery":"Brauerei Gasthof Ankerbr\u00e4u","country":"DE","city":"Steinach","lat":50.43129,"long":11.15909},{"brewery":"Lidl Polska","country":"PL","city":"Tarnowo Podg\u00f3rne","lat":52.46642,"long":16.66326},{"brewery":"Laurelwood Public House & Brewery","country":"US","city":"Portland","lat":43.76886,"long":-90.85819},{"brewery":"Lake on the Mountain Brewery","country":"CA","city":"Picton","lat":44.00012,"long":-77.13275},{"brewery":"Triple Voodoo Brewing","country":"US","city":"San Francisco","lat":37.77493,"long":-122.41942},{"brewery":"Carton Brewing Company","country":"US","city":"Atlantic Highlands","lat":40.40789,"long":-74.03431},{"brewery":"Oregon Trail Brewery","country":"US","city":"Corvallis","lat":46.31409,"long":-114.11287},{"brewery":"BATCH","country":"CA","city":"Toronto","lat":43.70011,"long":-79.4163},{"brewery":"Vento Forte","country":"IT","city":"Bracciano (RM)","lat":42.1010951,"long":12.1738573},{"brewery":"Birra Amiata","country":"IT","city":"Arcidosso (GR)","lat":42.87162,"long":11.53599},{"brewery":"Harpoon Brewery & Beer Hall","country":"US","city":"Boston","lat":42.62895,"long":-78.73753},{"brewery":"Noble Beast Brewing Company","country":"US","city":"Cleveland","lat":34.59704,"long":-83.76324},{"brewery":"Sailfish Brewing Company","country":"US","city":"Fort Pierce","lat":27.44671,"long":-80.32561},{"brewery":"Brauerei Aldersbach","country":"DE","city":"Aldersbach","lat":48.58972,"long":13.08971},{"brewery":"BJ's Restaurant & Brewery","country":"US","city":"Tacoma","lat":47.25288,"long":-122.44429},{"brewery":"Collusion Tap Works","country":"US","city":"York","lat":32.89368,"long":-109.20284},{"brewery":"Wooden Hand Brewery","country":"GB","city":"Truro","lat":50.26526,"long":-5.05436},{"brewery":"Hanseatische Getr\u00e4nke-Industrie (HGI) Holsten-Brauerei AG","country":"DE","city":"Hamburg","lat":53.55073,"long":9.99302},{"brewery":"Lenny Boy Brewing Co.","country":"US","city":"Charlotte","lat":42.56365,"long":-84.83582},{"brewery":"Great Basin Brewing Co.","country":"US","city":"Sparks","lat":39.53491,"long":-119.75269},{"brewery":"Park & Bellheimer AG","country":"DE","city":"Bellheim","lat":49.19833,"long":8.27944},{"brewery":"Ekim Brewing Co.","country":"AU","city":"Mt Kuringai","lat":-33.86785,"long":151.20732},{"brewery":"Rare Bird Brewpub","country":"US","city":"Traverse City","lat":44.76306,"long":-85.62063},{"brewery":"Amplified Ale Works","country":"US","city":"San Diego","lat":27.76391,"long":-98.2389},{"brewery":"Behemoth Brewing Company","country":"NZ","city":"Auckland","lat":-36.84853,"long":174.76349},{"brewery":"Mahr's Br\u00e4u","country":"DE","city":"Bamberg","lat":49.89873,"long":10.90067},{"brewery":"Unruly Brewing Co.","country":"US","city":"Muskegon","lat":43.23418,"long":-86.24839},{"brewery":"Eastern Shore Brewing","country":"US","city":"Saint Michaels","lat":35.64474,"long":-109.09565},{"brewery":"BreakRoom Brewery","country":"US","city":"Chicago","lat":41.85003,"long":-87.65005},{"brewery":"Apatinska Pivara A.D.","country":"RS","city":"Apatin","lat":45.6726,"long":18.978},{"brewery":"Start Line Brewing Company","country":"US","city":"Hopkinton","lat":42.34389,"long":-91.24848},{"brewery":"SandLot Brewery @ Coors Field (Blue Moon Brewing Company)","country":"US","city":"Denver","lat":39.73915,"long":-104.9847},{"brewery":"Rivertown Brewery & Barrel House","country":"US","city":"Cincinnati","lat":39.12711,"long":-84.51439},{"brewery":"Beavertown Brewery","country":"GB","city":"London","lat":51.50853,"long":-0.12574},{"brewery":"Amos Howard's Brew Pub","country":"US","city":"Hickory","lat":40.29896,"long":-80.30867},{"brewery":"Black Diamond Brewing Co.","country":"US","city":"Concord","lat":42.17782,"long":-84.64302},{"brewery":"Erie Brewing Co.","country":"US","city":"Erie","lat":40.05026,"long":-105.04998},{"brewery":"Hophead Brewing","country":"RO","city":"Cluj Napoca","lat":46.76667,"long":23.6},{"brewery":"Confluence Brewing Company","country":"US","city":"Des Moines","lat":41.60054,"long":-93.60911},{"brewery":"Suomenlinnan Panimo Sveaborgs Bryggeri","country":"FI","city":"Helsinki","lat":60.16952,"long":24.93545},{"brewery":"Frost Beer Works","country":"US","city":"Hinesburg","lat":44.32922,"long":-73.11068},{"brewery":"Yeastie Boys","country":"NZ","city":"Wellington","lat":-41.28664,"long":174.77557},{"brewery":"Driftwood Brewery","country":"CA","city":"Victoria","lat":48.4359,"long":-123.35155},{"brewery":"Kaktus Brewing Company","country":"US","city":"Bernalillo","lat":35.30004,"long":-106.55114},{"brewery":"Arbor Ales","country":"GB","city":"Bristol","lat":51.45523,"long":-2.59665},{"brewery":"Hops Grillhouse & Brewery","country":"US","city":"Alexandria","lat":45.88524,"long":-95.37754},{"brewery":"Devil's Canyon Brewing Company","country":"US","city":"San Carlos","lat":33.34562,"long":-110.45504},{"brewery":"Stest\u00ed Brewing Company","country":"US","city":"Lovelady","lat":31.12685,"long":-95.4455},{"brewery":"Cycle Brewing","country":"US","city":"Saint Petersburg","lat":45.76943,"long":-99.61956},{"brewery":"The Schlafly Tap Room","country":"US","city":"Saint Louis","lat":43.40836,"long":-84.60667},{"brewery":"Sow & Piglet Brewery","country":"AU","city":"Port Campbell","lat":-38.61919,"long":142.99583},{"brewery":"Outer Banks Brewing Station","country":"US","city":"Kill Devil Hills","lat":36.03072,"long":-75.67601},{"brewery":"Third Colony Brewery & Winery","country":"US","city":"Manchester","lat":40.937,"long":-81.56929},{"brewery":"Stone Brewing","country":"US","city":"Escondido","lat":33.11921,"long":-117.08642},{"brewery":"Backstreet Brewery \/ Lamppost Pizza","country":"US","city":"Irvine","lat":37.70064,"long":-83.97381},{"brewery":"Crescent City Brewhouse","country":"US","city":"New Orleans","lat":29.95465,"long":-90.07507},{"brewery":"Flying Belgian Brewery","country":"US","city":"Bellmore","lat":40.66871,"long":-73.52707},{"brewery":"4204 Main Street Brewing Co.","country":"US","city":"Belleville","lat":39.82445,"long":-97.63254},{"brewery":"Klosterbrauerei Furth GmbH & Co. KG","country":"DE","city":"Furth","lat":48.59095,"long":12.02057},{"brewery":"First Magnitude Brewing Company","country":"US","city":"Gainesville","lat":34.29788,"long":-83.82407},{"brewery":"Ol' Republic Brewery","country":"US","city":"Nevada City","lat":39.26173,"long":-121.01779},{"brewery":"Matt Brewing Company \/ Saranac Brewery","country":"US","city":"Utica","lat":40.89612,"long":-97.34532},{"brewery":"Blaker Brewing","country":"US","city":"Ceres","lat":37.59493,"long":-120.95771},{"brewery":"Kretschmann Brewing Company","country":"US","city":"Webster","lat":45.33218,"long":-97.52009},{"brewery":"Jolly Pumpkin Artisan Ales","country":"US","city":"Dexter","lat":33.19733,"long":-104.37302},{"brewery":"Five Threads Brewing Company","country":"US","city":"Westlake Village","lat":34.14584,"long":-118.80565},{"brewery":"Beyond the Pale Brewing Company","country":"CA","city":"Ottawa","lat":45.41117,"long":-75.69812},{"brewery":"Kane Brewing Company","country":"US","city":"Ocean","lat":37.69206,"long":-81.624},{"brewery":"Siren Craft Brew","country":"GB","city":"Wokingham","lat":51.4112,"long":-0.83565},{"brewery":"Muskoka Brewery","country":"CA","city":"Bracebridge","lat":45.03341,"long":-79.31633},{"brewery":"Sick N Twisted Brewing Co.","country":"US","city":"Hill City","lat":43.93249,"long":-103.57519},{"brewery":"Liberty Brewing","country":"NZ","city":"Spotswood","lat":-42.7414674,"long":173.2697604},{"brewery":"Firetrucker Brewery","country":"US","city":"Ankeny","lat":41.72971,"long":-93.60577},{"brewery":"Proclamation Ale Company","country":"US","city":"Warwick","lat":42.68203,"long":-72.33897},{"brewery":"Two Roads Brewing Company","country":"US","city":"Stratford","lat":36.33614,"long":-102.07212},{"brewery":"Great River Brewery","country":"US","city":"Davenport","lat":47.65405,"long":-118.14997},{"brewery":"Holgate Brewhouse \/ Keatings Hotel","country":"AU","city":"Woodend","lat":-37.35469,"long":144.52902},{"brewery":"Battlefield Brew Works","country":"US","city":"Gettysburg","lat":45.01165,"long":-99.95567},{"brewery":"Naked Dove Brewing Company","country":"US","city":"Canandaigua","lat":42.87423,"long":-77.28804},{"brewery":"Zed's Beer \/ Bado Brewing","country":"US","city":"Marlton","lat":38.77373,"long":-76.78997},{"brewery":"Our Mutual Friend Malt & Brew","country":"US","city":"Denver","lat":39.73915,"long":-104.9847},{"brewery":"CREW Republic Brewery GmbH","country":"DE","city":"M\u00fcnchen","lat":50.82114,"long":11.93226},{"brewery":"Brodie's","country":"GB","city":"London","lat":51.50853,"long":-0.12574},{"brewery":"Sand City Brewing Co.","country":"US","city":"Northport","lat":45.13139,"long":-85.61675},{"brewery":"Cambridge Brewing Company","country":"US","city":"Cambridge","lat":40.28195,"long":-100.16569},{"brewery":"Palisade Brewing Co.","country":"US","city":"Palisade","lat":39.11026,"long":-108.35092},{"brewery":"Bluestone Brewery","country":"GB","city":"Newport","lat":53.76333,"long":-0.69986},{"brewery":"Intracoastal Brewing Company","country":"US","city":"Melbourne","lat":41.94138,"long":-93.10326},{"brewery":"Point Ybel Brewing Company","country":"US","city":"Fort Myers","lat":26.62168,"long":-81.84059},{"brewery":"Crooked Fence Brewing","country":"US","city":"Garden City","lat":41.94688,"long":-111.39354},{"brewery":"Clockwerks Brewing","country":"US","city":"Minneapolis","lat":39.12194,"long":-97.7067},{"brewery":"Ferme Brasserie Schoune","country":"CA","city":"St-Polycarpe","lat":45.3021238,"long":-74.3041891},{"brewery":"Double Bluff Brewing Company","country":"US","city":"Langley","lat":36.46397,"long":-95.04774},{"brewery":"Back East Brewing Company","country":"US","city":"Bloomfield","lat":36.71112,"long":-107.98451},{"brewery":"Adroit Theory Brewing Company","country":"US","city":"Purcellville","lat":39.13677,"long":-77.71472},{"brewery":"The Sisters Brewery","country":"NL","city":"Breukelen","lat":52.17417,"long":5.00139},{"brewery":"Microbrasserie de Tadoussac","country":"CA","city":"Tadoussac","lat":48.15001,"long":-69.71667},{"brewery":"Six Row Brewing Company","country":"US","city":"Saint Louis","lat":43.40836,"long":-84.60667},{"brewery":"Howe Sound Inn & Brewing Company","country":"CA","city":"Squamish","lat":49.69925,"long":-123.15631},{"brewery":"Evil Twin Brewing","country":"US","city":"Brooklyn","lat":42.10587,"long":-84.24828},{"brewery":"Hardywood Pilot Brewery & Taproom","country":"US","city":"Charlottesville","lat":38.02931,"long":-78.47668},{"brewery":"Brew It Up!","country":"US","city":"Davis","lat":39.12872,"long":-79.46477},{"brewery":"Sterling Pig Brewery","country":"US","city":"Media","lat":39.91678,"long":-75.38769},{"brewery":"Pigskin Brewing Company","country":"US","city":"Gahanna","lat":40.01923,"long":-82.87934},{"brewery":"C.H. Evans Brewing Company","country":"US","city":"Albany","lat":32.72345,"long":-99.2973},{"brewery":"Harbour Brewing Company","country":"GB","city":"Bodmin","lat":50.47151,"long":-4.7243},{"brewery":"Great Storm Brewing Co.","country":"US","city":"Colorado Springs","lat":38.83388,"long":-104.82136},{"brewery":"Odd13 Brewing","country":"US","city":"Lafayette","lat":39.9936,"long":-105.08971},{"brewery":"Anheuser-Busch","country":"US","city":"Saint Louis","lat":43.40836,"long":-84.60667},{"brewery":"Powderhaus Brewing Company","country":"US","city":"Garden City","lat":41.94688,"long":-111.39354},{"brewery":"Pearl Street Grill And Brewery","country":"US","city":"Buffalo","lat":44.34831,"long":-106.69894},{"brewery":"4 Noses Brewing Company","country":"US","city":"Broomfield","lat":39.92054,"long":-105.08665},{"brewery":"BOSS Browar Witnica S.A.","country":"PL","city":"Witnica","lat":52.87052,"long":14.47438},{"brewery":"Warped Wing Brewing Company","country":"US","city":"Dayton","lat":39.23714,"long":-119.59295},{"brewery":"3rd Turn Brewing","country":"US","city":"Jefferstown","lat":42.54869,"long":-75.24517},{"brewery":"Sawdust City Brewing Co.","country":"CA","city":"Gravenhurst","lat":44.91681,"long":-79.36633},{"brewery":"Brauerei H. M\u00fcller AG","country":"CH","city":"Baden","lat":47.47333,"long":8.30592},{"brewery":"Modern Times Beer","country":"US","city":"San Diego","lat":27.76391,"long":-98.2389},{"brewery":"Pyramid Breweries, Inc.","country":"US","city":"Seattle","lat":47.60621,"long":-122.33207},{"brewery":"Reptilian","country":"ES","city":"Sant Vicen\u00e7 de Calders","lat":41.1860822,"long":1.5257932},{"brewery":"Beaver Street Brewery & Whistle Stop Cafe","country":"US","city":"Flagstaff","lat":35.19807,"long":-111.65127},{"brewery":"Main and Six Brewing Company","country":"US","city":"Jacksonville","lat":42.31346,"long":-122.96699},{"brewery":"Old Dominion Brewing Company","country":"US","city":"Dover","lat":48.25159,"long":-116.61103},{"brewery":"Calapooia Brewing Company","country":"US","city":"Albany","lat":32.72345,"long":-99.2973},{"brewery":"Rey De Diamantes Cerveza Artesanal","country":"MX","city":"Puebla (Puebla)","lat":19.03793,"long":-98.20346},{"brewery":"Beau's All Natural Brewing Company","country":"CA","city":"Vankleek Hill","lat":45.5196086,"long":-74.6519669},{"brewery":"Sound Brewery","country":"US","city":"Poulsbo","lat":47.73593,"long":-122.64654},{"brewery":"Lagabi\u00e8re Brasserie Artisanale","country":"CA","city":"St-Jean-sur-Richelieu","lat":45.3056879,"long":-73.2533401},{"brewery":"Summit Station Restaurant & Brewery","country":"US","city":"Gaithersburg","lat":39.14344,"long":-77.20137},{"brewery":"Blue Mountain Brewery","country":"US","city":"Afton","lat":42.72493,"long":-110.93187},{"brewery":"Chernigivske Pivokombinat","country":"UA","city":"Kiev","lat":50.45466,"long":30.5238},{"brewery":"Winchester Brew Works","country":"US","city":"Winchester","lat":36.12997,"long":-115.11889},{"brewery":"Corcoran Brewing Company","country":"US","city":"Purcellville","lat":39.13677,"long":-77.71472},{"brewery":"Brenner Brewing Co.","country":"US","city":"Milwaukee","lat":43.0389,"long":-87.90647},{"brewery":"Cerveza Artesanal Tierra de Frontera","country":"ES","city":"Alcal\u00e1 la Real","lat":37.4614,"long":-3.92301},{"brewery":"Birreria San Gabriel","country":"IT","city":"Busco Di Ponte Di Piave (TV)","lat":45.78114,"long":12.49442},{"brewery":"Hardywood Park Craft Brewery","country":"US","city":"Richmond","lat":41.92271,"long":-111.81356},{"brewery":"Stewart Brewing Ltd","country":"GB","city":"Loanhead","lat":55.87945,"long":-3.15874},{"brewery":"Falling Down Beer Co.","country":"US","city":"Warren","lat":41.84395,"long":-79.14504},{"brewery":"Alpha Acid Brewing Co.","country":"US","city":"Belmont","lat":40.2873,"long":-78.88947},{"brewery":"Noon Whistle Brewing","country":"US","city":"Lombard","lat":41.88003,"long":-88.00784},{"brewery":"Ancient City Brewing","country":"US","city":"Saint Augustine","lat":29.89469,"long":-81.31452},{"brewery":"Broken Chair Brewery","country":"US","city":"West Reading","lat":40.3337,"long":-75.94743},{"brewery":"Third Street Brewhouse","country":"US","city":"Cold Spring","lat":45.4558,"long":-94.42888},{"brewery":"United Dutch Breweries B.V.","country":"NL","city":"Breda","lat":51.58656,"long":4.77596},{"brewery":"Bird Brewery","country":"NL","city":"Amsterdam","lat":52.37403,"long":4.88969},{"brewery":"Crooked Thumb Brewery","country":"US","city":"Safety Harbor","lat":27.99085,"long":-82.69316},{"brewery":"Browar Krajan","country":"PL","city":"Naldo","lat":52.22977,"long":21.01178},{"brewery":"Wellington County Brewery","country":"CA","city":"Guelph","lat":43.54594,"long":-80.25599},{"brewery":"The Granary","country":"US","city":"San Antonio","lat":29.42412,"long":-98.49363},{"brewery":"Bottle Logic Brewing","country":"US","city":"Anaheim","lat":33.83529,"long":-117.9145},{"brewery":"Brick & Feather Brewery","country":"US","city":"Turners Falls","lat":42.60425,"long":-72.55648},{"brewery":"DESTIHL Brewery","country":"US","city":"Normal","lat":40.5142,"long":-88.99063},{"brewery":"Quigley's Pint & Plate","country":"US","city":"Pawleys Island","lat":45.29578,"long":-108.91375},{"brewery":"Kuhnhenn Brewing Company","country":"US","city":"Warren","lat":41.84395,"long":-79.14504},{"brewery":"Skopska Pivara (Heineken)","country":"MK","city":"Skopje","lat":41.99646,"long":21.43141},{"brewery":"Ithaca Beer Company","country":"US","city":"Ithaca","lat":43.2917,"long":-84.6075},{"brewery":"Wind River Brewing Company","country":"US","city":"Pinedale","lat":42.86661,"long":-109.86099},{"brewery":"Bolero Snort Brewery","country":"US","city":"Ridgefield Park","lat":40.85704,"long":-74.02153},{"brewery":"Crooked Ladder Brewing Company","country":"US","city":"Riverhead","lat":40.91704,"long":-72.66204},{"brewery":"MacLeod Ale Brewing Company","country":"US","city":"Van Nuys","lat":34.18667,"long":-118.44897},{"brewery":"Obed & Isaac's Microbrewery & Eatery","country":"US","city":"Springfield","lat":37.40835,"long":-102.61436},{"brewery":"Martin City Brewing Company","country":"US","city":"Kansas City","lat":39.09973,"long":-94.57857},{"brewery":"Still Hill Brewery","country":"US","city":"Rocky Hill","lat":40.39983,"long":-74.63432},{"brewery":"Browar PiwoWarownia","country":"PL","city":"Krak\u00f3w","lat":50.06143,"long":19.93658},{"brewery":"Bristol Brewing Company","country":"US","city":"Colorado Springs","lat":38.83388,"long":-104.82136},{"brewery":"Hourglass Brewing","country":"US","city":"Longwood","lat":28.70305,"long":-81.3384},{"brewery":"Mad River Brewing Company","country":"US","city":"Blue Lake","lat":40.88291,"long":-123.98395},{"brewery":"Makai Brewing Company","country":"US","city":"Ocean Isle Beach","lat":33.89434,"long":-78.42667},{"brewery":"Cervejaria J\u00fapiter","country":"BR","city":"S\u00e3o Paulo - SP","lat":-22.66167,"long":-50.41222},{"brewery":"Fonta Flora Brewery","country":"US","city":"Morganton","lat":35.74541,"long":-81.68482},{"brewery":"Bare Arms Brewing","country":"US","city":"Waco","lat":33.70288,"long":-85.18328},{"brewery":"Triple J Chophouse And Brew Co","country":"US","city":"Lubbock","lat":33.57786,"long":-101.85517},{"brewery":"26 Degree Brewing Company","country":"US","city":"Pompano Beach","lat":26.23786,"long":-80.12477},{"brewery":"Corridor Brewery & Provisions","country":"US","city":"Chicago","lat":41.85003,"long":-87.65005},{"brewery":"JDub's Brewing Company","country":"US","city":"Sarasota","lat":27.33643,"long":-82.53065},{"brewery":"Shebeen Brewing Company","country":"US","city":"Wolcott","lat":40.75809,"long":-87.04168},{"brewery":"White Sails Brewing","country":"CA","city":"Nanaimo","lat":49.16638,"long":-123.94003},{"brewery":"Moskovskaya Pivovarennaya Kompaniya","country":"RU","city":"Mytishchi","lat":55.91163,"long":37.73076},{"brewery":"Coney Island Brewing Company","country":"US","city":"Brooklyn","lat":42.10587,"long":-84.24828},{"brewery":"True West Brewing Co","country":"US","city":"Acton","lat":34.46999,"long":-118.19674},{"brewery":"Schlossbrauerei Hirschau Franz Dorfner","country":"DE","city":"Hirschau","lat":49.54396,"long":11.94617},{"brewery":"Strong Rope Brewery","country":"US","city":"Brooklyn","lat":42.10587,"long":-84.24828},{"brewery":"McMenamins","country":"US","city":null,"lat":null,"long":null},{"brewery":"Legion Brewing","country":"US","city":"Charlotte","lat":42.56365,"long":-84.83582},{"brewery":"PT Bali Hai Brewery Indonesia","country":"ID","city":"Bekasi","lat":-6.2349,"long":106.9896},{"brewery":"Upright Brewing Company","country":"US","city":"Portland","lat":43.76886,"long":-90.85819},{"brewery":"Sapporo Kaitakushi Brewery Harriet","country":"JP","city":"Hokkaido Sapporo-shi","lat":42.975,"long":144.37472},{"brewery":"Heritage Brewing Co.","country":"US","city":"Manassas","lat":38.75095,"long":-77.47527},{"brewery":"Sigtuna Brygghus","country":"SE","city":"Arlandastad","lat":59.6190818,"long":17.8775237},{"brewery":"Drygate Brewery","country":"GB","city":"Glasgow","lat":55.86515,"long":-4.25763},{"brewery":"7 Seas Brewery and Taproom","country":"US","city":"Gig Harbor","lat":47.32926,"long":-122.58013},{"brewery":"Birreria Pedavena","country":"IT","city":"Pedavena (BL)","lat":46.0396242,"long":11.8804327},{"brewery":"Belhaven Brewery Company Ltd.","country":"GB","city":"Dunbar, East Lothian","lat":56.0021385,"long":-2.5158237},{"brewery":"Devil's Kettle Brewing","country":"US","city":"Athens","lat":37.42234,"long":-81.0162},{"brewery":"Birrificio Artigianale Zimella","country":"IT","city":"Bagno Di Reggio Emilia","lat":44.6497636,"long":10.746090677},{"brewery":"Mystic Brewery","country":"US","city":"Chelsea","lat":42.31807,"long":-84.02181},{"brewery":"Wolf's Ridge Brewing","country":"US","city":"Columbus","lat":31.8276,"long":-107.64002},{"brewery":"Revolver Brewing","country":"US","city":"Granbury","lat":32.44208,"long":-97.7942},{"brewery":"Hobbs Tavern & Brewing Co.","country":"US","city":"West Ossipee","lat":43.8247967,"long":-71.2047919},{"brewery":"Great South Bay Brewery","country":"US","city":"Bay Shore","lat":45.35834,"long":-85.09728},{"brewery":"Knotty Pine Brewing","country":"US","city":"Columbus","lat":31.8276,"long":-107.64002},{"brewery":"Kindred Spirit Brewing","country":"US","city":"Goochland","lat":37.68431,"long":-77.88527},{"brewery":"Brauerei G\u00f6ller Zur Alten Freyung","country":"DE","city":"Zeil Am Main","lat":50.0137529,"long":10.5948036},{"brewery":"Gweilo Beer","country":"HK","city":"Hong Kong Island","lat":22.27832,"long":114.17469},{"brewery":"Surly Brewing Company","country":"US","city":"Brooklyn Center","lat":45.07608,"long":-93.33273},{"brewery":"Celtic Knot Brewing","country":"CA","city":"Moncton","lat":46.09454,"long":-64.7965},{"brewery":"Flying Dog Brewery","country":"US","city":"Frederick","lat":40.09915,"long":-104.9372},{"brewery":"Jessup Farm Barrel House","country":"US","city":"Fort Collins","lat":40.58526,"long":-105.08442},{"brewery":"Elk Valley Brewing Co.","country":"US","city":"Oklahoma City","lat":35.46756,"long":-97.51643},{"brewery":"Red Rock Brewing Company","country":"US","city":"Salt Lake City","lat":40.76078,"long":-111.89105},{"brewery":"Thirsty Dog Brewing Company","country":"US","city":"Akron","lat":40.16054,"long":-103.21438},{"brewery":"Freetail Brewing Company","country":"US","city":"San Antonio","lat":29.42412,"long":-98.49363},{"brewery":"Crow Peak Brewing","country":"US","city":"Spearfish","lat":44.49082,"long":-103.85937},{"brewery":"Firefly Hollow Brewing Co.","country":"US","city":"Bristol","lat":36.59649,"long":-82.18847},{"brewery":"Brasserie Des L\u00e9gendes","country":"BE","city":"Irchonwelz (Ath)","lat":49.56475,"long":5.83736},{"brewery":"Roth Brewing Company","country":"US","city":"Raleigh","lat":32.03349,"long":-89.52229},{"brewery":"Hill Farmstead Brewery","country":"US","city":"Greensboro Bend","lat":36.07264,"long":-79.79198},{"brewery":"Old Ox Brewery","country":"US","city":"Ashburn","lat":41.74753,"long":-87.71116},{"brewery":"Columbus Brewing Company","country":"US","city":"Columbus","lat":31.8276,"long":-107.64002},{"brewery":"Manor Hill Brewing","country":"US","city":"Ellicott City","lat":39.26733,"long":-76.79831},{"brewery":"Forgotten Boardwalk Brewing","country":"US","city":"Cherry Hill","lat":39.93484,"long":-75.03073},{"brewery":"Boston Beer Works - Canal Street","country":"US","city":"Boston","lat":42.62895,"long":-78.73753},{"brewery":"Mother Earth Brew Co.","country":"US","city":"Vista","lat":33.20004,"long":-117.24254},{"brewery":"Frog Level Brewing Company","country":"US","city":"Waynesville","lat":35.48871,"long":-82.98875},{"brewery":"Tampa Bay Brewing Co.","country":"US","city":"Tampa","lat":27.94752,"long":-82.45843},{"brewery":"Swan On The Green, The","country":"GB","city":"West Peckham, Maidstone, Kent","lat":51.4734122,"long":-0.0699321},{"brewery":"Tr\u00f6egs Brewing Company","country":"US","city":"Hershey","lat":41.15861,"long":-101.00265},{"brewery":"Institution Ale Company","country":"US","city":"Camarillo","lat":34.21639,"long":-119.0376},{"brewery":"Hangar 24 Brewing","country":"US","city":"Redlands","lat":39.07887,"long":-108.63565},{"brewery":"American Solera","country":"US","city":"Tulsa","lat":36.15398,"long":-95.99277},{"brewery":"Bridge Road Brewers","country":"AU","city":"Beechworth","lat":-36.35828,"long":146.68584},{"brewery":"Craftpoint Brewing Co.","country":"PH","city":"Mandaluyong","lat":14.5832,"long":121.0409},{"brewery":"Galatea AB","country":"SE","city":"Stockholm","lat":59.32938,"long":18.06871},{"brewery":"Penobscot Bay Brewery","country":"US","city":"Winterport","lat":44.63785,"long":-68.84504},{"brewery":"Baere Brewing Company","country":"US","city":"Denver","lat":39.73915,"long":-104.9847},{"brewery":"Thunderhead Brewing Company","country":"US","city":"Kearney","lat":40.69946,"long":-99.08148},{"brewery":"Karben4 Brewing","country":"US","city":"Madison","lat":44.00608,"long":-97.11395},{"brewery":"Braumanufactur Alt-Bamberg","country":"DE","city":"Bamberg","lat":49.89873,"long":10.90067},{"brewery":"Deschutes Brewery","country":"US","city":"Bend","lat":44.05817,"long":-121.31531},{"brewery":"Trap Rock Restaurant & Brewery","country":"US","city":"Berkeley Heights","lat":40.68343,"long":-74.44265},{"brewery":"Naked Brewing Company","country":"US","city":"Huntingdon Valley","lat":40.1226101,"long":-75.0635049},{"brewery":"FiftyFifty Brewing Co.","country":"US","city":"Truckee","lat":39.32796,"long":-120.18325},{"brewery":"Broadhead Brewing Company","country":"CA","city":"Nepean","lat":45.33619,"long":-75.7225},{"brewery":"De Brouwerij van Vlaanderen","country":"BE","city":"Schilde","lat":51.24107,"long":4.58336},{"brewery":"Microbrasserie La Chasse-Pinte","country":"CA","city":"L'Anse-Saint-Jean","lat":48.235193,"long":-70.201263},{"brewery":"Free State Brewing Co.","country":"US","city":"Lawrence","lat":40.30618,"long":-80.12061},{"brewery":"Brauhaus Faust-Miltenberger","country":"DE","city":"Miltenberg","lat":49.70452,"long":9.26725},{"brewery":"Birrificio L'Olmaia","country":"IT","city":"S. Albino - Montepulciano (SI)","lat":43.09998,"long":11.78704},{"brewery":"Silver Moon Brewing","country":"US","city":"Bend","lat":44.05817,"long":-121.31531},{"brewery":"Bi\u00e8re Ribella","country":"FR","city":"Patrimonio","lat":42.6978,"long":9.3626},{"brewery":"Lucky Bucket Brewing Co.","country":"US","city":"La Vista","lat":41.18389,"long":-96.03113},{"brewery":"Pivovar N\u00e1chod a.s.","country":"CZ","city":"N\u00e1chod","lat":50.4167,"long":16.16289},{"brewery":"Damm S. A.","country":"ES","city":"Barcelona","lat":41.38879,"long":2.15899},{"brewery":"SquareHead Brewing Company","country":"US","city":"Holbrook","lat":34.90225,"long":-110.15818},{"brewery":"\u00c6gir Bryggeri","country":"NO","city":"Fl\u00e5m","lat":60.861781,"long":7.1102767},{"brewery":"Side Project Brewing","country":"US","city":"Maplewood","lat":44.95302,"long":-92.99522},{"brewery":"Willimantic Brewing Co.","country":"US","city":"Willimantic","lat":41.71065,"long":-72.20813},{"brewery":"The Intrepid Sojourner Beer Project","country":"US","city":"Denver","lat":39.73915,"long":-104.9847},{"brewery":"\u0160irv\u0117nos Bravoras","country":"LT","city":"Panev\u0117\u017eys","lat":55.73333,"long":24.35},{"brewery":"Veracious Brewing Company","country":"US","city":"Monroe","lat":38.62997,"long":-112.12076},{"brewery":"Thunderhawk Alements","country":"US","city":"San Diego","lat":27.76391,"long":-98.2389},{"brewery":"Brewster's Brewing Co Ltd","country":"GB","city":"Grantham","lat":52.91149,"long":-0.64184},{"brewery":"Minocqua Brewing Company","country":"US","city":"Minocqua","lat":45.871342,"long":-89.710981},{"brewery":"Oshlag Brasserie & Distillerie","country":"CA","city":"Montreal","lat":45.50884,"long":-73.58781},{"brewery":"Meantime Brewing Company Limited","country":"GB","city":"London","lat":51.50853,"long":-0.12574},{"brewery":"Fine Creek Brewing Company","country":"US","city":"Powhatan","lat":37.54209,"long":-77.91889},{"brewery":"The People's Pint","country":"US","city":"Greenfield","lat":41.30527,"long":-94.46135},{"brewery":"Pang Pang Brewery","country":"SE","city":"Stockholm","lat":59.32938,"long":18.06871},{"brewery":"Staten Island Beer Company","country":"US","city":"Staten Island","lat":40.56233,"long":-74.13986},{"brewery":"The Dodging Duck Brewhaus","country":"US","city":"Boerne","lat":29.79466,"long":-98.73197},{"brewery":"Warsteiner Brauerei","country":"DE","city":"Warstein","lat":51.44488,"long":8.34851},{"brewery":"Allentown Brew Works","country":"US","city":"Allentown","lat":40.60843,"long":-75.49018},{"brewery":"Wartega","country":"US","city":"Brooklyn","lat":42.10587,"long":-84.24828},{"brewery":"Fegley's Bethlehem Brew Works","country":"US","city":"Bethlehem","lat":44.28034,"long":-71.68814},{"brewery":"Bellwoods Brewery","country":"CA","city":"Toronto","lat":43.70011,"long":-79.4163},{"brewery":"Hop Art Brewery","country":"GB","city":"Alton","lat":51.14931,"long":-0.97469},{"brewery":"Brasserie La Binchoise (Malterie des Remparts)","country":"BE","city":"Binche","lat":50.41155,"long":4.16469},{"brewery":"St. Peter's Brewery Co Ltd","country":"GB","city":"Bungay, Suffolk","lat":52.4562248,"long":1.4373413},{"brewery":"Kickstand Brewing Company","country":"US","city":"Commerce Township","lat":42.56945925,"long":-83.4996828422},{"brewery":"Hoppin' Frog Brewery","country":"US","city":"Akron","lat":40.16054,"long":-103.21438},{"brewery":"Brew Gentlemen","country":"US","city":"Braddock","lat":40.4034,"long":-79.86838},{"brewery":"Caldera Brewing Company","country":"US","city":"Ashland","lat":45.59444,"long":-106.27085},{"brewery":"Ellicottville Brewing Co.","country":"US","city":"Ellicottville","lat":42.2750639,"long":-78.6728071},{"brewery":"Twin Leaf Brewery","country":"US","city":"Asheville","lat":35.60095,"long":-82.55402},{"brewery":"Menace Brewing","country":"US","city":"Bellingham","lat":42.08676,"long":-71.47451},{"brewery":"Swiftwater Brewing Company","country":"US","city":"Rochester","lat":44.02163,"long":-92.4699},{"brewery":"Brauerei Westheim GmbH","country":"DE","city":"Marsberg-Westheim","lat":51.5028739,"long":8.9197339026},{"brewery":"Barnshed Brewing","country":"US","city":"Hicksville","lat":41.29311,"long":-84.7619},{"brewery":"Lao Brewery Co.","country":"LA","city":"Vientiane","lat":17.96667,"long":102.6},{"brewery":"River's Edge Brewing Co","country":"US","city":"Milford","lat":38.39691,"long":-113.01079},{"brewery":"Crooked Tongue Brewing","country":"US","city":"Edinburg","lat":43.22174,"long":-74.10402},{"brewery":"Aeronaut Brewing Company","country":"US","city":"Somerville","lat":34.47338,"long":-86.7987},{"brewery":"Aleman Brewing Company","country":"US","city":"Chicago","lat":41.85003,"long":-87.65005},{"brewery":"Atlanta Brewing Company","country":"US","city":"Atlanta","lat":33.749,"long":-84.38798},{"brewery":"Wolf Creek Brewing","country":"US","city":"Valencia","lat":34.7995,"long":-106.7003},{"brewery":"Uncle Bear's Brewery","country":"US","city":"Phoenix","lat":42.27541,"long":-122.81809},{"brewery":"Torc Brewing Company","country":"IE","city":"County Kerry","lat":52.14533445,"long":-9.5174010928},{"brewery":"Beer On Earth","country":"US","city":"North Kingstown","lat":41.5501,"long":-71.46617},{"brewery":"Brasserie D'Esgar","country":"FR","city":"Pontaix","lat":44.7506476,"long":5.2640338},{"brewery":"Sly Fox Brewing Company","country":"US","city":"Phoenixville","lat":40.13038,"long":-75.51491},{"brewery":"Brauerei Wilhelm Krieger KG","country":"DE","city":"Landau","lat":49.19844,"long":8.11692},{"brewery":"Rip Current Brewing","country":"US","city":"San Marcos","lat":29.88327,"long":-97.94139},{"brewery":"St. Austell Brewery","country":"GB","city":"St. Austell, Cornwall","lat":50.338466,"long":-4.7882104},{"brewery":"CottonPort Brewing","country":"US","city":"Sterlington","lat":32.69625,"long":-92.08597},{"brewery":"Iowa Brewing Company","country":"US","city":"Cedar Rapids","lat":42.00833,"long":-91.64407},{"brewery":"Casey Brewing & Blending","country":"US","city":"Glenwood Springs","lat":39.55054,"long":-107.32478},{"brewery":"Outliers Brewing Company","country":"US","city":"Indianapolis","lat":39.76838,"long":-86.15804},{"brewery":"Sloop Brewing","country":"US","city":"Elizaville","lat":40.1267054,"long":-86.3758316},