Country,City,lat,long
BE,Erpe-Mere,50.936040000000006,4.0355
US,Thousand Palms,33.82002,-116.39029
US,Plant City,28.01888,-82.11469
US,Oklahoma City,35.46756,-97.51643
GB,Brighton,50.828379999999996,-0.13947
US,Seattle,47.60621,-122.33207
AU,Mona Vale,-33.67757,151.30307
IT,Riccione (RN),43.99942,12.656889999999999
GB,Belfast,54.596819999999994,-5.92541
US,Destin,30.39353,-86.49578000000001
US,Dallas,41.33619,-75.96325
US,Alexandria,45.88524,-95.37754
GB,Letchworth Garden City ,51.97938,-0.22664
CA,Rimouski,48.44879,-68.52396
US,Enfield,43.64063,-72.14398
GR,Thessaloniki,40.643609999999995,22.93086
FR,Saint-Privé,47.68333,3.0
US,Newnan,33.38067,-84.79966
US,Westport,39.17589,-85.57303
US,Chicago,41.85003,-87.65005
US,Utica,40.89612,-97.34532
AT,Schwanenstadt,48.05537,13.77505
ES,Palma,39.569390000000006,2.65024
US,Amityville,40.67899,-73.41707
US,Santa Cruz,36.97412,-122.0308
US,Smyrna,33.883990000000004,-84.51438
US,Bowling Green,39.34199,-91.19514000000001
US,Framingham,42.27926,-71.41617
US,Minneapolis,39.12194,-97.7067
BE,Liège,50.63373,5.56749
RU,St. Petersburg,60.19968000000001,29.701829999999998
US,Phoenix,42.27541,-122.81808999999998
US,Fort Lauderdale,26.12231,-80.14338000000001
US,Boulder,40.014990000000004,-105.27055
US,Cranford,40.65844,-74.29959000000001
GB,Stroud,51.75,-2.2
US,Brooklyn,42.10587,-84.24828000000001
SE,Göteborg,57.707159999999995,11.96679
US,Baton Rouge,30.44332,-91.18746999999999
US,Whitsett,36.07125,-79.56447
US,Asheville,35.60095,-82.55402
RU,Moskovskaya oblast,45.2842,41.9103
US,Canoga Park,34.20112,-118.59813999999999
US,Washington,37.13054,-113.50828999999999
US,Worthington,43.61996,-95.5964
CA,Arnprior,45.433409999999995,-76.34939
GB,Henley on Thames,51.53333,-0.9
US,Fort Myers,26.621679999999998,-81.84059
US,Chattanooga,35.045629999999996,-85.30968
NL,Duivendrecht,52.329409999999996,4.93964
US,Everett,40.01147,-78.37335
US,Skowhegan,44.76506,-69.71921999999999
US,Peoria,33.5806,-112.23738
IT,Roma,41.98822,13.06799
US,Albuquerque,35.08449,-106.65113999999998
US,Woodbury,44.92386,-92.95938000000001
US,Austin,41.63118,-78.09139
US,Little Ferry,40.85288,-74.04208
UZ,Geofizika,41.26465,69.21627
GB,Moulin,51.4577,-0.20784
US,Navarro,40.686209999999996,-75.49685
US,Pittsburgh,40.44062,-79.99589
US,Troy,46.73684,-116.7696
US,Huntsville,41.26077,-111.76993999999999
US,Magnolia,40.65117,-81.29899999999999
US,Fall City,47.56732,-121.88873000000001
US,Abingdon,36.70983,-81.97735
US,Roanoke,37.27097,-79.94143000000001
US,Bloomington,34.07029,-117.39588
CO,Bogota,4.60971,-74.08175
US,Angier,35.5071,-78.73918
JP,Osaka-fu Osaka-shi,34.693740000000005,135.50218
US,Clinton,41.13967,-112.0505
US,Garden City,41.94688,-111.39353999999999
US,Woodstock,34.101490000000005,-84.51938
FR,Algans,43.60426,1.44367
US,Kerrville,30.04743,-99.14031999999999
US,Miami Beach,25.79065,-80.13005
US,Atlanta,33.749,-84.38798
PL,Kraków,50.06143,19.93658
US,Temecula,33.49364,-117.14836000000001
CZ,Praha,50.08804,14.420760000000001
DE,Torgau,51.560159999999996,12.99617
US,Sleepy Eye,44.29718,-94.72415
US,Charlottesville,38.029309999999995,-78.47668
US,Bensalem,40.72593,-73.51429
US,Somerset,40.00841,-79.07808
DE,Löf - Mosel,47.88405,8.34384
FR,Paris,48.85341,2.3488
US,Chippewa Falls,44.93691,-91.39293
GB,Chesterfield,53.25,-1.41667
GB,Edinburgh,55.952059999999996,-3.1964799999999998
US,Winchester,36.12997,-115.11889
GB,Swindon,51.923629999999996,-2.09839
US,Moses Lake,47.130140000000004,-119.27808
US,Indianapolis,39.76838,-86.15804
US,Roberts,43.72019,-112.12636
CA,Montreal,45.50884,-73.58781
US,Hummelstown,40.265370000000004,-76.7083
US,Hamburg,44.7333,-93.96719
US,Effingham,39.522220000000004,-95.40080999999999
US,Englewood,39.64777,-104.98776000000001
US,Philadelphia,35.679520000000004,-84.40381
US,Haddam,41.45315,-72.4612
US,Wooster,40.805170000000004,-81.93646
US,Alpharetta,34.075379999999996,-84.29409
US,Madison,44.00608,-97.11395
GB,Bury,53.6,-2.3
US,Hanover,39.89389,-96.87947
GR,Glyfáda,37.86289,23.758020000000002
US,Bluefield,37.26984,-81.22232
US,Kailua Kona,19.64016,-155.99912
US,Pearl City,42.2653,-89.82595
US,Travelers Rest,34.967620000000004,-82.44345
US,Billings,45.78329,-108.50068999999999
GB,Leeds,53.79648,-1.54785
US,Newton,41.8627,-111.99078
US,Peconic,41.04788,-72.46314
US,Wind Lake,42.82946,-88.1587
US,Chesapeake Beach,38.68623,-76.53468000000001
US,Cheswick,40.54173,-79.79921999999999
US,Memphis,34.724779999999996,-100.53401
US,Stony Brook,40.92565,-73.14094
PT,Oporto,41.149609999999996,-8.61099
US,Coralville,41.6764,-91.58045
DE,Neu-Ulm,48.392790000000005,10.01112
US,Gainesville,34.29788,-83.82406999999999
CA,Penticton,49.48062,-119.58583999999999
US,Tucson,32.221740000000004,-110.92648
US,Portland,43.76886,-90.85819000000001
CA,Trois-Rivières,46.34515,-72.5477
NL,Nijmegen,51.8425,5.85278
GB,Halifax,53.71666999999999,-1.85
US,Poughkeepsie,41.70037,-73.92097
US,Milwaukee,43.0389,-87.90647
US,Amherst,34.01037,-102.41546
US,Grand Forks,47.925259999999994,-97.03285
US,Wilmington,39.44534,-83.82854
US,Mastic,40.802040000000005,-72.84094
RU,Нижний Тагил (Nizhniy Tagil),57.91944,59.965
US,Garfield,47.00795,-117.14101000000001
DE,München,50.82114,11.932260000000001
DE,Ehingen,49.0868,10.5407
US,Spokane,47.659659999999995,-117.42908
US,Bernardsville,40.718709999999994,-74.56931999999999
DK,Vejle,55.70927,9.5357
US,Sacramento,38.58157,-121.4944
US,Fayetteville,38.052890000000005,-81.10399
US,Greenwood,40.5359,-78.35750999999999
US,Wichita,37.692240000000005,-97.33754
US,Williamsville,42.96395,-78.73781
US,Broad Run,40.86807,-97.59200000000001
AU,Wilyabrup,-32.49597,137.77281000000002
US,Woburn,42.47926,-71.15228
US,Orange,41.44978,-81.48066999999999
US,Saint Louis,43.408359999999995,-84.60667
US,Boston,42.62895,-78.73753
US,Carlsbad,32.42067,-104.22884
DE,Bad Kreuznach,49.8414,7.86713
US,Houston,37.326159999999994,-91.95599
US,Tarzana,34.05223,-118.24368
GB,Ilkley,53.924490000000006,-1.8232599999999999
US,Baltimore,39.84534,-82.60072
AU,Perth,-31.952240000000003,115.8614
US,Albany,32.72345,-99.2973
GB,Hertfordshire,52.048320000000004,-0.024380000000000002
TW,Taipei,25.04776,121.53185
US,Naples,40.42691,-109.4993
US,Richmond,41.922709999999995,-111.81356000000001
US,Lancaster,34.69804,-118.13673999999999
AR,Neuquén,-38.951609999999995,-68.0591
NZ,Auckland,-36.84853,174.76349
US,Gorham,42.79896,-77.13164
GB,Surrey,51.43173,-0.45761
CH,Rolle,46.4582,6.33499
US,Lehighton,40.8337,-75.7138
BR,São Paulo - SP,-22.66167,-50.41222
US,Apex,35.73265,-78.85029
US,Ypsilanti,42.24115,-83.61299
US,Lake Wylie,35.10848,-81.04285
US,Charleston,35.2873,-84.75827
US,Oxford,40.24834,-99.63344000000001
IT,Valsamoggia (BO),37.9712,13.456270000000002
AU,Mt Tamborine,-27.883329999999997,153.13333
GB,Bradford,53.79391,-1.75206
US,Belmont,40.2873,-78.88946999999999
GB,Gloucester,51.86568,-2.2431
US,Redlands,39.07887,-108.63565
US,Brick,41.31978,-81.62679
DE,Bamberg,49.89873,10.90067
CA,Saint-Alexis-des-Monts,46.56675,-72.74913000000001
DK,Værløse,55.782509999999995,12.36856
US,Raleigh,32.03349,-89.52229
US,New Cumberland,40.49673,-80.60674
GB,Cheltenham,51.900059999999996,-2.07972
US,Falmouth,38.67674,-84.33021
MX,Mexicali (Baja California),32.62781,-115.45446000000001
AU,Canberra,-35.28346,149.12807
US,Lynnwood,47.82093,-122.31513000000001
DE,Zwiesel,49.01693,13.23765
US,North Platte,41.12389,-100.76541999999999
US,Newcastle,43.8547,-104.20494000000001
US,San Diego,27.76391,-98.2389
US,New York,40.86807,-97.59200000000001
US,Natick,42.283429999999996,-71.3495
BE,Tourpes,50.57332,3.65089
US,McAllen,26.20341,-98.23001
US,Martinez,33.51736,-82.07567
US,Lake Forest,42.25863,-87.84063
GB,Wakefield,53.68331,-1.49768
AR,Buenos Aires,-34.61315,-58.377230000000004
SE,Stockholm,59.32938000000001,18.06871
US,Salem,40.05301,-111.67353999999999
US,New Glarus,42.81445,-89.63512
US,Rochester,44.02163,-92.4699
US,Metairie,29.984090000000002,-90.15285
US,Cottonwood,39.562490000000004,-104.80192
US,Mars,40.6959,-80.01173
US,Cincinnati,39.127109999999995,-84.51439
US,Faribault,44.294959999999996,-93.26883000000001
GR,Rodopoli,38.116690000000006,23.87572
DE,Warstein,51.44488,8.348510000000001
US,Los Angeles,34.05223,-118.24368
US,Fort Mitchell,39.0595,-84.54744000000001
US,Block Island,41.17233,-71.55783000000001
GB,London,51.50853,-0.12574000000000002
US,North Bennington,42.93036,-73.24261
US,Northampton,40.686209999999996,-75.49685
US,Danville,40.447559999999996,-82.26016
GB,Mansfield,53.13333000000001,-1.2
US,Rock Hill,41.62593,-74.59766
US,Pearl Harbor,21.30694,-157.85833
US,Conroe,30.31188,-95.45605
US,Cordele,31.96351,-83.78239
US,Chesterland,41.52227,-81.33789
US,Ipswich,45.44442,-99.02928
US,Virginia Beach,36.85293,-75.97799
US,Jamison,32.95985,-86.74665
VN,Hanoi,21.0245,105.84116999999999
PT,Aveiro,40.64427,-8.645539999999999
US,Janesville,40.29656,-120.52411000000001
US,Livermore,37.68187,-121.76801
US,Allentown,40.60843,-75.49018000000001
US,Darien,42.60168,-88.7076
US,San Francisco,37.77493,-122.41942
US,Lakewood,39.70471,-105.08136999999999
US,Saint Paul,41.214729999999996,-98.45812
US,Carrboro,35.910140000000006,-79.07529
US,Saint Marys,41.42784,-78.56085999999999
US,Glasgow,48.19696,-106.63671000000001
GB,Cwmbran,51.65446,-3.0228099999999998
CA,Guelph,43.54594,-80.25599
CA,Regina,50.45008,-104.6178
US,Hamilton,46.24687,-114.16037
US,Boothbay Harbor,43.8523,-69.6281
GR,Volos,39.36103,22.94248
CZ,Brno,49.19522,16.607960000000002
BR,Jacarei - SP,-23.30528,-45.96583
US,Royersford,40.18427,-75.53796
FI,Sykäräinen,63.9,24.5
US,Palatine,42.1103,-88.03424
US,Menomonee Falls,43.1789,-88.11731
CA,Vancouver,49.24966,-123.11934
US,Commack,40.84288,-73.29289
CA,St. John's,47.56494,-52.709309999999995
US,Durango,37.27528,-107.88006999999999
US,West Lafayette,40.27535,-81.75095999999999
US,Peckville,41.40916,-75.6649
US,Bernalillo,35.30004,-106.55113999999999
GB,Manchester,53.48095,-2.23743
US,Dundee,42.5234,-76.97663
ES,León,42.60003,-5.57032
US,City of Industry,34.05223,-118.24368
US,Grosse Pointe Park,42.37587,-82.93741999999999
EE,Narva,59.377219999999994,28.190279999999998
US,Palmyra,40.70445,-96.38750999999999
US,Huntington Beach,33.6603,-117.99923000000001
US,Fort Wayne,41.1306,-85.12886
US,Saint Petersburg,45.76943,-99.61955999999999
US,Santa Monica,34.01945,-118.49118999999999
US,Louisville,39.977759999999996,-105.13193000000001
US,Yermo,34.53611,-117.29116
SE,Nässjö,57.65306999999999,14.696760000000001
PR,Guaynabo,18.35745,-66.111
US,Flemington,41.126459999999994,-77.47165
GB,Stockport,53.40979,-2.15761
US,Hartford,43.62303,-96.94255
FR,Pau,43.311170000000004,-0.35583000000000004
US,Hooksett,43.09675,-71.46507
US,Studio City,34.14862,-118.39647
ES,Castrillo del Val,42.314009999999996,-3.58501
US,Middleton,43.70683,-116.62013999999999
US,Buffalo,44.34831,-106.69894
US,Roseburg,43.2165,-123.34173999999999
DE,Kelheim,48.91725,11.88618
US,Middletown,38.7524,-122.61498999999999
GB,Wetherby,53.92836,-1.3867200000000002
IT,Pretoro,42.219229999999996,14.142479999999999
US,Ocean City,30.441029999999998,-86.61355999999999
US,Tulsa,36.15398,-95.99277
US,Sandusky,43.4203,-82.82966
US,Tacoma,47.25288,-122.44429
US,Sturgeon Bay,44.83416,-87.37704000000001
US,Marlton,38.77373,-76.78997
GB,Rotherham,53.430119999999995,-1.3567799999999999
NL,Wassenaar,52.14583,4.40278
UA,Lviv,49.83826,24.023239999999998
US,Augusta,37.686679999999996,-96.9767
GB,South Stoke,52.85,-2.53333
IM,Jurby,54.35941,-4.52199
US,Denver,39.73915,-104.9847
CA,Valemount,53.9166,-122.75301
US,Franklin Square,40.70732,-73.67596
US,Queens,40.681490000000004,-73.83652
SM,San Marino,43.93667,12.44639
US,Davis,39.12872,-79.46477
US,New Milford,41.87258,-75.72713
US,Forest Lake,45.278859999999995,-92.98522
US,Waitsfield,41.5845,-84.60551
US,Santa Fe,35.68698,-105.9378
GB,Denbigh,53.183330000000005,-3.41667
US,San Jose,36.039190000000005,-106.09808000000001
IT,Roncole Verdi Di Busseto (PR),44.9794,10.04331
US,Salt Lake City,40.76078,-111.89105
MX,Tuxtla Gutiérrez,16.759729999999998,-93.11308000000001
CH,Einsiedeln,47.12849,8.74735
US,Lansdale,40.2415,-75.28379
US,Carmel,39.97837,-86.11804000000001
US,West Burke,36.79034,-85.37052
US,Levittown,40.72593,-73.51429
ES,Sant Antony De Portmany,38.98068,1.30362
US,Coral Gables,25.72149,-80.26838000000001
US,Franklin Park,40.5834,-80.08784
US,Muncie,40.19338,-85.38636
US,Vancouver,45.638729999999995,-122.66148999999999
BR,Rio De Janeiro - RJ,-22.90642,-43.18223
US,Tempe,33.414770000000004,-111.90931
GB,Oxford,51.75222,-1.25596
US,Mariposa,37.48494,-119.96628
US,Warner Robins,32.61574,-83.62664000000001
DE,Herrnsdorf,49.81667,10.86667
US,Kauneonga Lake,34.66284,-106.77642
US,North Chesterfield,42.39175,-72.83981999999999
DE,Penzberg,47.75293,11.377
US,Fredericksburg,30.2752,-98.87198000000001
US,Clayton,36.45169,-103.1841
US,Pottstown,40.24537,-75.64963
US,Cambridge,40.28195,-100.16569
JP,Nagano-ken Suwa-shi,34.65,133.93333
US,Valparaiso,41.08139,-96.83169000000001
US,Jersey City,40.728159999999995,-74.07764
US,Crystal,45.032740000000004,-93.36023
US,Bath,42.33702,-77.31775999999999
US,Gold Beach,42.40733,-124.42177
US,Franklin,42.01354,-111.80717
CL,Santiago,-33.45694,-70.64827
US,Harleysville,40.27955,-75.38712
US,Clearwater,37.5028,-97.50449
US,Escondido,33.119209999999995,-117.08641999999999
US,New Haven,41.0706,-85.01441
US,Martinsville,36.69153,-79.87254
US,Estes Park,40.37721,-105.52167
US,Fairfield,43.34657,-114.79173
US,Blairsville,34.8762,-83.95824
US,Kenosha,42.584740000000004,-87.82119
US,Chesterfield,42.39175,-72.83981999999999
US,Fort Collins,40.58526,-105.08442
US,Toledo,41.99555,-92.57686
US,East Moline,41.50087,-90.4443
US,Liberty,41.33355,-111.86355
US,Beaverton,43.88225,-84.48473
US,Columbus,31.8276,-107.64001999999999
US,Friendswood,29.5294,-95.20104
BZ,San Pedro,17.915979999999998,-87.9659
BR,Nova Lima - MG,-19.98556,-43.84667
CA,Edmonton,53.55014,-113.46871000000002
US,Greensboro,36.07264,-79.79198000000001
US,Albert Lea,43.64801,-93.36827
US,Kissimmee,28.304679999999998,-81.41667
GB,Essex,51.687,-0.00421
US,Mount Laurel,39.934,-74.891
US,Southgate,39.071999999999996,-84.47272
US,Grand Rapids,47.23717,-93.53021
US,Springfield,37.40835,-102.61435999999999
NL,Den Haag,52.07667,4.29861
US,Vero Beach,27.638640000000002,-80.39726999999999
US,McKinleyville,40.94652,-124.10061999999999
US,Santa Rosa Beach,34.93867,-104.68249
US,Hillsboro,38.35196,-97.20447
US,Potsdam,44.669779999999996,-74.98131
US,Freeport,45.66274,-94.69001
AL,Tiranë,41.3275,19.81889
US,Voorhees,40.48122,-74.48321
US,Wallingford,43.471920000000004,-72.97823000000001
US,Mandeville,30.35825,-90.06563
US,New Braunfels,29.703000000000003,-98.12445
US,San Rafael,35.11254,-107.88256000000001
US,Chantilly,38.89428,-77.4311
US,Yukon,35.50672,-97.76254
US,Spartanburg,34.94957,-81.93205
US,Las Vegas,35.59393,-105.2239
US,Rockledge,40.08122,-75.08962
MX,Cuernavaca,18.9261,-99.23075
US,Warrenton,38.811440000000005,-91.14154
SK,Roznava,48.660090000000004,20.53758
US,Brooklyn Park,45.09413,-93.35634
US,Roselle Park,40.66455,-74.26431
US,Waxahachie,32.38653,-96.84833
IE,County Clare,52.84361,-8.98639
AR,Barrio Norte,-34.5627,-58.458290000000005
US,Farmingdale,40.1965,-74.16848
US,Great Falls,47.500240000000005,-111.30081000000001
GB,"Fowey, Cornwall",50.20861,-5.4875
GB,Wimborne,50.78333,-1.98333
US,Onalaska,43.884409999999995,-91.23514
US,Tooele,40.53078,-112.29828
US,Covina,34.09001,-117.89034
US,Greensburg,37.6028,-99.29261
US,New Buffalo,41.793929999999996,-86.74391999999999
US,McMinnville,35.6834,-85.76998
US,Visalia,36.33023,-119.29206
US,Yarmouth,43.80064,-70.18672
CA,Quilchena,50.66648,-120.3192
US,Lincoln City,44.95816,-124.01789
US,Manhattan,45.8566,-111.33246000000001
US,Akron,40.160540000000005,-103.21438
PT,Braga,41.55032,-8.42005
DE,Koln,49.046640000000004,12.86121
AT,Wien,48.208490000000005,16.37208
US,New Orleans,29.95465,-90.07507
US,Gloucester,42.61405,-70.66313000000001
US,Steilacoom,47.16982,-122.60263
US,Long Beach,41.738929999999996,-86.85696999999999
ES,Santa Cruz de la Zarza,39.98104,-3.18787
NL,Roermond,51.19417,5.9875
US,Gulf Breeze,30.35714,-87.16386
CN,Xiamen,24.479789999999998,118.08187
US,Arlington Heights,42.088359999999994,-87.98063
KY,Grand Cayman,19.2866,-81.37436
US,Brookline Village,42.734809999999996,-71.65813
GB,North Shields,55.016459999999995,-1.44925
US,Paxinos,34.05223,-118.24368
US,Woodbridge,41.3526,-73.00844000000001
PW,Koror,7.33978,134.47326
US,Hollister,36.62117,-93.21546
US,Encinitas,33.03699,-117.29198000000001
US,Salisbury,39.75286,-79.08086
US,Boca Raton,26.358690000000003,-80.0831
CN,Shanghai,31.22222,121.45806
US,Lawton,42.4786,-96.18391
US,Cuyahoga Falls,41.13394,-81.48456
US,Hattiesburg,31.32712,-89.29034
US,Black Mountain,35.6179,-82.32123
US,Tavares,28.804159999999996,-81.72563000000001
PT,Lisboa,38.71667,-9.13333
VN,Ninh Bình,20.25809,105.97965
NO,Bergen,60.392990000000005,5.32415
US,Edgewater,39.753040000000006,-105.06415
US,Hailey,43.51963,-114.31532
US,Fort Smith,35.38592,-94.39855
IT,nan
RO,Oradea,47.0458,21.918329999999997
US,Saint Charles,43.969409999999996,-92.06433
DE,Essing,48.934670000000004,11.789719999999999
US,Doral,25.81954,-80.35533000000001
US,Santa Clara,32.77952,-108.15032
US,Norfolk,42.02834,-97.417
US,Bayfield,37.225559999999994,-107.59811
US,Manitowoc,44.088609999999996,-87.65758000000001
US,La Crosse,38.5314,-99.30872
MX,Tijuana (Baja California),32.5027,-117.00371000000001
US,Weed,41.42265,-122.38613000000001
US,Lexington,40.780840000000005,-99.7415
US,Mankato,39.78723,-98.21005
US,Clemson,34.683440000000004,-82.83736999999999
US,Omaha,41.25626,-95.94043
DE,Salzweg,48.61667,13.483329999999999
NO,Kristiansand,58.14671,7.9956
US,Seaford,38.64123,-75.61104
US,Huber Heights,39.84395,-84.12465999999999
US,Winnetka,42.10808,-87.7359
BE,Jupille-sur-Meuse,50.66774,5.659590000000001
US,Corvallis,46.31409,-114.11287
US,Cazenovia,42.93007,-75.85269
RU,Moscow,55.752219999999994,37.615559999999995
US,West Des Moines,41.57721,-93.71133
FR,Clamecy,47.46017,3.5194
US,Keller,32.93457,-97.25168000000001
US,Canton,35.53288,-82.83736
NL,Groede,51.37833,3.50694
GB,Arundel,50.85423,-0.55393
US,Lake Elsinore,33.668079999999996,-117.32726000000001
US,Spokane Valley,47.67323,-117.23937
US,Sturbridge,42.10843,-72.07869000000001
AU,Darlinghurst,-33.87939,151.21925
US,Pasadena,34.14778,-118.14452
DE,Berlin,52.52437,13.41053
US,Huntington,39.326640000000005,-110.96461000000001
DK,København,55.675940000000004,12.56553
US,Escanaba,45.74525,-87.06458
US,Waltham,42.376490000000004,-71.23561
US,Iselin,40.575379999999996,-74.32236999999999
BE,Durbuy,50.352909999999994,5.45631
US,San Marcos,29.88327,-97.94139
MM,Bago,17.33521,96.48135
SG,Singapore,1.28967,103.85007
GR,Piraeus,37.942029999999995,23.64619
US,Kansas City,39.09973,-94.57857
FR,Quimper,48.0,-4.1
US,Barboursville,38.40953,-82.29459
CA,Mascouche,45.74965,-73.59956
CA,Chambly,45.45008,-73.28246
BE,Namur,50.4669,4.8674599999999995
US,Lewiston,41.97576,-111.85633999999999
US,Chapel Hill,35.626459999999994,-86.69333
US,Camarillo,34.216390000000004,-119.0376
US,Cape Girardeau,37.30588,-89.51815
LT,Vilnius,54.68916,25.2798
US,Willoughby,41.63977,-81.4065
BR,Curitiba - PR,-25.42778,-49.27306
CA,Trois-Rivieres,46.34515,-72.5477
US,Breese,38.6106,-89.52703000000001
BE,Buggenhout,51.0159,4.20173
US,Bryan,41.47477,-84.55245
US,Lawrence Township,39.76838,-86.15804
US,Germantown,43.22862,-88.11036999999999
AU,Castlemaine,-37.06709,144.21684
US,Westbury,40.75566,-73.58763
RS,Niš,43.32472,21.90333
US,Cortland,42.60118,-76.18048
US,Santa Barbara,34.42083,-119.69819
BM,Hamilton,32.2949,-64.78303000000001
US,Cocoa,28.386120000000002,-80.742
BE,Knesselare,51.13932,3.4128199999999995
US,Sebastian,26.34285,-97.79026999999999
US,Glen Allen,37.66598,-77.50636999999999
US,Kernersville,36.119859999999996,-80.07365
US,Midland,31.99735,-102.07791
US,Torrance,33.83585,-118.34063
US,Knoxville,41.95729,-77.43887
MX,Guadalajara (Jalisco),20.66682,-103.39182
US,West Roxbury,42.68203,-72.33896999999999
US,Pikesville,39.37427,-76.72247
DE,Nürnberg,49.454209999999996,11.07752
US,Bothell,47.76232,-122.2054
US,Hewitt,44.64496,-90.10013000000001
US,Andover,42.156459999999996,-77.79555
US,Defiance,41.284490000000005,-84.35578000000001
US,San Leandro,37.72493,-122.15608
US,Manassas,38.75095,-77.47527
AU,Enmore,-33.9005,151.17314
US,Florham Park,40.78788,-74.38821
US,Portsmouth,38.73174,-82.99767
CA,Jasper,52.879459999999995,-118.08041000000001
US,Manchester,40.937,-81.56929000000001
US,Viroqua,43.55692,-90.88874
NL,Amsterdam,52.37403,4.88969
CA,Charette,46.56675,-72.74913000000001
KH,Koh Kong,11.615310000000001,102.9838
US,Culpeper,38.47318,-77.99665999999999
US,Rancho Cucamonga,34.1064,-117.59311000000001
LV,Bauska,56.40794,24.19443
US,Centennial,39.579159999999995,-104.87692
US,Rivesville,39.52981,-80.11674000000001
US,Stillwater,36.11561,-97.05837
US,Custer,43.76665,-103.59881
US,Perkasie,40.37205,-75.29268
US,Arlington,44.36441,-97.13311999999999
US,Elizabethtown,37.69395,-85.85913000000001
GB,Barnsley,53.55,-1.48333
US,Hardin Mt,43.690540000000006,-89.04845
US,Nanuet,41.08871,-74.01347
NL,Zwolle,52.5125,6.0944400000000005
US,Stow,41.1595,-81.44039000000001
US,Maydelle,36.91124,-80.32005
US,Tampa,27.94752,-82.45843
SE,Norrköping,58.594190000000005,16.1826
US,nan
DE,Vilsbiburg,48.45296,12.35604
US,Evansville,42.859970000000004,-106.26836000000002
US,Mantua,41.49577,-111.94383
DE,Jochsberg bei Leutershausen,49.29869,10.41189
LV,Rigas rajons,56.946000000000005,24.10589
US,Dyer,41.4942,-87.52171
HK,Hong Kong Island,22.27832,114.17468999999998
US,Hermosa Beach,33.86224,-118.39952
DE,Münster,51.96236,7.625710000000001
US,Bridgman,41.9431,-86.55696999999999
US,Plantation,38.2834,-85.59107
US,Waterbury,44.33783,-72.75623
US,Acton,34.46999,-118.19673999999999
CY,Nicosia,35.175309999999996,33.3642
GB,Hampshire,51.28333,-0.8333299999999999
US,Yakima,46.60207,-120.5059
AU,Sydney,-33.86785,151.20731999999998
US,DeLand,29.02832,-81.30311999999999
US,Post Falls,47.71796,-116.95159
US,Brookfield,43.06057,-88.10648
MD,Bălți,47.76314,27.92932
US,Highland,40.42548,-111.79446999999999
DE,Beilngries,49.454209999999996,11.07752
BR,São Bento Do Sul - SC,-6.28333,-37.75
US,Galesburg,42.28865,-85.41806
US,Stratford,36.33614,-102.07212
AU,Rooty Hill,-33.76667,150.83333000000002
US,Manlius,43.00201,-75.97686
US,Chambersburg,39.93759,-77.6611
PL,Radom,51.40253,21.14714
US,Miami,33.39922,-110.86872
GB,Waterlooville,50.88067,-1.0304
AU,Mango Hill,-27.24349,153.02383999999998
AU,Mornington,-38.21792,145.03876
US,Gaithersburg,39.143440000000005,-77.20137
DE,Bremen,53.07581999999999,8.80717
FR,Rosières,45.132870000000004,3.98826
DE,Lübbecke,52.30699,8.614230000000001
US,Buchanan,33.8026,-85.18856
ES,Cájar,37.13381,-3.57274
US,Bedford Park,41.762809999999995,-87.80006
US,Columbia,38.03631,-120.40131000000001
GB,Knaresborough. North Yorkshire,53.864369999999994,-1.68743
US,Eagleville,35.74173,-86.64972
US,Valencia,34.7995,-106.7003
GB,Knutsford,53.302890000000005,-2.37482
US,Taylorville,39.54894,-89.29453000000001
US,Saco,43.50092,-70.44283
US,New Brunswick,40.48622,-74.45182
US,Winona Lake,41.227270000000004,-85.82193000000001
DK,Helsinge,56.022830000000006,12.197519999999999
ES,St Joan De Les Abadesses (Girona-Catalunya),41.983109999999996,2.8249299999999997
IT,Baraggia (NO),45.85516,8.90885
US,Lawrenceburg,35.2423,-87.33474
US,Ocean Springs,30.411309999999997,-88.82781
ES,Roda De Ter,41.93012,2.25486
US,Hagerstown,39.911159999999995,-85.16163
IS,Akureyri,65.68353,-18.0878
MX,Ciudad de México,19.42847,-99.12765999999999
GB,Brancaster Staithe-Norfolk,52.95,0.5
FR,Marseille,43.29695,5.381069999999999
AU,South Melbourne,-37.83333,144.96667
US,North Cape May,38.98206,-74.95795
CA,Halifax,44.6464,-63.57291
FR,Lescar,43.33358,-0.43458
FR,Quevert,48.46402,-2.08745
US,Sevierville,35.86815,-83.56184
GB,Houghton Le Spring,52.626630000000006,-0.99546
AU,Minchinbury,-33.787240000000004,150.82956000000001
US,Labadie,29.837429999999998,-90.95621
US,Ann Arbor,42.27756,-83.74088
US,Grand Junction,39.06387,-108.55065
US,Maple Grove,45.07246,-93.45579000000001
PH,Subic Bay,14.78899,120.27986999999999
AU,Taminick,-36.35846,146.32056
FI,Lahti,60.98267,25.66151
MX,Puebla (Puebla),19.03793,-98.20345999999999
BE,Couvin,50.05284,4.49495
DE,Stadelhofen,50.003170000000004,11.197569999999999
GB,Burton-on-Trent Staffordshire,53.26667,-1.35
GR,Santorini,36.42107,25.430870000000002
US,Carrollton,40.57284,-81.08565
US,Lompoc,34.63915,-120.45794
US,Berthoud,40.30832,-105.08108999999999
US,Gig Harbor,47.32926,-122.58013000000001
US,Chester,40.30627,-121.23191000000001
IN,Jammu,32.735690000000005,74.86910999999999
US,Cheyenne,41.13998,-104.82025
US,Williams Bay,42.578070000000004,-88.54093
US,Forest Park,35.50423,-97.44615
LT,Kaunas,54.902719999999995,23.90961
DE,Reckendorf,50.01667,10.83333
DE,Aying,47.9701,11.777519999999999
GB,Cumbria,54.59947,-3.13256
DE,Neuötting,48.24102,12.68998
CA,Montréal,45.50884,-73.58781
DE,Colbitz,52.31708,11.60534
US,Bremerton,47.56732,-122.63264
US,San Mateo,37.56299,-122.32553
PE,Lima,-12.04318,-77.02824
US,Lake Mills,43.4194,-93.53327
US,Oakmont,40.52173,-79.84227
FR,Verdun,49.15964,5.3829
DE,Gräfelfing,48.11878,11.42939
CA,Calgary,51.05011,-114.08528999999999
CA,Joliette,46.0164,-73.4236
US,Burlington,39.30611,-102.26935999999999
US,Bristol,36.59649,-82.18847
IE,County Mayo,53.9807,-9.11551
US,Milledgeville,41.963359999999994,-89.77456
US,Westbrook,44.04218,-95.43611
US,Prescott,34.54002,-112.4685
IE,Dublin,53.333059999999996,-6.24889
EE,Tartu,58.38061999999999,26.72509
US,Burlingame,38.753890000000006,-95.83499
US,Burnsville,35.91734,-82.30096
US,Henderson,36.0397,-114.98194
US,Kingwood,39.471759999999996,-79.68339
RU,Yekaterinburg,56.8519,60.6122
AT,Dornbirn,47.41427,9.74195
US,Chelmsford,42.59981,-71.36728000000001
PL,Starogard Gdański,53.96396,18.52638
US,Longmont,40.16721,-105.10193000000001
US,Mokena,41.526140000000005,-87.88922
UY,La Paloma - Rocha,-34.48333,-54.333330000000004
IT,Rivoli (TO),45.07073,7.51465
US,Riverside,43.19686,-112.43526000000001
TR,Istanbul,41.01384,28.949659999999998
US,Crystal River,28.902479999999997,-82.5926
US,Moss Landing,42.67279,-88.54454
AU,North Wollongong,-34.40569,150.89763
US,Oak Creek,40.27498,-106.95838
TH,Bangkok,13.753979999999999,100.50144
US,Somerville,34.47338,-86.7987
US,Eagle,39.65526,-106.82865
US,Livingston,45.662440000000004,-110.56103999999999
CH,Geneva,46.202220000000004,6.14569
CA,St. Albert,53.63344,-113.63533000000001
US,New London,43.413959999999996,-71.98508000000001
FI,Mathildedal,60.451480000000004,22.26869
ES,Bilbao,43.26271,-2.92528
GB,Sheffield,53.38296999999999,-1.4659
CA,Toronto,43.700109999999995,-79.4163
US,North Providence,41.8501,-71.46616999999999
US,Holyoke,40.58444,-102.30241
IE,County Dublin,53.333059999999996,-6.24889
US,Napa,38.29714,-122.28553000000001
GB,Haverhill,52.08226,0.43891
NL,Rotterdam,51.9225,4.47917
US,Iowa Park,33.95148,-98.66866999999999
US,Hiawatha,39.8525,-95.53582
US,Duluth,34.00288,-84.14464
NL,Castricum,52.54833000000001,4.66944
US,Nine MIle Falls,47.659659999999995,-117.42908
DE,Augsburg,48.37154,10.89851
US,Orlando,28.53834,-81.37924
CA,Dieppe,46.07844,-64.68735
GB,Chippenham,52.301840000000006,0.43636
CA,Sault Ste. Marie,46.51677,-84.33325
US,Banner Elk,36.16318,-81.8715
US,Gallatin Gateway,45.5916,-111.19773
DE,Siegenburg,48.75421,11.848310000000001
AT,Weitra,48.7,14.883329999999999
US,Moore,35.33951,-97.4867
US,Glen Burnie,39.16261,-76.62469
US,Davenport,47.65405,-118.14997
US,Newtown Square,41.03005,-82.51573
GB,Croydon,51.38333,-0.1
DE,Peine,52.31928,10.2352
US,Pompano Beach,26.237859999999998,-80.12477
US,Hermitage,41.23339,-80.44868000000001
RO,București,44.43225,26.10626
US,West Columbia,33.99349,-81.07398
US,Johnstown,40.336929999999995,-104.9122
US,Silver City,32.770070000000004,-108.28033
US,Jackson,43.479929999999996,-110.76243000000001
US,Rehoboth Beach,38.72095,-75.07601
US,Kettering,39.6895,-84.16883
GB,York,53.95763,-1.08271
NL,Valkenburg Aan De Geul,50.84833,5.68889
US,Emmaus,40.53954,-75.49685
ES,Soria,41.76401,-2.46883
DE,Michelsneukirchen,49.12291,12.55284
IR,Karaj,35.83266,50.99155
US,Rutland,42.36954,-71.94813
GB,Woodbury Salterton,50.62983,-3.3218099999999997
US,Cherry Hill,39.93484,-75.03073
US,Reno,39.52963,-119.8138
US,Bennington,39.030559999999994,-97.5942
US,Berea,34.8854,-82.45596
US,Doylestown,40.97005,-81.69651999999999
AU,Bridgetown,-33.96242,116.13598
NL,Groningen,53.21917,6.566669999999999
RU,Saransk,54.1838,45.1749
US,Mystic,41.35427,-71.96646
US,Lincolnville,33.006840000000004,-80.15536999999999
US,Jacksonville,42.31346,-122.96699
US,Murfreesboro,35.845620000000004,-86.39027
US,Laguna Beach,30.23965,-85.9241
DE,Reuth,50.61667,12.21667
CA,Gatineau,45.47723,-75.70164
ES,Madrid,40.4165,-3.70256
US,Pensacola,30.42131,-87.21691
US,Merrillville,41.48281,-87.33281
DE,Rattelsdorf,50.81667,11.76667
US,Coventry,41.7001,-71.68284
US,Murray,40.66689,-111.88798999999999
NZ,Wellington,-41.286640000000006,174.77557
JM,Kingston,17.997020000000003,-76.79358
EC,Quito,-0.22985,-78.52495
GR,Atalanti,38.651109999999996,22.99917
US,Bloomfield,36.71112,-107.98451000000001
ZA,Cape Town,-33.92584,18.42322
GB,West Hoathly,52.09298,-0.64859
US,Kings Park,38.80622,-77.24332
US,Hamden,39.15979,-82.52683
US,Green Bay,44.51916,-88.01983
DE,Sachsendorf,50.115520000000004,8.68417
US,Emmitsburg,39.70454,-77.32693
FI,Helsinki,60.16952,24.93545
US,Davison,43.03475,-83.51801
US,Purcellville,39.13677,-77.71472
US,Oceanport,40.31817,-74.01514
DE,Erbach-Dellmensingen,49.58333,7.45
US,Fort Walton Beach,30.42059,-86.61707
KR,Jeju-shi,33.50972,126.52193999999999
US,Mason City,43.15357,-93.20104
US,Salinas,36.67774,-121.6555
US,New Durham,43.43675,-71.17229
US,Riverview,36.93538,-82.48182
US,Silver Spring,38.99067,-77.02609
US,Cramerton,35.23875,-81.07508
US,Santa Ana,33.74557,-117.86783
US,Vista,33.20004,-117.24253999999999
US,Bigfork,48.06329,-114.07261000000001
US,Centerville,40.918,-111.87216000000001
BG,Sofia,42.69751,23.32415
US,Royal Oak,42.48948,-83.14465
US,Harwich,41.68622,-70.07585
DE,Bingen,48.111270000000005,9.27238
US,Cleveland,34.59704,-83.76324
FI,Malmgård,60.16952,24.93545
GB,Haslingden,53.70326,-2.32382
US,Richland,37.85698,-92.40434
CA,Grimsby,43.25011,-79.84963
CZ,Hradec Králové,50.20923,15.832770000000002
DE,Stiebarlimbach,49.71754,11.058769999999999
US,Nashville,45.52274,-89.02484
US,San Juan Capistrano,33.50169,-117.66255
US,Reading,41.839490000000005,-84.74801
US,New Freedom,39.73788,-76.70136
GB,Ripon,54.13579,-1.52826
US,Union Pier,32.2687,-107.75863999999999
US,Nebo,40.51951,-80.88398000000001
IL,Kfar Saba,32.175,34.906940000000006
LV,Riga,56.946000000000005,24.10589
GB,"Ambleside, Cumbria",54.43261,-2.9616700000000002
IT,San Giorgio delle Pertiche Padova,45.40797,11.885860000000001
GB,Ipswich,52.05917,1.15545
US,West Bloomfield,42.568909999999995,-83.38356
US,Leesburg,39.34506,-83.55297
GB,Lincoln,53.22683000000001,-0.53792
US,Hanalei,35.8896,-77.53219
GB,Bristol,51.45523,-2.59665
CA,Granby,45.400079999999996,-72.73243000000001
US,North Liberty,41.749179999999996,-91.59795
US,East Rutherford,40.83399,-74.09709000000001
US,Marquette,38.55556,-97.83366
NL,Oosterhout,51.88,5.82639
LI,Schaan,47.16498,9.50867
US,Creve Coeur,40.647259999999996,-89.59121
US,Sunnyvale,32.79652,-96.56081999999999
US,Costa Mesa,33.64113,-117.91866999999999
US,Grand Marais,47.75045,-90.33426999999999
US,Ottawa,38.61557,-95.26775
IE,County Wexford,52.33417,-6.4575
US,Brandon,43.5947,-96.57199
US,Redmond,39.00607,-111.86187
US,Woonsocket,44.0536,-98.27564
US,La Salle,40.34887,-104.70191
US,Lake Stevens,48.0151,-122.06374
CA,Port Alberni,49.24133,-124.8028
CA,Niagara on the Lake,43.100120000000004,-79.06626999999999
US,Williamsburg,38.38194,-105.15193000000001
US,Abbottstown,39.88649,-76.9847
US,Harrisburg,41.55636,-103.73855999999999
US,Racine,43.776070000000004,-92.48295
US,Dearborn,39.52194,-94.76996
AU,Cammeray,-33.82132,151.21608999999998
DE,Füssen,47.57143,10.70171
US,Gardena,33.88835,-118.30896000000001
IT,Arcidosso (GR),42.87162,11.53599
SE,Söderbärke,60.07011,15.56025
BE,Sint-Truiden,50.816790000000005,5.18647
US,Walnut Creek,40.54145,-81.7218
FR,Launois-sur-Vence,49.65345,4.5395
US,Glenview,42.06975,-87.78784
US,Hurricane,37.175259999999994,-113.28995
ES,Sevilla,37.38283,-5.97317
AT,Uttendorf,48.15887,13.1218
US,Mount Orab,39.027570000000004,-83.91965
PL,Warszawa,52.22977,21.011779999999998
US,Maryville,40.3461,-94.87246999999999
LT,Klaipėda,55.7068,21.139120000000002
US,Fort Worth,32.72541,-97.32085
NL,Epe,52.3475,5.9833300000000005
US,Murrieta,33.553909999999995,-117.21392
CA,Winnipeg,49.8844,-97.14704
US,Mission Viejo,33.60002,-117.67200000000001
BE,Antwerpen,51.22047,4.40026
BE,Tielrode,51.176109999999994,4.34844
US,Charlotte,42.56365,-84.83582
US,Hood River,45.7054,-121.52146
US,Auburn,38.896570000000004,-121.07688999999999
US,Bellevue,43.46352,-114.2606
ZA,Durban,-29.8579,31.0292
DE,Ottobeuren,47.9413,10.299710000000001
US,Saint George,37.10415,-113.58412
CA,Ottawa,45.41117,-75.69811999999999
US,San Antonio,29.424120000000002,-98.49363000000001
US,Blaine,36.15425,-83.70407
US,Charlestown,38.45312,-85.67024
US,Conshohocken,40.07928,-75.30157
US,Pawleys Island,45.29578,-108.91375
RO,Constanta,45.88326,20.5918
US,Harwinton,41.77685,-73.07921999999999
US,Waterville,47.647079999999995,-120.07118
BR,Belo Horizonte,-19.92083,-43.93778
US,Lafayette Hill,40.09245,-75.2533
HU,Pilisvörösvár,47.613859999999995,18.908929999999998
US,Avon,39.631370000000004,-106.52225
US,Savage,44.77913,-93.33634
US,Pearland,29.563570000000002,-95.28605
US,Modesto,37.6391,-120.99688
US,Youngstown,41.099779999999996,-80.64952
GB,Birmingham,52.48141999999999,-1.89983
BE,Ravels,51.37274,4.9921
DE,Eichstätt,48.88854,11.19675
US,Uniontown,40.97506,-81.40817
US,League City,29.50745,-95.09493
DE,Naila,50.33034,11.70463
US,Oswego,37.16757,-95.10996
US,Plantsville,39.18889,-95.5697
IT,Albano Laziale (RM),41.72748,12.659
US,Hernando,34.82399,-89.9937
US,Midlothian,32.48236,-96.99445
US,Plover,44.45636,-89.54401
US,Evanston,41.26828,-110.96323999999998
US,Birmingham,42.5467,-83.21132
GB,Orkney,58.98465,-2.95953
US,Corolla,40.86807,-97.59200000000001
US,Maple Shade,39.95261,-74.99239
US,Key West,24.555239999999998,-81.78163
US,Frederick,40.09915,-104.9372
DE,Offenburg,48.47377,7.94495
US,Detroit,42.33143,-83.04575
US,Bridgeport,38.25575,-119.23127
US,North Adams,42.70092,-73.10871
NG,Lagos,6.45407,3.3946699999999996
US,Savannah,39.94166,-94.83025
DE,Ditzingen,48.82672,9.06703
ES,Barcelona,41.38879,2.15899
RU,Moskva,55.48498000000001,37.307359999999996
US,Richardson,32.94818,-96.72972
US,Hampton,42.74192,-93.20241999999999
US,Zanesville,40.91727,-85.28053
CR,Limon,9.990739999999999,-83.03596
US,Lewisville,36.09708,-80.41922
US,Saratoga Springs,40.34912,-111.90466
US,Quakertown,40.44177,-75.34156999999999
US,Annapolis,38.978590000000004,-76.49184
CA,Etobicoke,43.65421,-79.56711
US,Mount Horeb,43.00861,-89.73846
US,Brunswick,41.23811,-81.8418
US,New Berlin,42.62424,-75.33156
CA,Chénéville,45.31588,-75.83012
CN,Beijing,39.9075,116.39723000000001
CZ,Hořejší Vrchlabí,50.561009999999996,15.9127
US,Mineola,32.66319,-95.48829
US,York,32.893679999999996,-109.20284
GB,Ashbourne,53.01667,-1.73333
AT,Salzburg,47.799409999999995,13.043989999999999
DE,Marktredwitz,50.00443,12.085930000000001
US,Ewing,40.26983,-74.79988
GB,Reading,51.45625,-0.9711299999999999
US,Eugene,44.05207,-123.08675
US,Tonawanda,43.02033,-78.88031
US,DeWitt,42.842259999999996,-84.56915
US,Pismo Beach,35.14275,-120.64128000000001
VI,St Thomas,18.3419,-64.9307
US,Cocoa Beach,28.32055,-80.60922
US,Dowagiac,41.98421,-86.10862
IT,Porto Sant'Elpidio (MC),43.23024,13.688189999999999
VN,Phu Quoc,10.01245,105.08091
US,Westhampton Beach,40.80316,-72.61454
AU,Broadbeach,-28.027820000000002,153.43343000000002
RO,Buzău,45.15,26.83333
US,Ithaca,43.2917,-84.6075
AU,Fyshwick,-35.28346,149.12807
US,Lynchburg,39.24173,-83.79131
US,Montgomery,44.43885,-93.58134
US,Hockessin,39.78761,-75.6966
US,Kirkland,42.09253,-88.85121
US,Greenville,40.13961,-120.95107
US,Newport,48.179629999999996,-117.04326
US,Wyoming,45.33636,-92.99716
US,Maryland Heights,38.71311,-90.42984
US,Stanwood,41.89307,-91.15071
DE,Düsseldorf,51.22172,6.776160000000001
US,Bonner Springs,39.05973,-94.88358000000001
KR,Seoul,37.566,126.9784
PT,Câmara De Lobos,32.65043,-16.97718
DE,Olsberg,51.35613,8.48899
US,Azusa,34.13362,-117.90756
US,Myrtle Beach,33.68906,-78.88669
US,Lambertville,41.765879999999996,-83.62799
GB,Dagenham,51.55,0.16667
CA,Bamfield,49.316359999999996,-123.06934
DE,Irsee,47.90815,10.571769999999999
US,Folsom,38.67796,-121.17606
US,Snohomish,47.91288,-122.09818
US,Green Lane,43.98247,-96.8145
US,Tabernacle,39.952329999999996,-75.16379
IT,Torino (TO),45.09622,7.3660000000000005
US,Hawi,20.241220000000002,-155.83351000000002
US,Hancock,45.49746,-95.79671
US,Montclair,34.07751,-117.68978
PS,West Bank,31.78336,35.23388
US,Chardon,41.61422,-81.14899
US,Camino,38.738240000000005,-120.67493
DE,Erfurt,50.9787,11.03283
US,West Milford,39.20092,-80.40426
US,Oak Park,34.17917,-118.76286999999999
US,Wexford,41.94283,-79.9845
RU,Сарапул (Sarapul),56.476330000000004,53.797819999999994
AU,nan
GR,Athens,37.98376,23.72784
US,Durham,42.39953,-74.17236
US,South Yarmouth,41.666779999999996,-70.18474
AU,Richmond,-42.73554,147.43833
US,Brighton,39.98526,-104.82053
US,West Allis,43.01668,-88.00703
US,Brookhaven,39.61175,-79.90451
US,Huntley,42.168079999999996,-88.42814
US,Cary,42.21197,-88.23814
BE,Oud-Turnhout,51.31978,4.9841
DE,Hannover,52.37052,9.73322
US,Pflugerville,30.43937,-97.62
CH,Tschlin,46.79671,10.29804
DE,Hamm,51.68033,7.8208899999999995
US,Sterling,40.62554,-103.20770999999999
BE,Brussels,50.85045,4.3487800000000005
VN,Ho Chi Minh City,10.82302,106.62965
FR,Rouillac,45.775529999999996,-0.06392
US,Malibu,34.02577,-118.7804
US,West Conshohocken,40.069829999999996,-75.3163
GB,Marlborough,51.42027,-1.7294900000000002
US,North Attleboro,41.97263,-71.32474
US,Thornwood,41.12343,-73.77901999999999
US,Seguin,29.56884,-97.96473
US,Bend,44.058170000000004,-121.31531000000001
US,Glen Ellyn,41.87753,-88.06701
GB,Glasgow,55.86515,-4.257630000000001
CH,Burgdorf,47.05901,7.627860000000001
US,Jasper,43.84997,-96.39865
AT,Linz,48.30639,14.28611
US,Chico,33.29595,-97.79892
US,Irvine,37.70064,-83.97381
GB,Salisbury,51.069309999999994,-1.7956900000000002
IT,Biella,45.56304,8.057960000000001
DE,Zuzenhausen,49.29636,8.82254
US,Colchester,40.426429999999996,-90.79263
US,Niles,41.18284,-80.76536
US,Fremont,41.43333,-96.49808
FR,Lille,50.63297,3.05858
US,Homewood,33.47177,-86.80082
US,Goochland,37.684309999999996,-77.88526999999999
SE,Hällefors,59.78388,14.521970000000001
US,Simsbury,40.862590000000004,-76.79441
DE,Wallersdorf,48.73767,12.74744
GB,Newcastle Upon Tyne,54.9,-1.51667
DE,Köln,50.93333,6.95
ES,Cuenca,40.06667,-2.13333
GB,Bedford,52.13459,-0.46631999999999996
US,Chula Vista,32.64005,-117.0842
DE,Oberreichenbach,49.589459999999995,10.76892
GB,Cambridge,52.2,0.11667000000000001
US,Walla Walla,46.06458,-118.34302
KP,Pyongyang,39.03385,125.75431999999999
SE,Linköping,58.41086,15.621570000000002
US,Morrisville,42.89868,-75.64018
US,North Reading,42.57509,-71.07866999999999
US,Covington,37.793459999999996,-79.99395
US,Breckenridge,39.48165,-106.03835
CZ,Rakovnik,50.08804,14.420760000000001
US,Casper,42.86663,-106.31308
IM,Braddan,54.166669999999996,-4.5166699999999995
CH,Bern,46.94809,7.447439999999999
US,Monrovia,39.57894,-86.48222
US,Maumee,41.56283,-83.65382
US,Winter Park,39.89165,-105.76306000000001
US,Bakersfield,35.373290000000004,-119.01871000000001
US,Ogden,41.223,-111.97383
US,Ardmore,34.99203,-86.84666999999999
US,Salida,38.53472,-105.9989
US,Newport News,37.08339,-76.46965
US,Hyde Park,41.79882,-111.81911000000001
US,Culver,44.52568,-121.2131
CA,Terrace,54.51634,-128.60345
CA,Cambridge,43.3601,-80.31269
SE,Bålsta,59.5671,17.527810000000002
US,Dickinson Center,46.87918,-102.78962
US,Bay Village,41.484770000000005,-81.92208000000001
US,Coral Springs,26.27119,-80.2706
US,Verona,38.20208,-79.00836
US,Pembroke Pines,26.00315,-80.22394
US,Idaho Springs,39.742490000000004,-105.51361000000001
US,Rockford,40.47701,-81.30844
CA,Buckland,42.98339,-81.23304
DE,Ahorntal,49.454209999999996,11.07752
US,Dover Foxcroft,48.25159,-116.61103
US,Plymouth,38.48185,-120.84466
FR,Bordeaux,44.84044,-0.5805
AU,Cameron Park,-32.90701,151.60528
US,Pennsburg,40.39093,-75.49212
US,Layton,41.06022,-111.97105
US,Chatham,36.82569,-79.39808000000001
US,Morehead City,34.72294,-76.72604
US,Ridgeland,32.42848,-90.13231
US,Schenectady,42.814240000000005,-73.93956999999999
MY,Shah Alam,3.08507,101.53281
US,Roslyn,47.22345,-120.99314
US,Minong,46.09939,-91.82491
IN,Navi Mumbai,19.03681,73.01581999999999
NZ,Christchurch,-43.53333,172.63333
CA,Lacombe,52.466809999999995,-113.7353
US,Morgantown,39.629529999999995,-79.9559
GR,Arta,38.520270000000004,23.63296
US,Lakeland,44.95636,-92.76576
GR,Athina,37.98376,23.72784
JP,Okinawa-ken Nago-shi,35.181470000000004,136.90641000000002
KG,Shopokov,42.87,74.59
US,Oregon City,45.35734,-122.60676000000001
US,Hopatcong,40.93288,-74.65933000000001
GB,Stafford,52.805209999999995,-2.11636
US,South Sarasota,27.28616,-82.53288
BR,Campinas - SP,-22.90556,-47.060829999999996
US,Bainbridge,41.38644,-81.33955
US,Lodi,41.033390000000004,-82.01209
US,Allston,41.26478,-81.51317
US,Conyers,33.667609999999996,-84.01769
NO,Oslo,59.91273,10.746089999999999
US,Keene,32.396809999999995,-97.3239
NL,Venlo,51.37,6.16806
JP,Nagasaki-ken Nagasaki-shi,32.75,129.88333
US,Douglas,42.75969,-105.38221000000001
US,Stuart,42.59917,-99.1426
GB,Masham Ripon Yorkshire,53.864369999999994,-1.68743
GB,Harrold,52.20127,-0.61038
BE,Binche,50.41155,4.16469
US,Roswell,33.39437,-104.52490999999999
US,Buhl,42.599070000000005,-114.75948999999999
US,Bolingbrook,41.698640000000005,-88.0684
DE,Ulm,48.39841,9.99155
US,Donald,45.22234,-122.83926000000001
US,North Myrtle Beach,33.81601,-78.68002
JP,Tochigi-ken Utsunomiya-shi,36.56667,139.88333
US,Whitehouse Station,40.61538,-74.77044000000001
US,Ocean,37.69206,-81.624
US,Buellton,34.6136,-120.19265
US,Waukesha,43.01168,-88.23148
CA,Airdrie,51.30011,-114.03528
JP,Tokyo-to Shibuya-ku,35.6895,139.69171
US,Stevensville,46.50992,-114.09316000000001
US,Hammond,44.97886,-92.43575
US,Cedarburg,43.29667,-87.98759
US,Colorado Springs,38.83388,-104.82136
US,Toms River,39.95373,-74.19792
US,Missoula,46.87215,-113.994
US,Oakland,39.40787,-79.40671
US,Elkhart,37.00808,-101.89017
US,Wharton,40.89315,-74.58183000000001
IT,Maida (Cz),38.828109999999995,16.31344
US,Broomfield,39.92054,-105.08665
CA,Town of Plympton-Wyoming,42.98339,-81.23304
US,Walpole,43.07952,-72.42591999999999
US,Rock Island,47.37707,-120.14395
US,Tiverton,41.62594,-71.21338
US,Kennesaw,34.02343,-84.61549000000001
US,Brewster,41.93889,-99.86485
AR,Tafi Del Valle - Tucumán,-26.824140000000003,-65.2226
US,Montrose,38.478320000000004,-107.87617
IT,Grantortino Di Gazzo (PD),45.19999,10.578389999999999
US,College Station,30.627979999999997,-96.33440999999999
US,Dublin,37.10568,-80.68534
US,Lander,42.833009999999994,-108.73066999999999
US,Cooper City,26.05731,-80.27172
CZ,Medleice,49.15325,16.87649
GB,Somerton,51.954209999999996,-1.27613
US,Lyndhurst,38.0293,-78.94502
FR,Brest,48.39029,-4.486280000000001
US,Spearfish,44.49082,-103.85937
IE,Macroom,51.90663,-8.96968
IT,Lido di Ostia,41.73212,12.276539999999999
US,Federal Way,47.32232,-122.31262
US,Piscataway,40.49927,-74.39904
US,Waunakee,43.19194,-89.45567
US,Chandler,33.30616,-111.84125
BE,Olen,51.14391,4.8598
US,Ashland,45.594440000000006,-106.27085
US,Appleton,45.196909999999995,-96.01977
ES,Donostia-San Sebastian,37.65376,-4.82409
US,Bangor,39.3885,-121.40523999999999
CN,Shenzhen,29.415909999999997,121.33971000000001
BE,Watou,50.85864,2.62074
AU,Thornleigh,-33.732279999999996,151.07895
BE,Grembergen,51.028690000000005,4.1010599999999995
CA,Montague,46.16681,-62.64866
US,Southampton,42.22926,-72.73009
US,Bryson City,35.43127,-83.44944
GR,Chalkida,38.46354,23.60284
GB,Lancaster,54.046490000000006,-2.79988
US,Holland,44.96862,-72.00301999999999
GB,"Walsall, West Midlands",52.585280000000004,-1.98396
US,San Ramon,37.77993,-121.97802
AT,Schörfling am Attersee,47.945440000000005,13.604079999999998
US,Noblesville,40.045590000000004,-86.0086
CA,Lévis,46.803259999999995,-71.17793
AU,Mt Kuringai,-33.86785,151.20731999999998
GT,Antigua,14.561110000000001,-90.73444
GB,Hereford,52.05684,-2.71482
US,Boone,36.21679,-81.67455
US,Coeur d'Alene,47.67768,-116.78047
DE,Kemnath,49.87007,11.89077
US,Yellowstone National Park,46.66291,-112.06043999999999
DE,Fuldabrück,51.26667,9.48333
CA,Québec,46.81228,-71.21454
DE,Amorbach,50.115520000000004,8.68417
FR,Pouilly Sous Charlieu,49.68143,3.58955
SE,Riala,59.75,18.366670000000003
IT,Codogno (LO),45.16187,9.702160000000001
NO,Follebu,61.21581,10.284980000000001
US,Holly,38.05223,-102.12269
NL,Utrecht,52.09083,5.1222199999999996
US,Dayton,39.237140000000004,-119.59295
US,Honolulu,21.30694,-157.85833
US,Williamsport,39.5859,-83.12046
AU,Launceston,-41.438759999999995,147.13467
BR,Cabo Frio,-22.88717,-42.02622
US,Minnetonka,44.9133,-93.50329
CZ,Plzen,49.69768,13.4735
US,Socorro,34.0584,-106.89142
US,Beaver,38.27691,-112.64105
US,Spring Hill,40.376459999999994,-78.67002
CA,Val d'Espoir,48.83341,-64.48194000000001
US,Dubuque,42.50056,-90.66457
US,Leadville,39.250820000000004,-106.29252
US,Petaluma,38.23242,-122.63665
FR,Taverny,49.025420000000004,2.21691
US,Fryeburg,44.016459999999995,-70.98062
US,Fargo,46.87719,-96.7898
NL,Hoofddorp,52.3025,4.68889
DE,Mannheim,49.4891,8.46694
CZ,Třebíč,49.21492,15.88166
EE,Tallinn,59.43696,24.753529999999998
US,Hull,43.188590000000005,-96.13363000000001
VN,Lào Cai,22.48556,103.97066
US,Hackettstown,40.85399,-74.82906
US,Oceanside,33.19587,-117.37948
US,Spring Valley,34.34503,-112.15905
US,Creamery,41.5845,-84.60551
AU,Hobart,-42.87936,147.32941
US,Vail,39.64026,-106.3742
US,Wadsworth,39.6338,-119.28545
US,Mount Vernon,44.41765,-119.11357
US,Saugus,42.46482,-71.01005
US,Olympia,47.03787,-122.9007
NL,Heusden,51.73417,5.13889
DE,Burgkunstadt,50.14093,11.25205
US,Atlantic Beach,40.58899,-73.72901999999999
FR,Nantes,47.21725,-1.55336
US,Frisco,39.57443,-106.09751999999999
US,Gahanna,40.01923,-82.87934
US,Carbondale,39.40221,-107.21116
US,Raynham,41.94871,-71.0731
BE,Brasschaat,51.2912,4.49182
MD,Chișinău,47.005559999999996,28.8575
US,West Bridgewater,42.01899,-71.00782
US,McAlester,34.93343,-95.76971
US,Ambler,40.15455,-75.22157
FR,"Armentières, Cedex",48.97775,3.02073
FR,Bois-d'Arcy,48.799659999999996,2.02325
BE,Halle,50.73385,4.23454
BE,Lierneux,50.28477,5.7923599999999995
FR,Bouguenais,47.177620000000005,-1.62143
US,Trenton,41.9177,-111.94245
ES,Oviedo,43.36029,-5.84476
US,Vacaville,38.35658,-121.98773999999999
US,Put-in-Bay,41.99555,-92.57686
IT,Induno Olona,45.84571,8.84056
US,West Chester,39.96097,-75.60804
US,Farmington Hills,42.48531,-83.37716
US,Nampa,43.54072,-116.56346
US,Clemmons,36.02153,-80.382
JP,Hokkaido Furano-shi,42.975,144.37472
GR,Nea Krini,40.643609999999995,22.93086
US,Bethel,39.730340000000005,-83.39353
BR,Teutônia - RS,-3.45778,-42.37028
US,Waynesville,35.48871,-82.98875
ES,Málaga,36.72016,-4.42034
AU,Derwent Park,-42.83506,147.29493
US,Champaign,40.11642,-88.24338
US,San Clemente,33.426970000000004,-117.61198999999999
US,Warren,41.84395,-79.14504000000001
CA,Didsbury,51.66681,-114.13529
CG,Lubumbashi,-11.71,27.48
US,Fullerton,41.36335,-97.96923000000001
DE,Oberndorf,53.75,9.15
RU,Mytishchi,55.91163,37.73076
US,Vestavia,33.44872,-86.78777
DE,Kreuztal-Krombach,49.97704,9.15214
CA,London,42.98339,-81.23304
US,Jamestown,36.42757,-84.93189
US,Cheboygan,45.64696,-84.47448
US,Santa Fe Springs,33.94724,-118.08535
US,Las Cruces,32.31232,-106.77833999999999
SE,Ödeshög,58.229490000000006,14.65294
GB,Peeblesshire,51.4577,-0.20784
US,Morrow,33.58317,-84.33937
AU,Yallingup,-33.645920000000004,115.03513999999998
US,Macungie,40.51593,-75.55519
PL,Zawiercie,50.48766,19.41679
US,Boardman,41.024229999999996,-80.66285
CZ,Mikulov,48.80556,16.6378
SE,Uppsala,59.858819999999994,17.63889
US,Goodyear,33.435320000000004,-112.35821000000001
US,Scottsdale,33.509209999999996,-111.89903000000001
CA,Mississauga,43.5789,-79.6583
IS,Skagafjörður,66.09,-19.54
RU,Kaliningrad,54.70649,20.51095
AU,Parramatta,-33.8178,151.00348
US,Webster Groves,38.59255,-90.35734000000001
MX,García,25.81201,-100.59874
GB,Newport,53.76333,-0.69986
US,Joseph,45.35432,-117.22961000000001
US,McKees Rocks,40.46562,-80.06560999999999
US,Decorah,43.303309999999996,-91.78571
US,Pawtucket,41.87871,-71.38256
US,Papillion,41.15444,-96.04224
US,Ellijay,34.69481,-84.48215
US,Luzerne,39.99924,-79.96283000000001
US,Hampton Falls,42.9162,-70.86366
US,Hastings,40.58612,-98.38839
US,Attleboro,41.94454,-71.28560999999999
AU,Milton,-35.31644,150.4361
US,Olathe,38.60499,-107.98228999999999
US,Highland Park,42.18169,-87.80034
GB,Norwich,52.62783,1.29834
MY,Kuala Lumpur,3.1412,101.68653
US,Corona,33.87529,-117.56643999999999
US,Mckinney,41.33619,-75.96325
US,Pullman,46.73127,-117.17962
US,Festus,38.22061,-90.39595
KE,Nairobi,-1.2833299999999999,36.81667
US,Fernandina Beach,30.66968,-81.46259
DE,Ingolstadt,48.76508,11.42372
US,Hales Corners,42.937509999999996,-88.0487
BR,Porto Alegre - RS,-3.45778,-42.37028
US,Clarence,41.04811,-77.94028
RU,Владивосто́к (Vladivostok),43.13,131.91
CA,Red Deer,52.26682,-113.802
US,Flagstaff,35.19807,-111.65127
BE,Rumst,51.08153,4.4221699999999995
US,Stamford,42.4073,-74.61431999999999
BE,Irchonwelz (Ath),49.56475,5.837359999999999
US,Titusville,41.626999999999995,-79.67366
US,Oconomowoc,43.111670000000004,-88.49927
AU,Broome,-17.955379999999998,122.23921999999999
US,Kemah,29.54273,-95.02048
US,Hillsborough,43.1141,-71.8992
US,Upper Sandusky,40.82728,-83.28130999999999
US,Hainesville,42.34502,-88.06786
DE,Thalmässing,49.08834,11.2215
DK,Odense,55.39594,10.38831
GB,Bolton,53.583330000000004,-2.4333299999999998
US,Dickinson,46.87918,-102.78962
GB,Devizes,51.350840000000005,-1.9942099999999998
CZ,Ceske Budejovice,48.974470000000004,14.47434
IT,Zugliano,45.7298,11.52399
US,Narragansett,41.4501,-71.4495
US,Orting,47.097879999999996,-122.20428000000001
US,Poway,32.96282,-117.03586000000001
AU,Hayes,-42.87936,147.32941
HK,Kowloon,22.316670000000002,114.18333
GB,Grange-Over-Sands,54.326809999999995,-2.74757
US,Marlborough,42.90425,-72.20786
GB,Rolvenden,51.051109999999994,0.63068
AU,Glenhaven,-33.7,151.0
US,Elgin,45.564859999999996,-117.91743000000001
US,Whittier,33.97918,-118.03284
US,Ashburn,41.74753,-87.71115999999999
BE,Ypres,50.85114,2.8856900000000003
US,Antelope,43.303059999999995,-100.6293
MK,Kavadarci,41.43306,22.01194
US,Kahului,20.88953,-156.47432
US,Clifton,39.09193,-108.44898
GB,Knaresborough,54.0091,-1.46851
US,Highlands Ranch,39.55388,-104.96943
US,Castle Rock,39.372209999999995,-104.85609000000001
US,West Linn,45.36568,-122.61231000000001
US,Fish Creek,40.86807,-97.59200000000001
FO,Klaksvík,62.22655,-6.589010000000001
US,Palmetto,33.51789,-84.66965
SE,Hamburgsund,58.55254,11.272680000000001
RS,Belgrade,44.80401,20.46513
BR,Brasília,-15.779720000000001,-47.92972
GB,Bishops Castle,52.49208,-3.0021
CA,Sherbrooke,45.400079999999996,-71.89908
US,North Olmsted,41.4156,-81.92347
US,Providence,41.70632,-111.81716999999999
US,Hartsville,36.390879999999996,-86.16721
US,Humble,29.998829999999998,-95.26216
GB,Melton Mowbray,52.76588,-0.8869299999999999
US,Cornell,45.167190000000005,-91.14931
US,Hoboken,31.18106,-82.13484
US,Cartersville,34.16533,-84.80230999999999
PL,Zarzecze,50.52767,22.195220000000003
US,North Versailles,40.37979,-79.80949
US,East Longmeadow,42.06454,-72.51259
US,Kingston,39.64417,-94.03855
NZ,nan
US,Plano,33.01984,-96.69889
US,Glenshaw,40.53285,-79.96755
US,Fair Lawn,40.94038,-74.13181
US,Ossining,41.16287,-73.86152
US,Fogelsville,43.98247,-96.8145
US,Lake Worth,32.80485,-97.44502
US,Batesville,39.30005,-85.22218000000001
US,Millville,41.6816,-111.823
US,West Glover,48.363479999999996,-120.1223
GB,Guisborough,54.534780000000005,-1.05606
RU,Tomsk,56.49771,84.97437
DE,Berg,50.55523,6.948860000000001
US,Cantwell,40.86807,-97.59200000000001
UA,Kiev,50.45466,30.5238
US,Cleveland Heights,41.52005,-81.55624
US,Cordova,41.68031,-90.31902
US,Severna Park,39.07039,-76.54524
US,Dulles,39.03761,-77.41582
US,Cupertino,37.323,-122.03218000000001
DE,Pfaffenhofen,49.064440000000005,8.976389999999999
DE,Mallersdorf-Pfaffenberg,48.76637,12.230960000000001
US,Norway,45.7869,-87.90374
IT,Venegono Inferiore,45.735690000000005,8.89545
US,Medford,45.13858,-90.34014
US,Fort Lee,40.85093,-73.97014
US,Sparta,36.50541,-81.12092
US,Waimea,20.023229999999998,-155.67288
US,Azle,32.89513,-97.54586
US,Claremont,44.04441,-92.9977
US,Thousand Oaks,34.170559999999995,-118.83758999999999
CH,Luzern,47.05048,8.30635
US,Antioch,42.47724,-88.09564
US,Stevens Point,44.523579999999995,-89.57455999999999
US,Schererville,41.47892,-87.45476
MX,Tlalnepantla de Baz (Estado de México),19.54005,-99.19538
US,Nevada City,39.26173,-121.01778999999999
AE,Dubai,25.07725,55.30927
US,Belgrade,45.77604,-111.1769
US,Los Gatos,37.22661,-121.97468
US,Greensboro Bend,36.07264,-79.79198000000001
GB,Exeter,50.7236,-3.52751
US,Campbell,41.07839,-80.59924000000001
US,West Deptford,41.660379999999996,-71.45589
US,Lone Tree,39.55171,-104.8863
US,Woodland Park,38.99388,-105.05693000000001
GB,Wrexham,53.046640000000004,-2.99132
US,Solon,41.38978,-81.44123
GB,Eye,52.608000000000004,-0.19209
US,South Barrington,42.09142,-88.12174
US,Forest Hills (Queens),42.34592,-73.36622
DE,Kronberg,50.18424,8.5232
US,Harrisonburg,38.44957,-78.86891999999999
US,Roseville,45.00608,-93.15661
BR,Ribeirão Preto - SP,-21.1775,-47.81028
US,El Paso,31.75872,-106.48693
US,Stoneham,42.4801,-71.0995
DE,Jever,53.57368,7.898060000000001
US,Lyons,40.224709999999995,-105.27138000000001
US,Sheridan,39.64693,-105.02526
US,Schetz,47.38608,-110.92551
IM,Douglas,54.15,-4.4833300000000005
US,Mansfield,37.10672,-92.58072
US,Storrs Mansfield,43.62303,-96.94255
US,Tracy,44.233290000000004,-95.61918
US,Nags Head,35.957390000000004,-75.62406
US,Lyndonville,44.53367,-72.00315
US,PIttsburgh,47.38608,-110.92551
US,Barre,42.42287,-72.10508
CA,Langley,49.10107,-122.65883000000001
US,Wibaux,46.985009999999996,-104.18826999999999
US,Boise,43.6135,-116.20345
US,Weymouth,42.220929999999996,-70.93977
US,Newtown,39.1245,-84.36161
US,Altamonte Springs,28.661109999999997,-81.36561999999999
US,Lansing,42.48424,-76.47994
GB,Bracknell,51.41363,-0.75054
DE,Bruck bei Weyarn,48.13743,11.57549
AU,Melbourne,-37.814,144.96331999999998
CZ,Plzeň,49.69768,13.4735
RU,Zhukovskiy,55.59528,38.12028
US,Blacklick,40.4725,-79.18688
US,Dorr,41.487140000000004,-120.54348999999999
IT,Civitella Di Romagna (FC),43.83546,11.96016
US,Golden,39.75554,-105.2211
JP,Hokkaido Sapporo-shi,42.975,144.37472
US,Meridianville,34.85148,-86.57222
IS,Borgarnes,64.53834,-21.92064
BR,Florianópolis - SC,-27.59667,-48.549170000000004
US,Pelham,42.39315,-72.4037
CA,Elora,43.25011,-79.84963
TD,N'Djamena,12.10672,15.0444
US,Dillon,39.63026,-106.04335
US,Milpitas,37.42827,-121.90661999999999
US,Martinsburg,40.31119,-78.32418
US,Bellport,40.75704,-72.93927
FI,Joutsa,61.73333,26.116670000000003
IT,Marnate (VA),45.62855,8.90916
US,Exeter,40.64417,-97.45033000000001
US,Portage,40.38868,-78.67224
US,Sainte Genevieve,37.98144,-90.04178
US,Menlo Park,37.453829999999996,-122.18218999999999
US,Bellflower,33.881679999999996,-118.11701000000001
US,Agoura Hills,34.136390000000006,-118.77453
US,Lincoln,43.51297,-111.96441000000002
AU,Kunda Park,-31.20942,152.83158
US,Red Bank,35.11229,-85.29413000000001
US,Staunton,38.14991,-79.0732
GB,Camberley,51.33705,-0.74261
IE,County Cork,51.89797,-8.47061
JP,Tokyo-to Tokyo-shi,35.6895,139.69171
US,Saint Albans,38.38565,-81.83624
US,Claremore,36.3126,-95.61609
US,Brookline,42.734809999999996,-71.65813
US,Lawrence,40.30618,-80.12061
US,Brookings,44.31136,-96.79839
US,Santa Rosa,34.93867,-104.68249
US,Kent,41.15367,-81.35789
US,West Cape May,38.93872,-74.94184
BE,Attert,49.75035,5.78634
US,Meridian,39.53957,-104.84528
MX,Querétaro (Querétaro),15.837520000000001,-92.75774
US,Fitchburg,42.96083,-89.46984
JP,Okinawa-ken Chatan-cho,26.335829999999998,127.80138999999998
ES,Santiago De Compostela,42.880520000000004,-8.545689999999999
US,Juneau,43.40555,-88.7051
CA,Salmon Arm,50.6998,-119.30237
MX,Ciudad De México,22.64154,-99.15972
CA,Kingston,44.22976,-76.48098
US,Bay Shore,45.358340000000005,-85.09728
BE,Péruwelz,50.50819,3.5937300000000003
GB,Leicester,52.6386,-1.1316899999999999
US,Joplin,37.08423,-94.51328000000001
US,Avondale,38.2375,-104.35108000000001
DE,Karlsruhe,49.009370000000004,8.40444
US,South Hadley,42.25842,-72.57453000000001
AU,Shoalhaven Heads,-34.85086,150.74512
GB,Newquay,50.41557,-5.07319
CZ,Decin,50.78215,14.21478
CH,Zürich,47.36667,8.55
US,Malden,36.556999999999995,-89.96648
PL,Miłosław,52.203179999999996,17.48955
GB,Bury St. Edmunds,52.2463,0.71111
DE,Rothenburg o.d. Tauber,49.37885,10.18711
US,La Vista,41.183890000000005,-96.03113
MX,Cabo San Lucas (BCS),22.89088,-109.91238
US,Bishop,37.36354,-118.39511
US,Johnson City,36.31344,-82.35347
CA,Waterloo,45.35008,-72.51581999999999
US,Hudson,40.07359,-104.64301999999999
US,Cinnaminson,39.99678,-74.99266999999999
US,Sanford,37.258340000000004,-105.90473999999999
US,Oviedo,28.67,-81.20812
US,North Bend,41.46195,-96.77975
US,Crested Butte,38.86971,-106.98782
HU,Magyarhertelend,46.0725,18.230829999999997
GB,Swansea,51.62079,-3.9432300000000002
US,El Cerrito,37.91576,-122.31164
US,Warrior,33.81427,-86.80944000000001
CA,Bobcaygeon,44.30012,-78.31623
US,Constantine,41.841159999999995,-85.6686
IS,Reykjavik,64.13548,-21.895410000000002
US,Glenwood,45.650240000000004,-95.38976
DE,Mühldorf am Inn,48.2467,12.52155
US,New Brighton,45.06552,-93.20189
TH,Khon Kaen,16.44671,102.833
US,Lacey,47.034259999999996,-122.82319
US,Macon,39.742259999999995,-92.47269
DE,Dessau,51.838640000000005,12.24555
US,Montpelier,42.32215,-111.2977
IT,Latina (LT),46.42899,11.53942
EE,Pärnu,58.38588000000001,24.49711
CA,Nelson,49.49985,-117.28553000000001
US,Bethlehem,44.28034,-71.68814
US,Apalachicola,29.726,-84.9856
GR,Agia Paraskevi,39.24792,26.27178
US,Toluca Lake,34.17223,-118.37897
DE,Kirchheim,50.88333,11.01667
DE,Geisfeld,49.71667,6.95
FR,Clermont-Ferrand,45.77969,3.08682
US,Alameda,37.770990000000005,-122.26087
US,Granada Hills,35.68698,-105.9378
CA,Sainte-Hyacinthe,45.50884,-73.58781
GB,Milton Keynes,52.04172,-0.75583
US,Monroeville,40.42118,-79.7881
US,Coon Rapids,41.87082,-94.67748
US,Sarasota,27.33643,-82.53065
FI,Heinola,61.20564,26.03811
US,Shaker Heights,41.47394,-81.53707
IT,Ronchi di Villafranca Padovana (PD),45.24409,11.90271
IN,Bangalore,12.97194,77.59369000000001
US,Middlebury,41.675329999999995,-85.7061
US,Chino Hills,33.9938,-117.75888
US,Ledgewood,40.86807,-97.59200000000001
US,Berkeley,41.88892,-87.9034
US,Hickory,40.29896,-80.30866999999999
US,Westport Island,39.09973,-94.57857
US,Baileys Harbor,37.865390000000005,-81.19399
BE,Aartselaar,51.13412,4.38678
US,Tunkhannock,41.53869,-75.94659
US,Blowing Rock,36.13513,-81.67761
US,Concord,42.177820000000004,-84.64301999999999
AU,Newstead,-41.44108,147.16183
US,Cedaredge,38.90165,-107.92645
US,Des Plaines,42.033359999999995,-87.8834
US,Traverse City,44.763059999999996,-85.62063
US,Villa Park,41.88975,-87.98895
US,Webberville,42.66698,-84.17413
DE,Freiburg,47.9959,7.85222
US,Oshkosh,41.40498,-102.34436
CA,Saskatoon,52.13238,-106.66892
US,Glendale,39.70499,-104.93359
IT,Langhirano (PR),44.61913,10.26652
US,Marion,40.67745,-111.28102
US,Detroit Lakes,46.81718,-95.84533
GB,Fareham,50.851620000000004,-1.17929
US,Richfield,38.77247,-112.08408999999999
IL,Jerusalem,31.769040000000004,35.21633
ES,Córdoba,37.89155,-4.77275
CA,Notre-Dame-de-l'Île-Perrot,45.36678,-73.9325
US,Boyne City,45.21668,-85.01394
BE,Westmalle,51.297670000000004,4.69013
US,Queen Creek,33.24866,-111.6343
US,Silverdale,40.3476,-75.27101
US,East Falmouth,41.57844,-70.55864
IT,Bologna,44.493809999999996,11.33875
CA,Sioux Narrows,49.8844,-97.14704
US,Mount Pleasant,39.54691,-111.45546999999999
TR,Tekirdağ,40.9781,27.51101
US,Buckingham,37.55015,-78.55556
US,Little Rock,47.86801,-95.11055
US,Loveland,40.39776,-105.07498000000001
US,Anaheim,33.83529,-117.9145
US,Edmond,35.65283,-97.4781
US,Leavenworth,47.59623,-120.66148000000001
ZA,"Silverton, Pretoria",-25.74486,28.187829999999998
GB,Congleton,53.163140000000006,-2.21253
US,Rockaway,40.90121,-74.51432
US,Somers,48.08023,-114.22151000000001
US,Black River Falls,44.29468,-90.85153000000001
US,Ellington,37.24171,-90.96874
GB,"Whaplode St Catherine, Lincolnshire",52.65,-0.48333000000000004
WS,Apia,-13.833329999999998,-171.76666
US,El Segundo,33.91918,-118.41646999999999
US,Opa-locka,25.90232,-80.25033
DE,Neukirchen,54.86666999999999,8.73333
JP,Tokyo-to Higashikurume-shi,35.6895,139.69171
GB,Winestead,53.7446,-0.33525
US,Kalamazoo,42.291709999999995,-85.58723
US,Lisbon,39.860890000000005,-83.6352
US,Garden Grove,28.48027,-82.43509
US,Phelps,37.512879999999996,-82.15013
US,Greenfield,41.30527,-94.46135
US,Suffern,41.11482,-74.14959
DE,Bayreuth,49.94782,11.57893
US,Herndon,38.96955,-77.3861
US,East Sandwich,41.74177,-70.45169
GB,Henley On Thames,51.53333,-0.9
DE,Eibau,50.98272,14.662139999999999
US,Palmdale,34.57943,-118.11646
US,Painesville,41.72449,-81.24566
US,West Memphis,35.14648,-90.18454
ES,Valencia,39.46975,-0.37739
US,Waterford,40.25452,-79.16753
US,Ludlow,43.39591,-72.70065
GB,Lewes,50.873979999999996,0.0088
US,Canandaigua,42.87423,-77.28804000000001
FR,Lavau,45.37798,1.38267
IT,Prato,46.37364,13.30659
US,Gloversville,43.05285,-74.34375
DE,Leipzig,51.339620000000004,12.37129
JE,St. Brelade,49.20,-2.14
US,Mariemont,39.14506,-84.37438
AU,Torquay,-38.33085,144.32638
GB,Burton-on-Trent,52.807280000000006,-1.64263
BE,Ville-sur-Haine,50.47657,4.06425
ES,Casarilh,41.61674,0.6221800000000001
US,Sun City,33.70919,-117.19726000000001
LA,Champassak,14.89204,105.87787
US,Bradley Beach,40.20234,-74.01208000000001
CA,Bracebridge,45.033409999999996,-79.31633000000001
IT,Pieve Di Soligo (TV),45.89836,12.17128
US,Pendleton,45.67207,-118.7886
DE,Schongau,47.8124,10.89664
US,Port Townsend,48.11704,-122.76045
SE,Norrtälje,59.75799,18.70496
US,East Lansing,42.736979999999996,-84.48387
US,Jamaica Plain,42.30982,-71.12033000000001
AT,Markt Hartmannsdorf,47.05461,15.83941
US,Oakville,38.47005,-90.30456
GB,Portree,57.41288,-6.19418
US,North Royalton,41.31366,-81.72457
BE,Denee,50.3279,4.88059
US,Milford,38.39691,-113.01078999999999
US,Bronx,40.93815,-73.83208
US,Colma,37.67688,-122.45969
CN,Qinhuangdao,39.931670000000004,119.58833
US,Krebs,34.92787,-95.71582
US,Palm Springs,33.8303,-116.54529
AU,Fortitude Valley,-27.45706,153.03178
US,Austintown,41.10172,-80.76451999999999
CA,Brossard,45.45008,-73.46583000000001
US,Cape May Court House,39.082609999999995,-74.82378
GB,Upper Swanmore,50.88067,-1.0304
DE,Staffelstein,50.10199,11.00128
US,Tipp City,39.95839,-84.17215999999999
US,Woodmere,41.46228,-81.48066999999999
US,Saline,42.166709999999995,-83.78161
US,Matthews,40.38865,-85.49942
US,Vandalia,39.890609999999995,-84.19883
DE,Kulmbach,50.10068,11.45032
US,Klamath Falls,42.22487,-121.78166999999999
US,Perris,33.78252,-117.22865
DE,Spiegelau,48.91517,13.36229
US,Bridgeville,40.35618,-80.11006
US,Lakeville,44.64969,-93.24271999999999
BR,Contagem - MG,-19.92083,-43.93778
US,Media,39.916779999999996,-75.38769
MY,Petaling Jaya,3.1072599999999997,101.60670999999999
BE,Brugge,51.20892,3.22424
FR,Chamonix,45.92375,6.869330000000001
US,Atkins,36.867340000000006,-81.42344
US,Ayer,42.5612,-71.58979000000001
US,Butte,46.003820000000005,-112.53473999999999
US,Rollinsford,43.2362,-70.82034
US,Blue Island,41.65726,-87.68005
US,Beavercreek,39.70923,-84.06326999999999
US,Berkeley Heights,40.68343,-74.44265
BB,Speightstown,13.250720000000001,-59.64396
US,Harrison,42.68719,-103.88271
US,Geneva,40.52695,-97.59588000000001
BE,Westerlo,51.09049,4.91544
FR,Gelles,45.76947,2.76309
US,Burbank,41.73392,-87.7795
US,Fennville,42.593920000000004,-86.1017
GB,"Narborough, Leicester",52.6386,-1.1316899999999999
FR,Valloire,45.165420000000005,6.4299800000000005
US,Wormleysburg,40.26287,-76.91386
US,Yellow Springs,39.80645,-83.88687
US,Volcano,19.44276,-155.23398
US,West Covina,34.06862,-117.93895
BE,Athus,49.56475,5.837359999999999
AR,El Bolsón,-41.96051,-71.53336
US,Lotus,39.742490000000004,-105.51361000000001
TO,Nuku`alofa,-21.13938,-175.2018
US,Fawn Grove,39.84534,-82.60072
US,Nashua,42.95275,-92.5363
US,Altadena,34.18973,-118.13118
US,Warwick,42.68203,-72.33896999999999
BR,Rio de Janeiro - RJ,-22.90642,-43.18223
US,Easton,43.838029999999996,-89.80679
JP,Shizuoka-ken Gotenba-shi,34.98333,138.38333
MN,Ulaanbaatar,47.907709999999994,106.88323999999999
US,Lorain,40.29896,-78.89225
ES,Valladolid,41.65518,-4.72372
BE,Mechelen,51.02574,4.47762
US,Shippensburg,40.05065,-77.52026
US,Marietta,33.9526,-84.54993
US,Cadillac,44.25195,-85.40116
IL,Tel Aviv,32.08088,34.780570000000004
GB,Stowe,51.942840000000004,-0.88131
RU,Лысково (Lyskovo),56.032819999999994,45.0422
US,Cornwall-on-Hudson,41.44482,-74.0157
US,Owensville,38.3456,-91.50155
US,Northridge,39.99173,-83.77854
AU,Marsfield,-33.777840000000005,151.10574
GB,Wainfleet,53.1057,0.23583
ER,Asmara,15.33805,38.93184
GB,Newark,53.066669999999995,-0.81667
SK,Komárno,48.11667,18.316670000000002
BE,Sint Lievens Esse,50.9197,3.86225
IE,Cork,51.89797,-8.47061
US,Little Falls,45.97635,-94.3625
US,Maroa,40.036429999999996,-88.95703
US,Mountain Brook,33.50094,-86.75220999999999
US,Venice,38.672270000000005,-90.16983
US,Rapid City,44.08054,-103.23101
US,Lawrenceville,33.95621,-83.98796
US,Virginia City,39.30963,-119.64962
US,Beverly Hills,42.523920000000004,-83.22326
US,Quincy,39.936820000000004,-120.94646999999999
US,Cedar Falls,42.52776,-92.44547
US,Washougal,45.58262,-122.35342
US,Bradford,41.9559,-78.64392
GB,Sedgley,52.585469999999994,-2.12296
DE,Potsdam,52.39886,13.065660000000001
US,Port Clinton,41.512,-82.93769
PL,Warsaw,52.22977,21.011779999999998
IT,Como,45.80819,9.0832
NL,Oirschot,51.505,5.31389
US,Hendersonville,35.31873,-82.46095
US,Mobile,30.694359999999996,-88.04305
US,Tustin,33.74585,-117.82616999999999
IT,Monzambano,45.38534,10.69331
US,Bedford Hills,41.23676,-73.69458
AU,Surfers Paradise,-28.002740000000003,153.42999
US,Linden,34.28504,-110.15706000000002
US,Pinellas Park,27.8428,-82.69954
US,North Charleston,32.854620000000004,-79.97480999999999
BE,Jabbeke,51.18185,3.08935
US,Grand Lake,42.10163,-102.87215
AU,Warners Bay,-32.97251,151.65268
AT,Klagenfurt,46.6,14.316670000000002
JP,Kyoto-fu Kyoto-shi,35.02107,135.75385
US,Westfield,41.91924,-77.53886999999999
DE,Buttenheim,49.80365,11.03002
DE,Hamburg,53.55073,9.99302
CN,Putian,25.43944,119.01028000000001
US,Liverpool,43.10646,-76.2177
DO,La Vega,19.222070000000002,-70.52956
US,Mission,43.30584,-100.65819
US,Jenkintown,40.09594,-75.12517
CA,Saint-Jean-Sur-Richelieu,45.30713,-73.26259
US,Boynton Beach,26.52535,-80.06643000000001
DE,Baunach,49.98592,10.85179
US,Coraopolis,40.5184,-80.16672
US,Spring,30.07994,-95.41716
PT,Coimbrão,39.86945,-8.93238
US,Michigan City,41.70754,-86.89503
US,Long Lake,43.972840000000005,-74.421
BR,São Manuel,-22.73111,-48.57056
US,Crystal Lake,42.24113,-88.3162
BE,Kortrijk,50.82803,3.26487
US,DeBary,28.88305,-81.30868000000001
US,South Glens Falls,43.299240000000005,-73.63512
US,Neshkoro,44.02471,-88.54261
US,Beaver Bay,40.25887,-103.62384
US,Newburyport,42.81259,-70.87728
VU,Port Vila,-17.73648,168.31366
US,Egg Harbor,39.528729999999996,-74.64794
US,Harker Heights,31.083509999999997,-97.65974
FR,Paysac,45.1589,1.53326
US,Winston-Salem,36.09986,-80.24422
CA,Burlington,43.38621,-79.83713
US,Manhattan Beach,33.88474,-118.41091000000002
AU,Woolloomooloo,-33.87042,151.21968
US,Seagraves,32.94427,-102.56491
US,Seneca,41.37867,-79.70394
US,Lubbock,33.57786,-101.85517
BE,Wambeek,50.85281,4.16169
US,Lihue,21.98121,-159.3721
FR,Crach,47.617,-3.0017
US,Cedar Rapids,42.00833,-91.64407
DE,Essen,52.72258000000001,7.9371
US,Aston,39.952329999999996,-75.16379
US,Saint Louis Park,44.9483,-93.34801
BE,Verviers,50.58907,5.86241
DE,Burgebrach,49.82832,10.74338
US,Eau Claire,44.81135,-91.49849
GB,Llanelli,51.68195,-4.16191
ES,Zarautz,43.284440000000004,-2.1699200000000003
FR,La Roche Sur Yon,48.08247,3.2968800000000003
FR,Strasbourg,48.58392,7.7455300000000005
US,Gettysburg,45.01165,-99.95567
US,Westerly,41.3776,-71.82729
US,Sayre,35.29116,-99.6401
NL,Maastricht,50.84833,5.68889
US,McKinney,33.19762,-96.61527
US,Tyler,44.2783,-96.13475
US,East Alstead,43.14897,-72.36064
US,Waverly,41.52647,-75.70546999999999
DE,Bottrop,51.523920000000004,6.9285
DE,Weissenstadt,50.10217,11.88849
BG,Pazardzhik,42.2,24.33333
GB,Wolverhampton,52.585469999999994,-2.12296
US,Long Beach (Naples),40.42691,-109.4993
US,Big Rapids,43.69808,-85.48366
BE,Melsbroek,50.91559,4.47985
GB,"Eastmoor, Wakefield, West Yorkshire",53.864369999999994,-1.68743
US,Northport,45.13139,-85.61675
US,Ellensburg,46.99651,-120.54785
US,Ukiah,39.15017,-123.20778
GB,Cardiff,51.48,-3.18
US,Kalama,46.007670000000005,-122.84436000000001
US,Genoa,39.00435,-119.84711999999999
CL,Pitrufquén,-38.98635,-72.63721
AU,Happy Valley,-35.08333,138.53333
US,Tamaqua,40.797309999999996,-75.96937
US,Rogers,36.33202,-94.11854
IT,Monza (MI),45.58005,9.27246
US,Maplewood,44.95302,-92.99521999999999
HU,Budapest,47.49835,19.04045
MG,Antananarivo,-18.91368,47.53613
DE,Duisburg,51.43247,6.765160000000001
US,Rio Grande,38.87952,-82.38043
US,Easthampton,42.26676,-72.66898
FR,Pantin,48.89437,2.40935
GB,Liverpool,53.41058,-2.9779400000000003
US,High Bridge,40.66705,-74.89572
GE,Sukhumi,43.00697,40.9893
KR,Busan,35.10168,129.03003999999999
DE,Darmstadt,49.87167,8.650269999999999
US,Fort Mill,35.00737,-80.94508
PH,Makati,14.550270000000001,121.03268999999999
US,Florence,38.39028,-105.1186
AT,Bad Ischl,47.711090000000006,13.618929999999999
US,Superior,39.95276,-105.1686
US,Sapphire,44.35221,-103.7652
US,Solvang,34.59582,-120.13765
CZ,Zhůř,49.69768,13.4735
US,West Stockbridge,42.34592,-73.36622
ES,Torremolinos,36.62035,-4.49976
US,Pennington,40.32844,-74.79072
US,Frederica,39.009,-75.46575
US,Monroe,38.62997,-112.12076
US,Grand Island,40.92501,-98.34201
GB,"Tywardreath, Cornwall",50.20861,-5.4875
BR,Barueri - SP,-23.51056,-46.87611
LA,Tha Ngon,17.96667,102.6
GB,Keswick,54.59947,-3.13256
US,Nutley,40.82232,-74.15987
IE,County Limerick,52.664719999999996,-8.62306
US,Pacific Beach,33.6603,-117.99923000000001
US,Shelburne,42.58981,-72.68842
US,Mount Ephraim,39.87845,-75.09267
US,Farmville,37.3021,-78.39194
GB,Olney,52.15345,-0.70201
CZ,Protivín,49.199490000000004,14.217170000000001
VE,Caracas,10.488010000000001,-66.87919000000001
US,Plainfield,44.21386,-89.49234
US,Yucaipa,34.03363,-117.04308999999999
US,Lowville,43.78674,-75.49185
US,Mill Creek,38.7315,-79.97006999999999
RU,"Sterlitamak, Bashkortostan",54.74306,55.96779
AT,St. Michael,47.1,13.633329999999999
US,Palo Alto,40.68731,-76.17215999999999
NL,Amersfoort,52.155,5.3875
GB,Llanrwst,53.140209999999996,-3.79527
US,Quentin,40.27962,-76.43965
US,Granger,41.7611,-93.82439000000001
US,Safety Harbor,27.99085,-82.69315999999999
US,Stoughton,42.91695,-89.21789
GB,Falkirk,56.0021,-3.78535
US,Urbandale,41.62666,-93.71217
US,New Hope,38.19791,-78.90586
DE,Konstanz,47.66033,9.17582
ZA,Port Elizabeth,-33.961090000000006,25.61494
US,Waterloo,41.28694,-96.28558000000001
US,Piqua,40.14477,-84.24244
US,Rome,44.2206,-89.80843
BY,Mahilioŭ,53.9168,30.3449
US,Greeley,40.42331,-104.70913
US,Hopkins,44.92496,-93.46273000000001
US,Clifton Park,39.09193,-108.44898
US,Camp Hill,32.80041,-85.65357
US,Worcester,42.59146,-74.75043000000001
DE,Celle,52.622640000000004,10.08047
US,Alanson,45.444179999999996,-84.78671
CA,Kelowna,49.883070000000004,-119.48568
NZ,Frankton,-45.030229999999996,168.66271
US,Wilkes-Barre,41.245909999999995,-75.88131
IT,Granaglione (Bo),43.77925,11.246260000000001
US,Oneida,36.498129999999996,-84.51272
FR,Saint-Jean-d'Arvey,45.65521,6.31796
US,Ormond Beach,29.285809999999998,-81.05589
ES,Súria,41.83333,1.75
GB,Frome,51.22834,-2.32211
US,Sault Ste Marie,46.4953,-84.34532
US,Wisconsin Dells,43.62748,-89.77096
US,Lake Mary,28.758879999999998,-81.31784
CA,Gabriola Island,49.16638,-123.94003000000001
RU,Хвойная (Khvoynaya),58.9,34.53333
US,Downers Grove,41.80892,-88.01116999999999
BE,Peizegem-Merchtem,50.95129,4.23197
US,Mountain View,41.268840000000004,-110.33988000000001
US,Damascus,36.63373,-81.78373
US,Pepperell,42.66592,-71.5884
FR,Bailleul,50.73592,2.7359400000000003
US,Hill City,43.93249,-103.57519
US,Winthrop,42.47332,-91.73433
US,Laconia,43.52785,-71.47035
DK,Gørløse,55.92791,12.30081
CA,St-Joseph-De-Ham-Sud,43.25011,-79.84963
US,Berlin,39.92064,-78.9578
US,Hixson,35.045629999999996,-85.30968
PT,Anadia,40.43841,-8.43352
AU,Hope Island,-27.870359999999998,153.35164
US,Oxnard,34.1975,-119.17705
DE,Regensburg,49.01513,12.10161
BE,Dilbeek,50.84799,4.25972
US,Lake Geneva,42.59168,-88.43343
GB,Todmorden,53.71434,-2.09701
US,Bay Saint Louis,30.308809999999998,-89.33005
SI,Ljubljana,46.05108,14.50513
US,Panama City Beach,30.17659,-85.80549
GB,Chessington,51.3624,-0.30427
US,Adel,41.61443,-94.01745
US,Braintree,42.20384,-71.00215
US,Mesa,33.422270000000005,-111.82263999999999
PL,Knyszyn,53.31406,22.919629999999998
AR,Godoy Cruz - Pr. De Mendoza,-32.92863,-68.8351
US,Carolina Beach,34.03517,-77.8936
CA,Stouffville,43.700109999999995,-79.4163
US,Old Forge,43.71007,-74.97434
US,Decatur,36.33591,-94.46077
US,Holbrook,34.90225,-110.15818
US,Syracuse,41.08939,-112.06466999999999
NL,Harlingen,53.174769999999995,5.42244
GB,King's Lynn,52.75172,0.39516
IT,Busco Di Ponte Di Piave (TV),45.78114,12.49442
US,Cheney,47.487390000000005,-117.57576
HU,Etyek-Botpuszta,47.44794,18.75328
US,Madrid,41.87665,-93.82328000000001
US,Center City,45.39385,-92.8166
US,Aurora,39.72943,-104.83192
US,Ojai,34.44805,-119.24288999999999
CA,Medicine Hat,50.03928,-110.67661000000001
AT,Kefermarkt,48.442640000000004,14.538770000000001
US,Peekskill,41.29009,-73.92042
GB,Peterborough,52.573640000000005,-0.24777
US,Ovid,42.67646,-76.82301
AU,Margaret River,-33.955040000000004,115.07598999999999
GB,Selby,53.78333000000001,-1.06667
US,Lake Oswego,45.42067,-122.67065
LT,Klausučiai,54.902719999999995,23.90961
RU,Nizhny Novgorod,56.328669999999995,44.00205
GB,Coventry,52.40656,-1.51217
US,Cream Ridge,41.9177,-111.94245
DE,Mitwitz,50.25111,11.20818
US,Rosemount,44.73941,-93.12576999999999
US,Overland Park,38.98223,-94.67079
CA,Peterborough,44.30012,-78.31623
AU,Leichhardt,-33.88341,151.15625
US,Fairport,43.09867,-77.44194
US,Shelby,48.50526,-111.85696999999999
JP,Tottori-ken Saihaku-gun,35.5,134.23333
DE,Schleswig,54.52156,9.5586
US,Grapevine,32.934290000000004,-97.07807
US,Belfast,42.34284,-78.1114
US,Nacogdoches,31.603509999999996,-94.65549
GB,Warminster,51.20434,-2.17873
GR,Patra,38.244440000000004,21.73444
US,Park Hills,37.85422,-90.51818
US,San Angelo,31.46377,-100.43704
US,Export,40.41812,-79.6256
US,West Orange,40.79871,-74.23904
US,Charles Town,39.288990000000005,-77.85972
GB,Burn,56.05865,-3.23664
BE,Herselt,51.051590000000004,4.8823099999999995
BE,Ciney,50.29449,5.10015
US,Millmont,37.801790000000004,-80.44563000000001
NL,Haarlem,52.38084,4.636830000000001
IT,Lemignano,44.7711928,10.2633709
US,White River Junction,43.648959999999995,-72.31926
US,Hayward,46.013009999999994,-91.48461999999999
US,Orono,44.97135,-93.6044
GB,"Brierley Hill, West Midlands",52.4823185,-2.1237803
US,Granby,40.0861,-105.93946000000001
US,Harmony,43.555240000000005,-92.01016
RS,Sopot,44.51972,20.573610000000002
US,Ferndale,40.288959999999996,-78.91475
AT,Hainfeld,48.0339,15.77414
US,Sioux Falls,43.54997,-96.70033000000001
US,Fishers,39.95559,-86.01387
US,Lake Ozark,38.198640000000005,-92.6388
US,Carlisle,38.312020000000004,-84.02743000000001
US,Floyd,36.91124,-80.32005
US,Tomahawk,45.47108,-89.72986
US,Paradise,41.56882,-111.838
US,Pigeon Forge,35.78842,-83.55433000000001
US,Amesbury,42.85842,-70.93005
GB,Holywell,53.27466,-3.22895
JP,Hiroshima-ken Miyayoshi-shi,34.4,132.45
US,Harrison Township,42.587337,-82.81048410669769
ES,Salamanca,40.96882,-5.663880000000001
US,Bellingham,42.08676,-71.47451
BE,Toernich,49.65178,5.77741
US,Palm Harbor,28.07807,-82.76371
US,Gulf Shores,30.24604,-87.70082
ES,Sant Pol de Mar,41.60177,2.61741
US,Redding,40.58654,-122.39168000000001
CA,Orangeville,43.9168,-80.09966999999999
US,Kearny,33.05701,-110.91067
ES,Vigo,42.232820000000004,-8.72264
US,Sunnyside,46.32374,-120.00865
DE,Schweinfurt,50.04937,10.22175
US,Brentwood,40.37063,-79.97476999999999
DE,Ebensfeld,50.0664,10.95835
US,Hoffman Estates,42.042809999999996,-88.0798
DE,Bruchsal,49.12426,8.59804
US,Seal Beach,33.741409999999995,-118.10479
US,Cottage Grove,43.07611,-89.19955999999999
NO,Trondheim,63.43049,10.39506
US,Cannon Beach,45.89177,-123.96153000000001
CA,Vernon,50.26729,-119.27337
US,Glen Cove,40.862320000000004,-73.63374
IT,San Giorgio di Nogaro,45.82745,13.21088
US,Sonoita,31.6795,-110.65673999999999
US,Largo,38.89761,-76.83025
ES,Vic,41.93012,2.25486
CA,Niagara Falls,43.100120000000004,-79.06626999999999
US,Norman,35.222570000000005,-97.43948
GB,Altrincham,53.387519999999995,-2.34848
RS,Zemun,44.8458,20.40116
US,Frenchtown,47.014920000000004,-114.22984
US,Riverhead,40.91704,-72.66204
JP,Nagasaki-ken Sasebo-shi,32.75,129.88333
US,Radford,37.13179,-80.57645
US,Mineral,38.21414,-112.92356000000001
BE,Waterloo,50.714690000000004,4.3991
US,Falcon Heights,44.99163,-93.16633
GB,Wimbledon,51.4214787,-0.2064027
JP,Niigata-ken Akano-shi,37.88637,139.00589
US,Valley Stream,40.66427,-73.70846
US,Dover,48.25159,-116.61103
DE,Schönbrunn,49.4115801,8.9302616
US,Calverton,39.05761,-76.93581
US,Warminster,40.20454075,-75.10336152738029
CA,Boucherville,45.59104,-73.43605
US,Puyallup,47.18538,-122.2929
US,Prospect Heights,42.0953,-87.93757
US,San Luis Obispo,35.28275,-120.65961999999999
FR,Cassel,50.80109,2.48527
US,Arroyo Grande,35.118590000000005,-120.59073000000001
CA,Tracadie,47.51444,-64.91806
US,Cypress,29.969109999999997,-95.69717
DE,Mühlhausen,51.20896,10.45275
DE,Untersiemau,50.19415,10.97448
US,El Dorado,37.817240000000005,-96.86225
US,Broken Bow,41.40195,-99.63928
CR,Heredia,10.002360000000001,-84.11650999999999
GB,"Rochdale, Lancashire",53.6673525,-2.3017089
US,Cranberry Township,40.68496,-80.10714
US,University Heights,41.49783,-81.53735
MX,San Pedro (Nuevo León),25.9347233,-99.1872291
DE,Eisenach,50.9807,10.31522
US,Gillette,44.291090000000004,-105.50222
US,Elon,36.102909999999994,-79.50669
NL,Oldenzaal,52.31333,6.92917
DE,Hallerndorf,49.75909,10.979460000000001
US,Rocklin,38.790729999999996,-121.23578
US,Youngsville,41.85228,-79.31866
US,Tupelo,34.258070000000004,-88.70464
US,Bastrop,30.110490000000002,-97.31527
US,Elk River,45.30385,-93.56718000000001
GB,"Bungay, Suffolk",52.4562248,1.4373413
US,Yorktown Heights,41.27093,-73.77763
IE,County Galway,53.34350465,-8.873374084151076
AU,Fitzroy,-37.798390000000005,144.97833
CA,Wolfe Island,44.1670745,-76.43074285413907
BR,Teresópolis - RJ,-22.4164578,-42.975194
FR,Tours,47.39484,0.70398
US,Chaska,44.78941,-93.60218
CA,Fredericton,45.945409999999995,-66.66558
FR,Saint-Etienne,43.85304,4.60567
US,Bondville,40.1132048,-88.3695046
DE,Lutherstadt Eisleben,51.52754,11.54835
US,Apple Valley,37.08971,-113.12438999999999
US,Ruther Glen,37.9287494,-77.4558151
US,North Ridgeville,41.38949,-82.01903
DE,Michelstadt,49.67569,9.003730000000001
US,Langhorne,40.17455,-74.92267
NO,Rollag,59.98431,9.296439999999999
US,Moneta,37.1812537,-79.6172536
ES,Nigrán,42.141529999999996,-8.806560000000001
US,Murrells Inlet,33.551,-79.04143
US,West Windsor,43.48693285,-72.49146346799421
US,Provincetown,42.05295,-70.1864
US,Leonardtown,38.29124,-76.63579
CA,St Catharines,43.1579812,-79.2441003
AT,Floing,47.26356,15.7465
GB,Praze,50.1667238,-5.3949578
US,Colora,39.80193,-105.51416
DE,Rauhenebrach-Theinheim,49.884622,10.5871631
DK,Hedehusene,55.64951,12.198269999999999
GB,Kirkbymoorside,54.270140000000005,-0.9321799999999999
US,Fresno,36.74773,-119.77237
US,North Woodstock,44.03034,-71.68590999999999
SE,Marbäck,56.7062585,13.5948609
AU,Forrest,-35.31499,149.12859
MX,Xcanatún,21.07664,-89.63028
US,Solana Beach,32.99115,-117.27115
US,Montgomery Center,44.8783294,-72.6085273
CA,Bois-des-Filion,45.666779999999996,-73.74918000000001
US,Wayne,42.23056,-97.01782
US,Meadows Place,29.65134,-95.588
US,Beverly,38.84066,-79.87535
BR,São José Dos Campos - SP,-23.1805011,-45.8872969
US,Rio Rancho,35.23338,-106.66447
US,West Lebanon,40.27004,-87.38668
US,Addison,41.98643,-84.34716999999999
US,Elmira,42.0898,-76.80773
PL,Wrocław,51.1,17.03333
US,Westford,42.57926,-71.43784000000001
US,Newark,40.05812,-82.40126
US,Eastpointe,42.46837,-82.95546999999999
US,Makawao,20.856939999999998,-156.31306
DE,Garmisch-Partenkirchen,47.492090000000005,11.09576
US,Sheboygan,43.75083,-87.71453000000001
AT,Virgen,47.00159,12.456610000000001
JP,Nagano-ken Azumino-shi,36.3044083,137.9054972
FR,Jenlain,50.311640000000004,3.6287199999999995
US,Willmar,45.12191,-95.04334
AT,Graz,47.06667,15.45
NO,Lillehammer,61.115140000000004,10.466280000000001
US,Elmwood Park,41.92114,-87.80923
US,Berkley,39.804429999999996,-105.02609
US,West Hollywood,34.09001,-118.36174
US,Stowe,44.46533,-72.68456
GB,Walsall,52.585280000000004,-1.98396
US,Saint Augustine,29.89469,-81.31452
US,Delray Beach,26.46146,-80.07282
BE,Leuven,50.87959,4.7009300000000005
UA,Odessa,46.48572,30.74383
US,Springdale,37.18887,-112.99855
CK,Rarotonga,-21.247552849999998,-159.77610904284523
US,Lewistown,47.062470000000005,-109.42823999999999
GR,Kalamaria,40.5825,22.95028
LV,Daugavpils,55.88333000000001,26.53333
US,East Greenwich,41.660379999999996,-71.45589
US,Webster,45.33218,-97.52009
US,Norwalk,43.83052,-90.62151999999999
BE,Malonne,50.43969,4.7956199999999995
US,Morristown,36.21398,-83.29489000000001
US,Moreno Valley,33.93752,-117.23058999999999
CH,Worb,46.929840000000006,7.563060000000001
CA,Vaudreuil,45.400137,-74.028282
US,Osseo,44.572179999999996,-91.22738000000001
LA,Vientiane,17.96667,102.6
US,Woodinville,47.75427,-122.16346000000001
US,Gaylord,45.02751,-84.67475
MX,San Juan,25.5428,-99.84091
SK,Prievaly,48.560026,17.347087347632744
GB,Lowestoft,52.47523,1.75167
CA,Saint-Georges,46.11353,-70.66526
GB,Southampton,50.90395,-1.40428
LT,Telšiai,55.981390000000005,22.247220000000002
US,Kennebunkport,43.36175,-70.47672
US,Capitola,36.975229999999996,-121.95329
US,Farmington,36.72806,-108.21869
US,Paso Robles,35.62664,-120.691
FR,Villeneuve D'Ascq,50.6193174,3.1314002
US,Erie,40.050259999999994,-105.04998
US,South Lyon,42.46059,-83.65160999999999
US,Downey,42.42853,-112.12441000000001
SE,Motala,58.53706,15.036489999999999
US,Frankfort,39.70555,-96.41696
SE,Visby,57.64089,18.296020000000002
DE,Großostheim,49.91985,9.07596
BE,Melle,51.002320000000005,3.8052599999999996
NL,Geldrop,51.42167,5.5597199999999996
US,Blue Ash,39.232,-84.37827
NZ,Mount Maunganui,-37.6380218,176.1838841
BR,Santos - SP,-23.960833,-46.333889
US,Wesley Chapel,35.007090000000005,-80.67451
AT,St. Pölten,48.2,15.633329999999999
US,Fairhope,40.11368,-79.83977
US,Indian Trail,35.076809999999995,-80.66924
FI,Tampere,61.499109999999995,23.78712
FR,Vincennes,48.8486,2.4376900000000004
US,North Augusta,33.5018,-81.96512
GB,Suffolk,52.09332,1.3204200000000001
PL,Wroclaw,51.1,17.03333
GB,Inverness,57.47908,-4.22398
US,Millersville,36.371159999999996,-86.71
US,Elmsford,41.0551,-73.82013
BE,Halen,50.948370000000004,5.1109599999999995
US,Jonesville,36.68898,-83.111
IT,Montignoso,44.02405,10.17259
US,Grand Cane,32.0840517,-93.8101839
US,Topsham,43.92758,-69.97588
US,Sedona,34.86974,-111.76098999999999
SV,San Salvador,13.68935,-89.18718
DE,Herford,52.11457,8.67343
FI,Isojoki,62.11319,21.95884
US,Colleyville,32.880959999999995,-97.15501
CZ,Èerná Hora,50.561009999999996,15.9127
US,New Paltz,41.74759,-74.08681
US,Carol Stream,41.91253,-88.13479
US,Roslindale,42.2912093,-71.1244966
US,Bluffton,40.89533,-83.88883
IT,Brunico - Bruneck (BZ),46.794706,11.9297925
US,Towson,39.4015,-76.60191
US,Bellmore,40.66871,-73.52707
UA,Rivne,46.01753,29.1398
MU,Bagatelle,-20.224686,57.49599626107958
US,Port St John,28.476174,-80.7859150894526
US,Mills River,35.38845,-82.56679
DE,Rodach,50.17323,11.20833
US,Saint Clair,44.08191,-93.85773
US,Blue Bell,40.15233,-75.26629
AU,North Melbourne,-37.797979999999995,144.94512
US,La Mesa,32.122040000000005,-106.70778
SE,Höganäs,56.199709999999996,12.55795
IT,Ponte San Pietro (BG),45.6978192,9.5878571
DE,Grossheirath,50.17603,10.9505
GB,Christchurch,50.73583,-1.78129
PT,Santarém,39.23333,-8.68333
US,Paw Paw,41.68892,-88.9812
CH,Martigny,46.102759999999996,7.07245
US,Palm Coast,29.584970000000002,-81.20784
US,Hector,44.74385,-94.71555
AU,The Rocks,-33.85923,151.2081
DE,Lenzkirch,47.868320000000004,8.202110000000001
AT,Fulpmes,47.15202,11.349219999999999
US,Hadley,43.31729,-73.84818
US,Pleasant Hill,35.976459999999996,-85.19385
US,Burtchville,43.12540325,-82.51642465933247
ID,Bekasi Timur,-6.2630592,107.0146916
DE,Wiesbaden,50.08258,8.249319999999999
BE,Baarle Hertog,51.4383589,4.9316995
RU,Ivanteyevka (Moscow Oblast),55.9743262,37.920895307490355
DE,Lauf a. d. Pegnitz,49.51386,11.28247
US,Pen Argyl,40.86871,-75.2549
US,Moon Township,40.5061,-80.2082
GB,Newbury,51.40148,-1.32471
US,Centerport,43.0409,-76.59272
CL,Pucón,-39.28223,-71.95427
CA,Franklin,45.03338,-73.91591
US,Hilton Head,32.21632,-80.75261
NL,Bodegraven,52.0825,4.75
BE,Zonnebeke,50.8726,2.98725
US,Clarksville,42.7847,-92.66769000000001
EC,Guayaquil,-2.19616,-79.88620999999999
GB,"Linthwaite, Nr. Huddersfield",53.64904,-1.7841599999999997
DE,Bad Staffelstein-Uetzing,50.0875983,11.0675738
US,Round Rock,36.513059999999996,-109.47344
US,North Wales,40.21094,-75.27823000000001
US,Apache Junction,33.41505,-111.54958
DK,Brøndby,55.6455,12.41008
US,Bedford,40.66693,-94.72136
US,Shawnee On Delaware,41.0123174,-75.1107332
NL,Scheveningen,52.10461,4.27557
AU,Balmain,-33.85481,151.1833
US,Wake Forest,35.97987,-78.50972
US,Ouray,38.02277,-107.67145
CR,Costa Rica,9.93333,-84.08333
US,Gresham,44.85303,-88.78815999999999
US,West Yellowstone,44.66215,-111.10411
FR,Uberach,48.8499,7.629339999999999
US,Eureka Springs,36.40118,-93.73796999999999
US,Port Saint Joe,29.81188,-85.30297
US,Fulton,38.846709999999995,-91.94796
NZ,Flat Bush,-36.9600844,174.9178522
NZ,Wigram,-43.5497926,172.5462481
US,Punta Gorda,26.929779999999997,-82.04536999999999
US,West Hartford,41.76204,-72.74204
BE,Gent,51.05,3.7166699999999997
IT,Bolzano,46.162890000000004,12.18727
US,Greencastle,39.644490000000005,-86.86473000000001
CA,East York,43.690529999999995,-79.32794
US,Fort Montgomery,41.33148,-73.98680999999999
US,Baldwin,34.49177,-83.53739
US,Menifee,33.72835,-117.14641999999999
DE,Maroldsweisach,50.19578,10.66003
US,Edmonds,47.81065,-122.37736000000001
US,Norwood,38.13055,-108.2923
US,Schaumburg,42.033359999999995,-88.08341
US,Seaside,36.61107,-121.85162
AU,South Brisbane,-27.48034,153.02049
JP,Toyama-ken Himi-shi,36.8645966,136.9704027
US,Manistee,44.24445,-86.32425
BE,Nethen,50.7915775,4.6639563
US,Templeton,42.555640000000004,-72.06758
US,Wabasha,44.38386,-92.03294
DE,Bad Mergentheim,49.4925,9.773610000000001
US,Sharon,41.233109999999996,-80.4934
GB,Derby,52.92276999999999,-1.4766299999999999
NL,Berghem,51.769909999999996,5.56827
GB,Wincle,53.1865914,-2.0624972
US,Hartland,43.10501,-88.34204
US,Astoria,40.227540000000005,-90.35956999999999
US,Dowell,37.9397727,-89.2378608
BE,Lennik,50.80903,4.16219
US,Goshen,39.95301,-111.90077
DK,Rækker Mølle,56.0211447,8.5376203
US,Bethany Beach,38.539559999999994,-75.05518000000001
MX,Guadalupe (Nuevo León),25.676639799999997,-100.20007207261435
US,Polson,47.69355,-114.16317
US,State College,40.79339,-77.86
IT,Rimini,44.05755,12.56528
DE,Plauen,50.4973,12.13782
AU,Crows Nest,-27.259929999999997,152.05164
SE,Karlshamn,56.1706,14.86188
GB,Isle Of Skye,57.363045,-6.301979224806201
US,Anchorage,38.266740000000006,-85.53302
US,Fontana,34.09223,-117.43505
US,Yorba Linda,33.88863,-117.81311000000001
SE,Sundsvall,62.391290000000005,17.3063
US,Walnut,41.47749,-95.22194
US,Santa Clarita,34.391659999999995,-118.54258999999999
US,Vadnais Heights,45.05747,-93.07383
US,Ludington,43.95528,-86.45258000000001
RU,Ковров (Kovrov),56.374603,41.311676
IT,Venezia (VE),45.4371908,12.3345898
US,O'Fallon,38.59227,-89.91121
US,Farmers Branch,32.92651,-96.89612
US,Deadwood,44.37665,-103.72964
GB,Cirencester,51.71927,-1.97145
US,New Ulm,44.312459999999994,-94.46053
BB,Bridgetown,13.107320000000001,-59.62021
GB,Flint,53.24488,-3.13231
DE,Oettingen,48.952740000000006,10.60465
DE,Eppstein-Vockenhausen,50.1479714,8.3780284
NL,Glimmen,53.13916999999999,6.629169999999999
IT,Ancona (AN),43.6170137,13.5170982
DE,Wacken,54.02078,9.37597
AU,New Town,-42.85758,147.30868999999998
US,Marina,36.6844,-121.80216999999999
US,Muscatine,41.42447,-91.04321
US,Ridgefield,41.28148,-73.49818
US,Aptos,36.97717,-121.8994
US,Eden Prairie,44.854690000000005,-93.47079000000001
US,Americus,38.50696,-96.26194
US,Port Ewen,41.90537,-73.97625
CH,Basel,47.55839,7.57327
DE,Roggenburg,48.27588,10.23136
US,Atlantic Highlands,40.40789,-74.03430999999999
JP,Fukuoka-ken Fukuoka-shi,33.5898988,130.4017509
US,Anderson,36.65063,-94.44355
US,Orinda,37.87715,-122.17969
GB,Huddersfield,53.64904,-1.7841599999999997
US,Mount Prospect,42.06642,-87.93729
GB,Luddington,52.1704564,-1.7595399
BR,São Paulo,-23.5475,-46.636109999999995
IT,Termon (TN),46.2699123,11.0354207
US,Stockbridge,42.45115,-84.18051
DE,Bochum,51.48165,7.216480000000001
BZ,San Ignacio Town,17.1527588,-89.0761718
AT,Innsbruck,47.26266,11.39454
AU,Mount Beauty,-36.73628,147.17531
US,Norwich,42.53118,-75.52351
US,Gloucester City,39.89178,-75.11629
FR,UZES,44.0121279,4.4196718
US,Massapequa Park,40.68038,-73.45512
GB,Keighley,53.867909999999995,-1.9066400000000001
MX,San Nicolas de Los Garza,25.73584235,-100.26649451652247
US,Rancho Cordova,38.58907,-121.30273000000001
US,Kailua,21.40241,-157.74053999999998
US,Mesquite,32.16454,-106.69666000000001
GB,Rugeley,52.7593,-1.93694
BH,Manāma,26.227870000000003,50.58565
US,Dillsburg,40.110929999999996,-77.03498
US,Tallahassee,30.438259999999996,-84.28073
US,Surprise,33.630590000000005,-112.33322
GB,Canterbury,51.27904,1.07992
US,Staten Island,40.562329999999996,-74.13986
US,Princeton,37.36623,-81.10259
US,Kew Gardens (Queens),40.7139415,-73.830742
BR,Belo Horizonte - MG,-19.9227318,-43.9450948
CA,North Vancouver,49.316359999999996,-123.06934
AU,Surry Hills,-33.88374,151.21282
US,Northglenn,39.88554,-104.9872
TH,Koh Samui,9.53567,99.93567
DE,Salz,50.51,7.963610000000001
US,Bloomsburg,41.0037,-76.45495
CH,Kyburg,47.4570858,8.744344
HU,Törökszentmiklós,47.18333,20.41667
SE,Kristianstad,56.031290000000006,14.152420000000001
US,Smithfield,41.83826,-111.83272
GB,Wigan,53.54296,-2.63706
DE,Dortmund,51.51494,7.466
US,Allegan,42.5292,-85.8553
DE,Lich,50.52085,8.815669999999999
ES,Granollers,41.60797,2.28773
VC,Kingstown,13.155270000000002,-61.227419999999995
GE,Tbilisi,41.694109999999995,44.83368
US,Frankenmuth,43.33169,-83.73801999999999
SR,Paramaribo,5.86638,-55.166819999999994
NL,Eindhoven,51.44083,5.47778
GB,Portsmouth,50.79899,-1.09125
US,Baker City,44.77487,-117.83438000000001
US,Barry,39.69421,-91.03902
US,Kasota,44.29247,-93.96495999999999
NE,Niamey,13.51366,2.1098
US,Fort Atkinson,42.92889,-88.83705
CA,Saint-Hyacinthe,45.630759999999995,-72.95699
FR,Scharrachbergheim,48.594251,7.494224
US,Montebello,41.13593,-74.11848
US,Elkton,44.23608,-96.48115
DE,Hofheim,50.13675,10.52321
US,Sandwich,43.79035,-71.41118
IE,County Leitrim,54.140162200000006,-8.052478216276088
US,Friday Harbor,48.53427,-123.01711999999999
US,Tulare,36.20773,-119.34733999999999
ES,Aranguren,42.7891563,-1.5353821
US,Oakdale,40.99203,-75.9202
RU,Voronezh,51.67204,39.1843
BR,Holambra - SP,-22.6332028,-47.0545305
DE,Traunstein,47.86825,12.64335
US,Dalton,42.4737,-73.16620999999999
US,Sonoma,38.29186,-122.45804
US,Grove,36.59369,-94.76912
US,Accord,41.78565,-74.22904
US,Havertown,39.9809452,-75.3085201
US,Placentia,33.872240000000005,-117.87033999999998
US,Ripley,42.266999999999996,-79.7106
US,Lowell,36.25535,-94.13076
DE,Landstuhl,49.413059999999994,7.57021
GB,"Munlochy, Rossshire",53.79648,-1.54785
US,Scranton,42.02248,-94.54525
FR,Chambretaud,46.921659999999996,-0.96405
AU,Burleigh Heads,-28.1,153.45
US,Northfield,41.34505,-81.52845
US,Lemoyne,40.2412,-76.89414000000001
AU,Willunga,-35.27127,138.55417
IL,Kiryat Gat,31.60998,34.76422
US,Westlake,41.45532,-81.91792
US,Catonsville,39.27205,-76.73192
US,Corpus Christi,27.80058,-97.39638000000001
US,West Dennis,41.664559999999994,-70.1728
NL,Oss,51.765,5.51806
US,Fort Madison,40.62976,-91.31515
DE,Drachselsried,49.10759,13.01185
US,Heath,42.67342,-72.82176
US,Lady Lake,28.91749,-81.92286
EC,Cuenca,-2.90055,-79.00453
US,Topeka,39.04833,-95.67804
DE,Witten-Heven,51.4403909,7.3085535
US,Leawood,37.037009999999995,-94.49689000000001
US,Camden,41.75227,-84.75773000000001
US,Old Saybrook,41.29177,-72.3762
US,Strasburg,39.73832,-104.32329
US,Morgan Hill,37.1305,-121.65438999999999
US,Windham,41.23506,-81.04926
CZ,Nosovic,49.6606723,18.426381
CA,Fernie,49.499959999999994,-115.06871000000001
US,Howell,42.60726,-83.9294
US,Gilbert,47.488820000000004,-92.46491
JP,Okinawa-ken Okinawa-shi,26.3343738,127.8056597
RS,Čelarevo,45.26999,19.52484
GB,Broughty Ferry,56.4666461,-2.8727725
US,Groton,45.44746,-98.09871
US,Biddeford,43.49258,-70.45338000000001
US,Lincolnshire,42.190020000000004,-87.9084
CA,Stratford,43.36679,-80.94972
RU,Bryansk,53.25209,34.37167
US,Gastonia,35.26208,-81.1873
US,Ventura,43.12635,-93.47771
US,Rocky Hill,40.39983,-74.63432
NL,Leiderdorp,52.15833,4.52917
US,Friendsville,35.76036,-84.13575
BR,Niterói - RJ,-22.8832371,-43.1154552
US,Lapeer,43.05142,-83.31883
US,Freehold,40.26011,-74.27376
US,Worchester,42.302738,-83.426516
DE,Fürth,49.65083,8.78472
US,West Boylston,42.36676,-71.78563
US,Rockville,45.47191,-94.34083000000001
ES,Tijarafe,28.7,-17.95
US,Tukwila,47.47399,-122.26096000000001
US,Ocala,29.1872,-82.14009
US,Moline,41.5067,-90.51513
US,Woodland Hills,40.01532,-111.64868
US,Rancho Santa Margarita,33.640859999999996,-117.6031
US,Bridgton,44.054790000000004,-70.71284
BE,Bourlers,50.02748,4.34123
IT,Milano,45.46427,9.18951
US,Pleasanton,38.17781,-94.71135
US,The Dalles,45.594559999999994,-121.17868
DE,Dresden,51.05089,13.738320000000002
US,Hendricks,44.50719,-96.42421
US,Fallbrook,33.37642,-117.25115
MX,México City,19.4326296,-99.1331785
CA,Newmarket,44.05011,-79.46631
US,Benton Harbor,42.11671,-86.45419
US,Bradenton,27.498929999999998,-82.57481999999999
MX,San Juan Totoltepec,19.4819418,-99.2442012
US,The Woodlands,30.15799,-95.48938000000001
US,Port Chester,41.00176,-73.66568000000001
FI,Vaaraslahti,63.3662448,26.7162382
CA,Kitchener,43.42537,-80.5112
US,Wentzville,38.811440000000005,-90.85291
AU,Brisbane,-27.467940000000002,153.02809
NL,'s-Hertogenbosch,51.69917,5.30417
US,Marshfield,37.33866,-92.90711999999999
CA,Dundas,43.2661904,-79.9546341
ES,Alcalá la Real,37.4614,-3.9230099999999997
US,Powell,44.753840000000004,-108.75735
JP,Nagano-ken Saku-shi,36.2488014,138.4767695
CA,Prince Edward,44.00012,-77.24946
US,Duryea,41.34397,-75.73853000000001
US,Arvada,39.80276,-105.08748
US,Yonkers,40.93121,-73.89875
US,Arnaudville,30.3977,-91.93151
CA,Saint John,45.270759999999996,-66.05615999999999
DE,Lichtenberg,52.51395,13.49975
GB,Dudley,52.5,-2.08333
US,Dekalb,44.50506,-75.27382
RO,Măneciu-Ungureni,45.31667,25.98333
DE,Simmozheim,48.75127,8.81142
ES,Hoyocasero,40.3989,-4.97455
FR,Pornic,47.11205,-2.08888
GE,Akhalkalaki,41.40514,43.486290000000004
BE,Ieper,50.85114,2.8856900000000003
CH,Schwanden bei Brienz,46.769607300000004,8.054822686813012
US,Hollywood,33.472879999999996,-86.78304
FR,Villarodin-Bourget,45.207879999999996,6.70955
US,Enola,40.29009,-76.93386
US,Bonney Lake,47.17705,-122.18651000000001
US,Sellersburg,38.39812,-85.75496
DE,Braunfels,50.51545,8.38918
US,South Daytona,29.16582,-81.0045
US,Suttons Bay,44.97667,-85.65064
BE,Breendonk-Puurs,51.045268699999994,4.31361086255486
US,Monterey,38.41234,-79.5806
US,Kahoka,40.420320000000004,-91.71961
AU,Eagle Heights,-27.9218796,153.2034386
GB,Whitley Bay,55.039730000000006,-1.44713
DE,Windesheim,49.9,7.816669999999999
FR,Miramas,43.58508,5.002680000000001
US,Dahlonega,34.53259,-83.98491
US,Foxboro,42.06538,-71.24783000000001
US,Slidell,30.275190000000002,-89.78116999999999
US,Rochester Hills,42.65837,-83.14993
US,Holly Springs,34.17399,-84.50131999999999
FR,nan
ES,Sant Boi De Llobregat (Barcelona-Catalonia),41.3459033,2.0413673
US,Colebrook,44.894490000000005,-71.49592
FR,Angers,47.47381,-0.54774
US,Rollingstone,44.09774,-91.81681999999999
US,Haymarket,38.812059999999995,-77.63638
MZ,Beira,-19.84361,34.83889
US,Lusk,42.76247,-104.45217
US,Aberdeen,42.94408,-112.83833
US,Westlake Village,34.14584,-118.80565
CN,Foshan,23.026770000000003,113.13148000000001
US,Mahomet,40.19531,-88.40422
US,McGaheysville,38.3712399,-78.7322449
US,Ames,42.03471,-93.61994
IT,Galbiate,45.81635,9.37902
US,Bozeman,45.67965,-111.03856
US,Sibley,43.39914,-95.75196
US,Romeoville,41.647529999999996,-88.08951
US,Harvard,40.6189,-98.09727
US,Athens,37.422340000000005,-81.0162
US,Chalfont,40.28844,-75.20906
DE,Quedlinburg,51.78843,11.15006
DE,Irlbach,48.84128,12.75135
US,Billerica,42.55843,-71.26895
US,North Manchester,41.0006,-85.7686
US,Chatsworth,34.25723,-118.6012
US,Johnson,37.570570000000004,-101.751
AT,Unterradlberg,48.253370000000004,15.67818
CN,Qingdao,36.06488,120.38042
US,Gibsonia,40.63007,-79.9695
SE,Örebro,59.274119999999996,15.2066
US,Arcadia,37.58811,-90.62901
US,South Burlington,44.46699,-73.17096
AU,Adelaide,-34.92866,138.59863
US,Rumson,40.37205,-73.99903
US,Wheeling,40.063959999999994,-80.72091
DE,Hoppstädten-Weiersbach,49.61667,7.2
